timestamp,timestamp_sample,xyz[0],xyz[1],xyz[2]
317892783,317892484,0.088447385,0.2588702,0.17480882
317895256,317894960,0.7686354,0.3758036,5.1974053
317897779,317897465,0.8860872,0.31928217,6.54241
318010544,318010219,0.30959246,0.3096151,-0.5834185
318013084,318012757,0.4928086,1.5094496,-1.0858841
318018135,318017830,0.0942236,1.2176024,-0.09411794
318020707,318020384,-0.67512846,-0.32430056,0.6608556
318024540,318024179,-0.82557917,-2.5765603,1.0207367
318028332,318027980,0.27951276,-1.8564293,-0.1949743
318030869,318030524,0.6960622,0.2741299,-0.89180344
318034644,318034323,0.9374779,3.101887,-0.6624693
318038427,318038129,-0.35145935,2.2617273,0.06905219
318042276,318041935,-1.1543449,-1.617838,0.83827007
318044809,318044470,-0.8185876,-3.2858608,0.56069404
318048619,318048314,0.16400641,-2.2347884,-0.19094738
318052403,318052084,0.48957244,1.6693834,-0.7790587
318058915,318058616,0.19073983,1.9786938,0.30117062
318062754,318062421,-0.6813098,-1.8019015,0.78638256
318067662,318067365,0.18625546,-2.5814674,-0.25688016
318070207,318069897,0.62114745,-1.0606558,-0.7081196
318072686,318072389,0.43156087,1.1673019,-0.5897162
318079025,318078725,-0.40607202,1.6535581,0.36979982
318080382,318080002,-0.4074552,0.7658483,0.57075334
318084108,318083798,0.055053983,-1.7147118,0.8319225
318089218,318088880,0.36129603,-1.3306605,-0.7903597
318090456,318090150,0.15801951,-0.692389,-1.2550894
318094252,318093949,-0.036596626,1.2237709,-1.2884433
318099346,318099023,-0.35210687,1.3184192,1.2157962
318100604,318100300,-0.3295393,0.8546411,1.7573298
318104401,318104104,0.07530843,-0.74887145,1.554511
318108202,318107902,0.43384096,-1.2647749,-0.9106356
318113282,318112978,-0.082683,-0.3821664,-1.8941224
318114588,318114247,-0.34614477,-0.009710062,-1.3579589
318118403,318118063,-0.6764974,1.0034548,0.80982655
318124696,318124396,0.4007143,0.14268076,1.5078067
318126015,318125679,0.6572204,-0.34323543,0.79363453
318129833,318129480,0.76032996,-1.1040537,-1.654536
318134855,318134552,-0.5738248,-0.37739733,-1.758355
318136185,318135832,-0.72877187,0.10073823,-0.8679973
318140208,318139840,-0.7929581,1.2340652,1.9648553
318142670,318142361,-0.28329876,1.3391095,2.629178
318146355,318146060,1.069656,0.16107829,0.5237619
318150218,318149906,0.8509636,-1.7228739,-2.183543
318153876,318153580,-0.08070874,-1.4175802,-1.9080552
318160245,318159938,-1.1765721,1.6359291,1.900847
318164054,318163725,-0.21409763,1.675448,1.9796227
318169113,318168802,1.4708865,-1.5560712,-1.0158886
318171706,318171337,1.4529632,-2.0695236,-2.5474486
318174171,318173873,0.36231187,-1.2956419,-2.405386
318180552,318180217,-1.6715231,2.0027843,2.331967
318181810,318181507,-1.2580103,2.0313437,2.9649198
318185610,318185303,0.41768047,0.30854282,1.7079351
318190722,318190371,1.3407925,-2.5276523,-2.1334841
318191941,318191635,1.149205,-2.3832154,-2.550675
318195736,318195441,-0.25229388,0.18715285,-1.5454876
318200824,318200517,-1.4542916,2.5575829,1.9090858
318203445,318203098,-0.8467474,1.2518698,2.355495
318205897,318205592,0.2607148,-0.9249479,1.3743653
318209703,318209395,1.390834,-2.227067,-1.1771934
318213504,318213200,0.8213236,-0.4309506,-2.1948369
318216040,318215737,-0.11391954,1.311847,-1.6294482
318221339,318221036,-1.3526849,1.432957,1.4473699
318223889,318223576,-1.185393,-0.34699112,2.0524306
318227678,318227333,0.47758058,-2.1147263,1.3299732
318230066,318229765,1.557701,-1.5041671,-0.35170814
318233860,318233552,1.1018177,0.9872177,-2.4038432
318237645,318237306,-0.62268394,2.2458432,-1.2401782
318241430,318241114,-1.4961762,0.13308458,1.1435267
318245229,318244924,-0.3258172,-2.4143465,1.9371347
318247751,318247453,0.49900886,-2.0543811,1.0236665
318252830,318252532,1.1122401,1.4629421,-1.2659873
318255378,318255074,0.56207776,2.4826455,-2.090264
318262980,318262679,-1.027507,-1.9363015,1.7553377
318265519,318265217,-0.68858176,-2.6378927,2.3597815
318271860,318271559,0.80903304,1.7545816,-1.6112823
318273138,318272829,0.90819794,2.437306,-2.1981978
318275662,318275366,0.60526776,2.4697483,-2.2140834
318280741,318280439,-0.39949766,-1.3783385,0.76033914
318283347,318282996,-0.7041506,-2.5251215,1.8283589
318287147,318286788,-0.4158199,-1.3754915,1.3501565
318292168,318291857,0.3661055,2.307343,-1.3502792
318293428,318293128,0.36834946,2.4977744,-1.7479458
318297228,318296930,0.56163037,1.0338861,-0.8870164
318302586,318302249,-0.2227857,-2.294906,1.2164214
318303773,318303475,-0.50979424,-2.491696,1.3912091
318307545,318307235,-0.5379314,-0.67495894,0.6614136
318311297,318310971,0.06473152,2.0037043,-0.96181583
318316277,318315970,0.74278086,1.1091003,-0.5530846
318317594,318317286,0.8648989,0.3389698,0.04285347
318322649,318322314,-0.12809412,-1.6815515,1.0576512
318328949,318328648,-0.9717242,0.53882504,-0.9943251
318332754,318332456,0.16508134,1.3699299,-0.9309247
318336559,318336260,1.2721647,0.6537046,0.5333312
318339107,318338796,0.98161805,-0.3277909,1.3695215
318342932,318342604,-0.26097962,-1.3883353,0.45474377
318347986,318347681,-0.91786474,-0.5716435,-1.4552519
318349308,318348953,-0.7473358,-0.084158175,-1.658549
318353079,318352754,0.35875496,0.9693016,-0.40472537
318356857,318356558,0.8934849,0.883016,1.6355767
318360735,318360372,-0.06353113,0.14793466,1.5614759
318364523,318364181,-0.81459045,-0.58709776,-0.74393463
318368294,318367976,-0.38006324,-1.0992218,-2.072094
318370845,318370512,0.3330848,-0.93934005,-1.2603134
318374651,318374321,0.45672613,0.47321928,1.2744
318378480,318378136,-0.007928694,1.6552219,2.2368793
318381003,318380669,-0.24272993,1.2306968,0.6747974
318384992,318384684,-0.32595402,-0.39414868,-1.5880631
318388724,318388424,0.084054545,-1.8224578,-1.9085883
318392578,318392221,0.30712208,-0.9029321,0.076640114
318395065,318394709,0.110626996,0.72585565,1.5198538
318398755,318398424,-0.3829427,2.3506954,1.716387
318429191,318428871,1.6115558,-2.436574,-1.0575671
318430456,318430140,1.1364429,-1.9162929,-0.7914268
318434245,318433944,-0.88846827,1.0065911,0.23490608
318438057,318437754,-1.8243169,2.352278,0.8039546
318440680,318440320,-1.1713926,1.3143877,0.9082607
318444406,318444100,1.3129201,-1.4430135,0.6156923
318449501,318449169,1.6340882,-1.6413305,-1.2349068
318450771,318450439,0.90518975,-0.9693504,-1.3238386
318454556,318454248,-1.7371111,1.4653436,-0.8490112
318459668,318459325,-1.4097705,1.4833343,1.2897831
318462196,318461862,-0.017836647,-0.16172443,1.5362629
318464946,318464631,1.624979,-1.6964642,1.1801618
318469929,318469625,1.227026,-0.635037,-1.3199662
318472455,318472151,-0.44749334,0.6810359,-1.9482136
318476185,318475886,-1.9544641,1.4998128,-1.1768078
318478671,318478375,-1.8559867,0.68211865,0.71217066
318482564,318482224,0.4604408,-0.9014011,2.9571488
318486260,318485959,1.9303395,-0.94331187,1.0138167
318490076,318489766,0.6840934,0.5269064,-2.3078222
318493887,318493582,-1.1270299,1.2904183,-3.212912
318496463,318496128,-1.5916796,0.5766877,-1.0396023
318500228,318499926,-0.52711254,-1.1007576,2.8592005
318506582,318506259,1.0979948,-0.08916603,0.4205299
318510371,318510066,0.41797698,1.4211609,-2.9983768
318514202,318513885,-0.39344123,1.0064963,-2.5801632
318519274,318518945,-0.37681085,-1.7668198,2.4751108
318521854,318521511,0.07304527,-2.1061575,3.486756
318524394,318524024,0.2502036,-0.99585783,2.4798248
318530668,318530363,0.14714074,2.0064795,-3.4177096
318531930,318531632,0.09063691,1.7601244,-3.4889781
318535740,318535436,0.14251816,-0.13824986,-0.5137607
318539539,318539243,0.08621744,-1.8023741,2.938317
318542154,318541787,0.009872296,-1.7076741,2.7255387
318546138,318545816,-0.6948774,0.1781186,-0.28650165
318551153,318550849,0.20638748,1.7881762,-2.5371287
318552402,318552085,0.63456154,1.4871889,-1.945125
318556122,318555822,0.8042763,-0.32292566,0.89460605
318562501,318562179,-0.91254234,-1.327387,1.7954096
318563656,318563352,-1.337789,-0.9811038,0.6741778
318567483,318567174,-0.99337286,0.502256,-2.1707556
318571287,318570959,0.68192524,1.6412772,-1.4761616
318575066,318574765,1.2328315,0.52606267,1.1333323
318577609,318577301,0.86813444,-0.49799535,2.2508357
318580154,318579840,-0.0610317,-1.2555965,1.4151446
318583951,318583644,-1.2202613,-1.0254487,-1.2180524
318587761,318587450,-0.49199453,0.26251715,-2.0557046
318592828,318592526,1.1998618,0.8734942,1.2146027
318594121,318593796,1.3243319,0.87601125,1.8824449
318597898,318597599,0.43923652,0.23670718,1.5919507
318601716,318601410,-1.04807,-0.9063428,-1.2426935
318605512,318605214,-1.1737711,-1.0227509,-2.4528615
318632358,318632032,0.42386347,1.5235263,2.2948678
318633611,318633297,0.18109472,1.7977617,2.667955
318637351,318637041,-0.49740595,1.3882203,1.1628028
318641095,318640793,-0.5605606,-0.784491,-2.0475235
318643626,318643321,0.0026108928,-2.0235648,-2.729526
318647380,318647078,0.9193239,-1.4161031,-0.43772823
318652458,318652152,-0.30453667,1.9196522,2.36505
318653721,318653422,-0.8147388,2.3593817,2.2707283
318657591,318657245,-1.1266451,1.3001474,0.1199273
318662601,318662301,1.0387733,-2.1552887,-2.0007682
318665194,318664846,1.5927387,-2.4673274,-1.3722258
318667739,318667383,1.2636007,-1.3319348,-0.046233904
318672751,318672450,-1.5073441,1.9850317,1.2186905
318675339,318675008,-2.208039,2.1111488,1.0840387
318679112,318678792,-0.13107571,0.23132347,-0.09574877
318681630,318681331,1.573915,-1.3208193,-0.93576753
318685442,318685141,2.1465838,-1.842262,-0.62419724
318689329,318688965,-0.12987265,0.23534378,-0.07665625
318693057,318692749,-2.3070102,1.8481958,0.013842304
318695654,318695340,-1.9815679,1.3316784,0.41615224
318699403,318699097,0.706366,-0.4659808,0.8521281
318703233,318702900,2.380243,-1.577767,0.5024888
318707033,318706710,1.385889,-0.44728243,-1.0353825
318709810,318709488,-0.7376854,0.7848681,-1.6985471
318713534,318713236,-2.7320027,1.2052985,-0.529291
318717284,318716980,-0.7481233,0.2524164,1.6153182
318723620,318723287,2.234737,-1.3107486,0.77276087
318724910,318724567,1.8976876,-0.98541796,-0.28109244
318727307,318727004,0.5148517,0.23690851,-2.1109912
318732394,318732079,-2.2878437,1.1643559,-1.7834566
318734910,318734615,-1.7435759,0.33568984,0.70426553
318738737,318738426,0.5064413,-0.59781075,3.087299
318742521,318742225,1.9743744,-0.8125946,1.7339773
318745056,318744761,1.4280202,-0.26053223,-0.9377799
318748868,318748570,-0.7891646,0.8669491,-3.7591145
318752690,318752375,-1.7098793,0.5462512,-1.481864
318756565,318756195,-0.037904136,-0.84417164,2.799619
318759043,318758719,1.2286094,-0.9427454,4.0793223
318764118,318763793,0.6398535,0.14397714,-0.8896583
318766657,318766331,0.07255674,0.6560587,-3.3340576
318769233,318768877,-0.4093504,0.9198466,-4.075573
318772977,318772676,-0.5345937,0.14989965,-0.26527596
318776820,318776502,-0.0024920374,-1.1606417,3.7117057
318780632,318780310,0.29120544,-0.9750505,2.7146664
318784402,318784104,-0.20345412,0.54021794,-1.7097995
318786939,318786636,-0.4336817,1.1780547,-3.6353695
318791033,318790665,0.3066741,0.87001413,-1.9831766
318794757,318794440,0.48682067,-0.47823474,2.058995
318797326,318796979,0.28161445,-1.135012,3.46471
318801000,318800685,-1.1020392,-0.7567708,0.90569615
318804744,318804443,-0.8680526,0.77695376,-2.6120145
318808488,318808193,0.87247556,1.5157177,-2.5310388
318813581,318813282,1.177207,-0.13425295,2.3440185
318814842,318814540,0.6655451,-0.7772617,2.8733673
318818642,318818343,-1.0861685,-1.6705253,1.1875604
318824987,318824687,-0.46291664,0.71775323,-2.4834814
318828789,318828492,1.4474204,1.4224979,-0.51416594
318835142,318834836,0.4035481,-0.8467336,2.3265986
318844019,318843717,-1.0408223,0.0019513866,-2.0455096
318846560,318846252,0.6542814,1.1369458,-0.6491049
318850357,318850058,2.1552947,1.7040323,2.1189983
318855441,318855137,-0.30943102,-0.5273851,0.6849277
318856701,318856404,-0.98086846,-1.2891415,-0.4007699
318860511,318860211,-1.8295768,-1.8829887,-2.592451
318864378,318864020,-0.4316767,-0.20954086,-1.0762887
318912537,318912239,-1.0032032,1.4917091,0.6871176
318916336,318916029,-0.57207954,-0.8436076,-1.4624199
318920206,318919844,0.7709147,-2.2248368,-1.6654769
318925212,318924909,0.9247888,0.059692636,0.6675409
318927804,318927456,-0.05486683,1.6726036,1.3119599
318951870,318951550,-2.444108,1.2385616,0.3320499
318957164,318956843,0.9882839,-0.6491091,0.78466177
318958477,318958140,2.0537205,-1.1030141,0.633967
318962227,318961887,2.55663,-1.1641822,-0.4858585
318965883,318965586,-0.5186184,0.28880867,-1.7368019
318969698,318969351,-2.641202,0.81276524,-0.70135856
318972165,318971846,-2.2545254,0.6460212,1.0820614
318977239,318976924,1.9429616,-0.12532665,2.659077
319026746,319026411,-0.4573278,0.19787237,-3.3330355
319029355,319028955,-0.38646305,0.104496986,-0.70540035
319031796,319031479,-0.3388432,0.04616677,2.7101212
319037061,319036759,-0.06585493,-0.50120103,2.663842
319039743,319039399,-0.017829712,-0.50226295,-0.1281739
319042122,319041793,0.13152902,0.06423018,-2.8010042
319045940,319045591,0.38572788,0.58466274,-3.2612836
319049650,319049318,0.2865488,0.61912215,0.75017375
319053342,319053043,-0.3953284,-0.41034064,3.6127841
319057207,319056871,-0.7048887,-0.98475766,1.5732671
319059730,319059394,-0.7596623,-0.8301803,-1.6815852
319063488,319063191,0.480694,0.38011143,-3.0202422
319067304,319066996,1.2345287,1.4934745,-0.49552098
319072372,319072071,-0.10639015,-0.1776456,2.8597531
319073643,319073342,-0.65455323,-0.73632663,2.5243752
319077460,319077146,-1.3318003,-1.5026886,-0.24536748
319083793,319083490,1.0317917,1.2485908,-1.7133251
319085069,319084759,1.5561533,1.7122006,-0.71694076
319088931,319088594,1.2636671,1.2856375,1.696081
319093941,319093641,-1.3054961,-1.5011905,0.651789
319095257,319094917,-1.6818709,-1.9266347,-0.39986446
319099033,319098712,-0.90762836,-1.4401518,-1.957017
319104091,319103789,1.4692727,1.9290986,0.17556281
319105359,319105058,1.6074587,2.3402476,0.885558
319109167,319108866,0.62339103,1.4480666,1.7560514
319112964,319112668,-1.1580219,-1.3332058,-0.055970553
319128393,319128037,1.032061,2.210581,1.581709
319129560,319129243,0.4821154,1.3446243,1.237944
319133308,319132994,-1.0956732,-1.9710435,-1.0305413
319137142,319136802,-0.9800797,-2.7691312,-1.9535699
319140900,319140579,0.31736025,0.0749056,-0.06340701
319144683,319144384,1.0485771,2.547002,1.9399494
319147223,319146920,0.46193054,2.5088859,1.3964008
319151052,319150726,-0.909768,-0.21487595,-0.6385909
319154840,319154539,-0.38006333,-2.47503,-1.3602438
319158680,319158346,0.9322316,-1.5228454,-0.70817024
319163713,319163414,0.2144218,1.928237,0.948934
319165018,319164683,-0.23295237,2.3969405,1.0139251
319168832,319168495,-0.86042947,1.4722557,0.741541
319175136,319174831,0.56171614,-2.0520997,-0.65467584
319178946,319178636,0.7216679,-0.8716535,-0.60822254
319184008,319183711,-0.49655324,1.4192518,0.4708128
319186564,319186247,-1.2506618,1.5439825,0.29436263
319190421,319190075,-0.5503616,-0.16767971,0.5732207
319195433,319195130,1.392082,-1.4084622,-0.25956696
319196746,319196404,1.4197385,-1.1674813,-0.46065885
319200850,319200513,0.42059582,0.38143355,-0.7309529
319204518,319204213,-1.3794907,0.7129334,-0.63892066
319207013,319206698,-1.7680743,0.5762183,0.2012466
319210839,319210511,-0.40442386,0.36030346,1.6662865
319215777,319215476,1.8424892,-0.7398187,0.3272103
319228416,319228112,-1.4685231,0.6660636,1.5131686
319232221,319231921,0.86350596,0.799968,2.2533457
319236024,319235726,1.8484899,0.15439385,0.18504386
319238637,319238280,1.0550152,-0.6056411,-1.8215603
319242417,319242079,-1.0126083,-1.0221008,-2.5050194
319246186,319245876,-1.5673811,0.12871407,0.33082718
319248747,319248413,-1.047938,0.9261668,2.1909559
319252552,319252224,1.0405058,0.71198624,2.9168274
319256335,319256027,1.7966045,-0.37894544,-0.28411162
319260183,319259837,0.47675344,-1.0171701,-3.0331457
319262670,319262369,-0.6286022,-0.8777713,-3.0619237
319266522,319266180,-1.3130009,0.20285577,0.5741927
319270299,319269982,-0.5255093,0.975001,3.389097
319276621,319276322,0.7491821,-0.23526983,-0.99787796
319280435,319280134,0.6342133,-1.0547434,-3.3739893
319285696,319285400,-0.2577386,0.43940443,-0.16395618
319288311,319287948,-0.62271,1.0054364,1.9184891
319290776,319290442,-0.67064923,0.7494364,2.953465
319296960,319296649,0.45303163,-0.9899745,-0.93864053
319298287,319297926,0.78269094,-0.9851291,-1.9022665
319302026,319301695,0.6989021,-0.00934965,-2.8243668
319305801,319305501,-0.07400196,1.1352683,0.13125184
319319805,319319463,1.2859118,0.12068042,-2.156212
319322358,319322000,1.5050278,1.2892425,-1.723444
319327371,319327068,-0.32953787,0.9553657,0.84752524
319329946,319329615,-1.2607924,-0.41513407,1.2804737
319333708,319333409,-1.4128997,-1.8000779,0.90232813
319337523,319337223,0.23407227,-0.94931936,-0.63258857
319341347,319341025,1.6702111,1.3302875,-0.86747515
319343864,319343562,1.5583477,2.3086584,-0.46588522
319347663,319347364,-0.27402043,0.76355827,0.30219778
319350220,319349905,-1.4563811,-1.406709,0.74186957
319354070,319353713,-0.9203764,-2.6392114,0.5021715
319357811,319357515,0.5167035,-0.34412277,-0.34477893
319361666,319361335,1.4088672,2.516126,-0.58973414
319364459,319364116,1.1316776,2.5782547,-0.42962548
319386995,319386696,-0.00606371,0.7113942,0.060522407
319389590,319389239,-0.46689522,-1.5191412,-0.04465329
319393399,319393044,-0.34772784,-2.5513372,-0.21717204
319398411,319398111,0.3378261,1.0134165,-0.22595093
319399698,319399381,0.45004913,1.7860277,-0.20353311
319403500,319403195,0.3457808,2.1198823,0.40613028
319407299,319406992,-0.007849659,-0.35019866,0.39203852
319409827,319409530,-0.43263757,-1.7923394,0.23860577
319413628,319413333,-0.3559861,-1.918703,-0.42959735
319418712,319418409,-0.020521728,1.1054405,0.034493316
319421252,319420948,-0.027528105,1.9686618,-0.095451176
319423851,319423493,-0.009310768,1.6356908,0.037861682
319431404,319431101,0.44955468,-1.7355367,0.12760623
319435205,319434900,0.17922129,-0.8670729,-0.50037503
319439038,319438708,-0.32711336,0.8866856,-0.72452664
319442813,319442514,-0.41540125,1.1046553,0.2710914
319445600,319445289,-0.16705872,0.65882313,0.9046232
319448112,319447808,0.15770333,0.16953085,1.2647767
319451892,319451587,0.49687243,-0.6000261,0.0470626
319455726,319455380,0.33330727,-1.18388,-1.6517165
319459373,319459073,-0.36706358,-0.44389695,-1.5165275
319463136,319462820,-0.6855507,0.8813481,0.44951427
319465726,319465386,-0.35500768,1.3783898,1.6041901
319469452,319469154,0.3763361,0.6673517,1.8379259
319473302,319472962,0.9277168,-0.70628804,-0.31302375
319479602,319479304,-0.47631967,-1.2734326,-1.4535412
319483453,319483116,-0.8194407,0.61677283,0.88330233
319488481,319488184,-0.15319286,1.7994002,2.4042916
319491094,319490729,0.5367897,1.0564536,0.6889039
319494836,319494528,0.93862724,-1.3893567,-2.0816429
319499905,319499602,-0.0883718,-1.6460085,-1.7562298
319501187,319500886,-0.4581779,-0.8032988,-0.71352285
319504970,319504675,-1.1198618,1.728814,2.0947876
319508787,319508483,-0.36570233,2.0577674,2.2297716
319511347,319511022,0.5505923,0.7596471,0.6519978
319536911,319536574,1.2162659,-1.7873124,-2.2077968
319540569,319540260,-0.34027606,0.03676575,-1.5313369
319543125,319542778,-1.3521926,1.4708651,0.115095325
319546839,319546543,-1.3579487,1.5074787,2.1438959
319550675,319550351,0.17701861,-0.84025496,1.436112
319553211,319552890,1.1501863,-2.0976098,-0.014796339
319557044,319556700,1.6963773,-1.1013074,-1.8580401
319562070,319561766,-0.3957715,1.9799315,-0.9660799
319564673,319564312,-1.4248576,1.6776553,0.60174876
319567194,319566850,-1.6750702,0.32582977,1.8490355
319570978,319570646,-0.22095267,-1.551053,2.028407
319574783,319574453,1.3121355,-1.3476957,-0.25987288
319581101,319580795,0.085364334,1.7535765,-2.1293674
319584905,319584601,-1.4728836,0.9749914,-0.016767569
319591278,319590944,0.0629325,-2.208662,1.9524714
319592531,319592223,0.55336225,-2.0525405,1.3671185
319595056,319594761,1.1531373,-0.6718514,-0.41050324
319601403,319601095,0.023521246,2.3065312,-1.7347952
319602664,319602366,-0.4564615,1.8561342,-1.2054152
319606464,319606166,-1.1286899,-0.83979183,1.3209252
319610541,319610220,-0.23329121,-2.554194,2.088094
319613103,319612753,0.33636418,-1.6865152,1.1871264
319616905,319616569,0.92376184,1.5225465,-1.027114
319621753,319621454,0.07502759,2.0620563,-1.9258081
319624443,319624030,-0.20955747,0.4188018,-0.34809673
319626848,319626513,-0.46947953,-1.3803201,1.4724808
319630604,319630285,-0.65034527,-2.3506489,2.080394
319634423,319634098,-0.45419604,0.016710501,-0.3019672
319638215,319637885,0.519008,2.2963207,-1.7547367
319641986,319641689,0.78421384,1.2293922,-0.8579219
319644624,319644276,0.54576397,-0.66099614,0.32829717
319648348,319648031,-0.47162834,-2.4462163,1.4106677
319652185,319651839,-0.8898791,-0.837463,0.76065654
319655984,319655650,-0.21473004,1.7121409,-1.215331
319658528,319658199,0.3412337,1.9992696,-1.6189013
319662303,319661987,0.9182882,0.49102286,0.05646928
319666137,319665794,0.4692682,-1.31237,1.1771274
319668644,319668331,-0.2417012,-1.6193119,1.0936475
319672445,319672136,-0.83125806,-0.27376497,-0.49434754
319676326,319675959,-0.51918834,1.1071273,-1.0600543
319682593,319682295,0.94751996,0.35527295,0.99537665
319686387,319686092,0.18961535,-0.90003383,0.7933188
319692981,319692667,-0.74744195,-0.6004574,-1.4485488
319694225,319693927,-0.54655486,-0.2584995,-1.458197
319697971,319697659,0.68324685,0.5291519,0.11669896
319700558,319700209,0.7535152,0.9774404,1.3433146
319704202,319703902,0.38747934,0.85006493,1.5931878
319707958,319707657,-0.3757174,-0.013131892,-0.1546023
319711784,319711464,-0.41935223,-1.3821372,-1.8917892
319714337,319714003,-0.21747893,-1.283308,-1.6405649
319718127,319717807,0.20801091,-0.08726736,0.18820146
319721930,319721614,0.09356,1.7111137,1.7803448
319726984,319726688,-0.06144297,0.8904641,0.3679492
319728310,319727957,-0.033983294,0.059439193,-0.2736504
319732060,319731765,0.37763304,-2.1077092,-1.7603207
319738423,319738105,-0.25836876,-0.126777,0.7252994
319739721,319739385,-0.4303281,0.86340994,1.1552995
319742216,319741921,-0.71619976,2.3428144,1.4815452
319747297,319746989,-0.14075787,0.8429503,0.16112338
319749817,319749522,0.613026,-1.3262547,-0.9529924
319753639,319753330,0.8877684,-2.7235143,-1.6073633
319759969,319759672,-1.1872396,1.5697902,0.84324974
319799314,319799003,-1.4266921,1.6831931,-1.2291548
319801867,319801538,-1.9598254,2.158764,-0.022817729
319805645,319805350,-0.60876673,0.6014501,2.1593482
319809499,319809155,1.8402066,-1.452906,1.3028532
319813280,319812968,1.9158399,-1.4805585,-0.8909692
319815789,319815493,0.29767495,-0.046128467,-2.495294
319819608,319819298,-1.8713009,1.5822034,-1.7175957
319823447,319823110,-1.5417442,0.7977126,1.3128176
319828482,319828178,1.3190916,-1.2234173,2.6981184
319829752,319829448,1.8255789,-1.283476,1.9106706
319833606,319833253,1.5097442,-0.42255774,-1.7709475
319838623,319838327,-1.2283183,1.2814537,-2.9278657
319841229,319840872,-1.8176094,0.80643713,-0.5711815
319843734,319843420,-1.1546804,-0.24695083,2.2510326
319848779,319848476,0.91804934,-1.2604464,3.0678446
319851334,319851015,1.1176223,-0.51330554,0.49575981
319853874,319853577,0.647823,0.7125706,-2.705066
319861639,319861338,-0.5231565,-0.11253421,0.16457401
319865397,319865066,-0.341447,-1.4175533,3.7693176
319869140,319868813,-0.12894775,-0.7679732,2.1610615
319871645,319871347,0.15697749,0.57896036,-0.71891934
319876767,319876461,0.441479,1.4495703,-3.5505104
319880494,319880192,0.3351714,-0.13763691,-0.07732059
319883038,319882728,0.12260625,-1.1674833,2.4091017
319885622,319885293,-0.23996675,-1.5791148,3.2695286
319897020,319896690,1.1317997,1.0238698,-2.0811946
319900812,319900506,0.9803542,-0.31957,0.6959818
319903366,319903028,-0.06594364,-1.1269784,2.4157972
319907134,319906832,-1.5159363,-0.75836116,1.6064928
319910979,319910646,-1.0318964,0.19879861,-1.5451941
319914745,319914446,0.9240904,1.0070727,-2.1979132
319917334,319917001,1.8937347,1.0393078,-0.8811852
319921106,319920789,1.2063401,0.2568246,1.5968751
319924953,319924612,-0.910203,-0.7508979,1.5021875
319929965,319929669,-1.71636,-0.5974955,-1.5044291
319932508,319932206,-0.39848208,0.38152966,-1.7347622
319935045,319934742,1.0621871,0.910583,-0.34319395
319941583,319941284,0.21611907,0.148285,1.4881067
319945329,319945017,-1.2251468,-0.86784863,-0.24996611
319950331,319950011,-0.62792367,-1.2605067,-1.6656764
319952934,319952582,0.42023006,-0.39630914,-0.68100893
319956682,319956344,1.5493488,1.4692637,1.5111761
319961683,319961385,0.042637352,1.2405894,0.9863155
319962952,319962655,-0.5410703,0.58988345,0.18726802
319966805,319966468,-1.0017053,-1.5478612,-2.0455992
319970596,319970289,-0.17081678,-2.0055025,-1.5895164
319973112,319972801,0.6369135,-0.672997,0.5806566
319976961,319976630,0.6367952,1.8976848,2.2034564
319982008,319981683,-0.75149214,1.5021442,0.16899963
319984566,319984255,-0.86273956,-0.45016348,-1.4545144
319988396,319988031,0.18338716,-2.6295505,-1.4932221
319990885,319990563,0.88840914,-2.2030988,-0.57886636
319994686,319994375,0.69329953,0.44232595,1.2042682
319998474,319998174,-0.951596,2.8151693,1.2551253
320002310,320001981,-1.343075,1.5785555,-0.10712579
320004822,320004519,-0.24456882,-0.6310148,-0.8565492
320008668,320008340,1.4225606,-2.7110221,-1.103734
320012428,320012130,0.91375387,-0.94536006,0.29601148
320016252,320015935,-1.2120298,1.7752163,0.8626564
320019004,320018681,-1.7310547,2.5249555,0.6366903
320022770,320022469,-0.67497313,1.0613191,-0.27476496
320026629,320026277,1.6038108,-1.7076384,-0.120633595
320029122,320028791,2.1683412,-2.3626943,0.03776536
320032794,320032467,0.31823385,-0.9943388,-0.35153347
320036535,320036228,-2.1272366,1.5997531,-0.6555079
320042879,320042577,0.20335267,0.54819864,1.13728
320044152,320043847,1.2345989,-0.31278846,1.198491
320046682,320046382,2.4990573,-1.643291,0.99819756
320051769,320051473,0.63110596,-0.9255069,-1.4664894
320054337,320054005,-1.5980935,0.54435515,-2.2236667
320058141,320057814,-2.340128,1.8623707,-0.59267646
320064474,320064151,1.8078032,-0.80053693,3.027605
320068254,320067948,2.3610904,-1.5328144,0.49753496
320072066,320071756,-0.04383632,-0.23135367,-2.8429782
320074634,320074309,-1.8131891,0.86853504,-3.5342653
320078398,320078102,-1.985372,1.0600066,-0.48215497
320083477,320083173,0.8622013,-0.61154354,4.0547895
320086023,320085709,1.8280189,-0.85764146,3.1220288
320088623,320088278,1.6056006,-0.4701226,-0.23369256
320092374,320092054,-0.17841074,0.31500044,-4.1983404
320096205,320095865,-1.607808,0.5252867,-2.356488
320100200,320099883,-0.6301432,-0.15597324,2.6570542
320103991,320103693,1.100631,-0.32310975,4.4176583
320107723,320107418,0.77287865,-0.25094765,-0.069318295
320110244,320109945,-0.23670511,-0.10587185,-3.303052
320113978,320113663,-0.7557101,0.6201004,-4.1691856
320119002,320118698,0.08934199,0.28170532,2.2948248
320120283,320119971,0.189337,-0.036089923,3.5097077
320124143,320123780,-0.04896503,-0.6308545,3.8301637
320127872,320127576,-0.57422346,0.109370045,-1.2126406
320131693,320131386,0.05781411,0.49630025,-4.1823096
320134230,320133921,0.8322504,0.32899004,-2.8166568
320139324,320139011,0.37443733,-0.56363744,2.821044
320141875,320141532,-0.8282444,-0.7624786,3.4495282
320145637,320145335,-1.3208447,-0.19702736,0.45700493
320148176,320147876,-0.6833031,0.22163484,-2.2489467
320151984,320151681,1.1663797,0.62461966,-3.0211625
320155820,320155487,1.8766634,0.16076687,0.56556684
320159626,320159292,-0.0719587,-0.35172343,2.9471924
320162149,320161829,-1.4917375,-0.49381196,2.1404548
320166005,320165642,-1.6343522,-0.6059219,-1.1069379
320169769,320169442,0.18269733,0.30918145,-2.2363741
320173632,320173253,1.9058503,1.1408417,-0.29158902
320176077,320175782,1.6719766,0.98686814,1.3899645
320179903,320179591,-0.5563254,-0.34766582,1.5973426
320184026,320183691,-2.1591473,-1.4680182,-0.43344098
320201465,320201164,-1.7589824,-0.75609297,-0.3611847
320205277,320204966,-1.7999388,-1.7583466,-1.8230864
320207817,320207498,-0.26026335,-1.2540845,-0.9703588
320211636,320211307,1.7377418,0.91881084,1.1368004
320215411,320215111,0.89366454,2.105014,1.6400516
320219220,320218918,-1.173526,0.6040777,-0.47182396
320221789,320221458,-1.601119,-1.2647465,-1.9363112
320226833,320226529,0.36884713,-1.8106083,-0.43741572
320229385,320229082,0.99971145,-0.31073168,1.0308363
320234455,320234141,0.2939149,2.2202556,1.5666705
320235739,320235411,-0.2543722,2.061511,0.95535976
320239548,320239225,-1.3058214,0.23297599,-1.2081813
320249716,320249366,1.3778393,-0.35308298,1.24901
320254741,320254442,-0.9303171,2.3346334,1.091022
320257329,320256983,-1.4983453,1.7126669,-0.45899564
320261195,320260792,-0.3141009,-1.0156131,-1.2751459
320266390,320266084,1.8976043,-2.0829318,0.115275726
320267664,320267332,1.7517606,-1.5760926,0.60680115
320271489,320271170,-0.44010687,0.8477944,0.56947625
320275126,320274821,-2.2263238,2.0523362,-0.5211024
320277702,320277369,-1.3647392,1.5141591,-0.4556933
320281414,320281109,1.2422576,-0.65974075,0.51910996
320286458,320286155,1.6017516,-1.5803435,-0.017389154
320290337,320289971,-1.2637149,-0.20436925,-0.66402006
320306753,320306453,1.2205527,-0.99530995,-0.65824246
320309347,320309018,-0.60819626,-0.50754774,-2.3479512
320313095,320312794,-2.320197,0.88411367,-1.9500322
320316976,320316609,-1.0162961,1.2096381,1.6173468
320320710,320320409,1.8114314,-0.2755481,3.4415722
320323306,320322951,2.4539032,-0.9311817,1.7530483
320327056,320326751,0.5508602,-1.0591426,-2.2680662
320330930,320330564,-2.014111,-0.116114944,-3.582355
320335935,320335631,-0.5877757,1.0074091,1.7724282
320337244,320336908,0.19737363,0.99009836,3.0436847
320341058,320340727,1.4817498,0.13452122,3.4405882
320346302,320345993,0.39956233,-0.62278914,-2.1186287
320347591,320347293,-0.008921977,-0.678837,-3.3924177
320351343,320351027,-0.8955018,-0.3108757,-3.3224015
320356445,320356115,-0.29348478,0.7571102,2.86831
320358927,320358590,0.32884747,0.56831366,4.6815357
320362617,320362303,0.61774343,-0.23208216,1.899712
320366382,320366079,0.29746234,-0.6506931,-3.4057298
320368927,320368620,-0.18225975,-0.31094092,-4.8840065
320372718,320372421,-0.23637594,0.21859924,-1.3104306
320376537,320376226,0.006491142,0.49953473,3.5599399
320379092,320378763,-0.087825306,0.23726778,4.139489
320382874,320382572,-0.6358056,-0.28626522,0.5382737
320386706,320386377,-0.17248598,-0.31413692,-3.6523492
320393024,320392720,0.8354801,0.6311323,0.08946064
320396819,320396524,-0.17206916,0.509093,3.3810515
320401918,320401603,-1.4785603,-1.3145562,0.7700653
320404436,320404139,-0.82801217,-1.2789527,-1.5781335
320408255,320407942,1.2430267,0.5157462,-2.7230535
320413326,320413018,1.0404232,1.2159585,0.7948733
320414645,320414319,0.41753092,0.74712145,1.5687972
320418453,320418119,-1.4273741,-0.8760599,2.0005558
320422213,320421914,-1.6376435,-1.289816,-0.6872198
320424777,320424437,-0.41847378,-0.835183,-1.5698817
320428844,320428531,2.0680854,1.0165707,-0.6837156
320433781,320433483,0.6334798,1.4622669,0.95296544
320436301,320435980,-1.2085956,0.092939645,0.76043093
320438842,320438486,-1.986408,-1.5276712,-0.03574547
320442528,320442226,-1.0369476,-2.0870051,-0.62203985
320446313,320446002,1.0370889,0.34173214,-0.22957149
320450135,320449807,1.9132458,2.5603564,0.63605213
320453910,320453614,0.017632358,1.5445062,0.37517935
320456457,320456152,-1.3885306,-0.7164766,-0.1982296
320460358,320459966,-1.6148875,-2.8783987,-1.1541346
320464092,320463763,0.28601903,-1.1821069,-0.06398436
320466621,320466310,1.6558429,0.99681556,0.84668577
320470409,320470113,1.3565266,2.7763257,1.0385814
320474213,320473912,-0.9039386,0.9511381,-0.4965526
320478012,320477716,-1.2992347,-2.202452,-1.1827381
320480621,320480317,-0.75356984,-2.8369682,-0.6237003
320484383,320484062,0.6550476,-0.8560068,0.60626227
320488180,320487873,0.9362354,2.114342,1.2138889
320494507,320494210,-0.7629593,0.84909517,-0.7549544
320498364,320498023,-0.5069617,-1.9684256,-0.79716426
320504657,320504359,0.80882555,-0.5661974,0.7564905
320505929,320505629,0.73690337,0.57325226,0.7853673
320508472,320508171,0.11502617,2.0140207,0.3450766
320514981,320514679,-0.6128712,0.0808081,-0.4754989
320516324,320515964,-0.24451852,-0.6225916,-0.064842485
320520102,320519728,0.7555614,-1.5027366,0.66697204
320523751,320523436,0.7828176,-0.70919985,0.12421061
320526236,320525941,0.1479446,0.3983596,-0.58918726
320530082,320529742,-1.2448956,1.4960713,-0.92535764
320535106,320534807,-0.39335886,0.4031998,0.8828715
320537693,320537352,1.0003953,-0.5547878,1.350913
320540203,320539880,1.8534372,-1.2577626,1.0279486
320543983,320543687,0.80330974,-0.8978625,-0.8203839
320547794,320547491,-1.278567,0.08139199,-1.6629556
320551642,320551308,-1.5998505,1.0156287,-0.25986528
320555405,320555105,0.41450244,0.9963431,1.9807124
320559332,320558950,1.7431636,-0.21544196,1.2460148
320561820,320561458,1.3168379,-1.1297338,-0.37403235
320565633,320565273,-0.7731387,-1.2698383,-2.4834137
320582057,320581762,0.5858211,-1.2924795,-1.5316902
320585854,320585558,-0.15149926,-1.5603492,-3.329449
320589678,320589359,-0.95971304,0.09724256,-0.8611393
320596179,320595883,0.0571267,1.3890241,3.1418517
320600006,320599690,0.99665743,-0.5775416,0.51575524
320604934,320604627,0.076719,-1.740001,-3.8733718
320607426,320607130,-0.7845499,-0.93344367,-3.0244515
320611254,320610918,-0.6464841,1.1441797,1.2498858
320616313,320615999,-0.080297455,1.1621962,3.737226
320617605,320617275,0.017002068,0.69259363,2.768231
320621382,320621075,0.4275088,-1.1122117,-1.8292329
320626444,320626148,0.74095374,-0.87774456,-3.0850656
320627745,320627417,0.5903131,-0.19889355,-2.1059217
320631547,320631226,-0.7610573,1.4079741,1.7911435
320639202,320638860,-0.23926876,-0.9910779,0.7785304
320641724,320641372,0.71608555,-1.512461,-1.7652025
320645477,320645178,1.2489141,-0.19689348,-2.8429034
320649336,320648993,0.59058625,1.3007985,-0.6102016
320653142,320652810,-0.9716349,0.7442495,2.3495767
320656891,320656595,-1.6389244,-0.79697907,1.976766
320660760,320660404,-0.18365644,-1.2693841,-0.926419
320663241,320662938,1.2897646,-0.4544379,-1.8730485
320667091,320666745,1.4837848,1.1252656,-1.3369209
320669613,320669304,0.67886573,1.8029199,-0.10581039
320673671,320673319,-1.1767192,0.14111157,1.23851
320677395,320677093,-1.5553207,-1.9099904,1.16079
320708905,320708610,0.43428126,1.7450669,-0.93551564
320712721,320712420,-0.749818,-1.1851757,-0.35238728
320717804,320717490,-0.83940566,-2.3620048,0.861463
320719147,320718781,-0.52439857,-1.8305018,0.8558481
320722901,320722569,0.61044455,1.0360218,0.4546312
320727946,320727639,0.5906492,2.352156,-0.74953127
320729221,320728916,0.4305078,1.7276326,-0.7551003
320733024,320732715,-0.35352027,-1.2046909,-0.3321358
320738102,320737788,-0.37026727,-1.8730515,0.6265938
320740670,320740346,-0.056270722,-0.2732327,0.5266399
320744439,320744133,0.3756026,1.8307698,-0.27380562
320746968,320746668,0.38922775,1.9784592,-0.620407
320750815,320750472,-0.0045266054,0.20210032,-0.112808175
320758615,320758316,-0.16386797,-1.577193,0.25008175
320761161,320760831,-0.09218447,-0.28388497,0.1712053
320764968,320764622,-0.26017922,1.312323,-0.43244264
320768661,320768338,-0.0742757,1.4367009,0.17198808
320772370,320772039,0.29444483,0.13196172,0.403761
320774872,320774573,0.24389614,-0.8565343,0.2626843
320778701,320778386,0.09226212,-1.1268778,-0.61257255
320782516,320782189,-0.18884553,-0.380497,-0.9225172
320785037,320784727,-0.60041,0.5928922,-0.5100311
320788845,320788533,-0.34980533,1.1671215,0.9014444
320792671,320792343,0.33893347,0.5499989,1.5633179
321813887,321813585,1.6860374,1.3041207,1.4449744
321815159,321814855,1.2353044,1.7181083,0.5694821
321817702,321817405,-0.12665659,1.8412055,-1.2858453
321824208,321823910,-0.735893,-1.6357472,-0.76263136
321825465,321825167,-0.18762982,-2.104632,0.2886734
321828034,321827702,0.720715,-1.9422032,2.0212479
321832955,321832659,0.4816907,0.9799166,1.2819793
321835543,321835212,-0.3826937,2.0686316,-0.9245099
321839290,321838969,-0.9614791,1.7569112,-2.4817595
321844400,321844038,0.263115,-1.3991804,0.85421646
321845595,321845300,0.65641457,-1.9291058,1.5944736
321849416,321849112,0.6793784,-1.5051454,1.9237007
321854480,321854182,-0.9760004,1.0604686,-1.5425135
321857021,321856717,-0.8870911,1.6722729,-2.1051414
321859623,321859284,-0.2263651,1.4549104,-1.3669379
321864631,321864331,1.1231556,-0.90964097,2.1069686
321867183,321866875,0.9303195,-1.6544493,2.0062
321871009,321870685,-0.9669809,-1.1598657,-0.5306029
321874784,321874483,-1.0887587,0.48283714,-2.325015
321877370,321877024,-0.20985544,1.4903307,-1.282723
321881160,321880833,1.0254564,1.7385517,1.6549301
321884928,321884629,1.0595994,-0.45158115,1.9895099
321888748,321888442,-0.3597218,-2.2439876,-0.68116874
321896363,321896051,-0.4789402,1.474132,-0.80880344
321898890,321898585,0.39252442,2.4535284,1.4732208
321901704,321901382,1.2536528,1.9515626,2.8934453
321905413,321905115,0.99056244,-0.6717607,1.2516977
321909184,321908863,-0.6447815,-2.4892156,-2.599219
321915415,321915116,-0.45782134,1.132365,-0.748369
321916660,321916362,-0.101340316,1.8992271,0.89142615
321920572,321920248,0.73190695,2.0638466,3.7074862
321925523,321925225,-0.010178973,-1.271025,0.21209976
321926838,321926504,-0.2360126,-1.9315491,-1.2978656
321930637,321930311,-0.71376395,-2.1739252,-3.6563942
321935672,321935374,0.20353276,1.5164591,0.5777792
321936973,321936644,0.36326072,2.2569828,1.9351101
321940782,321940452,0.096495375,1.9533113,3.251391
321944561,321944254,-0.07868217,-0.92804223,-0.05615613
322074134,322073785,0.12011912,0.79977036,-5.1222253
322076568,322076272,0.6131967,1.6761599,1.8952098
322081694,322081349,-0.10048494,-1.1176761,7.3525543
322084153,322083815,-0.51204914,-2.233347,2.1654303
322087914,322087612,-1.8582307,-0.11794612,-5.59105
322091738,322091424,-1.9584023,1.9892113,-2.7626348
322094325,322093959,1.9011934,0.5045896,2.290893
322098073,322097756,3.6595702,-0.010657489,3.7548857
322101877,322101570,-2.125234,0.101708435,-3.033683
322108227,322107907,0.25039947,-0.5888056,-0.5797615
322112017,322111712,-0.3070108,2.3358624,6.702251
322118410,322118063,1.3761854,-0.9142687,-1.8020386
322119646,322119339,0.081752785,-2.0833852,-4.241649
322122225,322121883,-0.7837734,-3.0926247,-7.558778
322128510,322128205,-0.7546932,1.3931464,6.0537148
322129794,322129475,-0.6751948,1.6212987,7.1870537
322149020,322148720,-0.41870278,-0.39467376,1.448638
322150357,322150010,-1.6071501,-0.17415853,-0.5847879
322154128,322153784,-1.2759079,0.94917876,-3.54091
322157781,322157477,1.4426847,0.9320227,0.49779108
322165300,322164996,-0.9211317,-1.3609592,-1.5476567
322167866,322167540,-2.645226,-0.58825535,-2.9427915
322172903,322172607,1.0370028,2.5904458,1.9790267
322290978,322290599,-3.4935048,-0.92522234,-0.8599353
322295962,322295664,3.0126305,0.40503398,1.953674
322297291,322296940,1.958118,0.85250205,1.7851843
322301141,322300778,-0.7756646,0.79933137,-1.8336242
322304841,322304544,1.4988698,-0.6097696,-2.459633
322308662,322308355,2.933085,-1.205902,2.4404168
322311395,322311057,-1.2712766,-0.6789102,4.35811
322317696,322317384,2.51338,1.461956,-4.3095093
322319008,322318667,3.7945187,0.8264392,-4.149989
322322715,322322416,-1.4318076,-1.4512633,1.7589937
322326473,322326162,0.040361073,-1.3089157,2.444038
322329007,322328664,0.561305,-0.9770603,1.1104004
322332815,322332469,-6.7228136,2.059963,-0.08668745
322336571,322336264,5.597023,-0.44696397,-3.0863981
322340462,322340101,6.3323765,-3.1227832,-0.95481133
322342992,322342630,-6.998007,0.17328562,2.817741
322377162,322376856,-9.068278,1.654375,0.88860816
322378424,322378126,-10.080072,0.77716476,-1.2142327
322382287,322381940,2.2382495,-1.4660951,-0.59801644
322386033,322385736,3.9373124,0.62056804,0.11054683
322388578,322388276,3.339496,2.3139377,-1.336857
322529449,322529111,-2.8072898,-9.056818,3.5565996
322533212,322532898,-5.9256897,-11.985177,0.7088959
322535740,322535435,-12.649731,-6.741491,-1.3426967
322539567,322539240,-10.503546,3.1970787,-2.0869718
322542142,322541785,-6.182975,0.2783856,-0.8511029
322545883,322545582,6.7846284,-8.425711,-3.2335274
322549707,322549399,2.33992,1.0669494,1.9726974
322553567,322553196,0.956253,-2.2972553,5.022679
322556381,322555991,14.175188,-7.650652,1.5108683
322560025,322559728,10.171068,0.88241476,-1.5306649
322563775,322563478,-19.538424,5.8061624,-3.7437818
322568777,322568481,-4.4850383,1.9357879,1.3483449
322570034,322569735,-0.545699,1.9534384,2.9380257
322575080,322574764,-1.890273,-1.2213874,-1.0556097
322580142,322579838,2.1881385,-4.0392294,0.49908993
322581404,322581105,2.4360945,-5.6350117,0.77558696
322585281,322584926,4.242367,-9.232961,-3.364061
322589012,322588716,5.055168,-8.142409,-2.6069517
322591673,322591261,7.7416606,-8.771061,3.0838912
322595400,322595067,6.8701706,-5.6205797,6.2089944
322600435,322600134,3.0229964,0.032034732,-1.8296112
322601738,322601404,0.05302387,1.7197222,-2.3034823
322605506,322605209,-8.909251,4.626192,-0.788221
322609320,322609014,-10.354402,8.646814,-0.27728677
322615659,322615358,-4.994653,12.21736,0.2340989
322619515,322619174,18.326462,5.212665,-0.5778555
322682894,322682594,-12.970419,12.351955,1.1003032
322686700,322686401,-7.9423175,0.124285996,-0.37333265
322693049,322692743,2.9495485,0.7883299,2.4999704
322696889,322696550,6.078594,3.646419,4.727914
322700675,322700355,5.954852,3.037017,-1.4627407
322703208,322702893,9.16752,0.52036226,-1.8453045
322707091,322706705,4.677856,-0.3414992,2.1081583
322712070,322711772,-0.22887346,0.31423107,0.9825904
322714679,322714318,-3.7718298,-3.9988847,1.0163872
322717151,322716845,0.66105056,-2.0113137,0.99142134
322721182,322720886,9.30359,0.056559984,2.3055851
322745057,322744756,-0.74435174,4.847437,-0.7339525
322748909,322748572,0.21471107,-0.513222,2.222044
322752680,322752368,2.863736,2.2911835,-0.14193998
322756473,322756174,-2.7072062,-0.636532,-0.064619474
322762829,322762517,3.0598786,0.19634373,0.97572803
322766640,322766333,1.4871515,-0.41768438,1.9435204
322771694,322771398,1.9389478,2.0610032,-0.12840788
322774250,322773936,-1.9280957,-1.1336524,0.43036515
322776777,322776480,-3.6063466,-2.0046864,0.74073124
322784389,322784091,-7.4356613,1.2875942,-1.5661222
322788251,322787891,-4.7934117,4.2805514,1.3644437
322793288,322792964,-8.668774,2.577695,-2.4955075
322878289,322877960,-5.548168,0.82730097,0.060770165
322883505,322883209,-7.324664,0.7922281,-1.0780778
322886173,322885833,-4.7311087,1.1868719,1.0221603
322889861,322889563,2.6619267,2.2035048,-0.30324075
322892408,322892055,-0.49094233,-0.6852574,0.7576131
322896162,322895819,-0.7263253,-2.5046825,-0.35046187
322899841,322899543,-2.4652998,-4.1102123,0.711216
322903652,322903335,-0.8179421,-1.6865622,1.3642755
322906261,322905880,-1.8688617,-1.708793,0.54731214
322909982,322909683,1.9043553,0.47051844,3.2155404
323021630,323021316,-0.2825005,-1.344214,0.4516979
323025482,323025131,-0.78430855,-1.9203677,0.23529491
323030491,323030195,3.421776,-0.39260104,-0.38625926
323033060,323032740,1.9230803,-1.298101,-0.5563802
323035610,323035282,2.5945268,-2.3082035,1.0096551
323041927,323041613,1.5357966,-2.3483396,-0.010462016
323043232,323042883,1.5204209,-2.2888045,0.93142676
323047297,323046948,1.9433135,-0.6514588,0.31138957
323052240,323051933,2.373103,1.4069798,0.7721978
323053510,323053211,2.1311908,1.8541476,2.0288844
323057272,323056934,3.8751369,1.2167667,0.30704045
323060982,323060685,2.5933726,2.7282538,0.34529993
323064762,323064453,1.0829269,2.0249214,0.0062992694
323067289,323066984,0.97756076,1.1998147,-1.4392958
323126923,323126609,1.4015436,-4.30443,0.51341724
323133448,323133152,0.99059105,-3.7598426,0.8307128
323134727,323134420,0.9726005,-3.4279854,0.47798577
323138529,323138191,1.5773085,-3.5852807,1.2026759
323143448,323143148,0.57286555,-1.7372315,-0.63630545
323144692,323144392,0.633399,-1.6170706,-0.373233
323148519,323148196,2.5154703,-1.810416,0.65717936
323153580,323153251,2.329692,-0.44697234,0.06622676
323154819,323154521,2.9112375,-0.30729246,0.5961586
323158672,323158332,-0.21240006,0.69595575,-1.082225
323163707,323163400,-0.6950696,1.1824472,-0.9188248
323166290,323165940,-3.2866452,-0.115095414,-1.3879399
323168816,323168484,-6.551366,-2.9772925,-0.037543185
323172597,323172281,-6.3905497,-1.9835039,1.2775878
323176443,323176106,-5.1100054,-1.5103117,-1.5191469
323180315,323179920,0.3008846,-1.1026995,1.6075699
323249996,323249677,-4.6144032,3.9735181,0.20438284
323256327,323256010,-5.170829,2.6988466,0.72903526
323260201,323259826,-5.0291867,3.6052072,-0.28698602
323265204,323264890,-5.7411532,4.3315935,-0.54547787
323267807,323267438,-3.0616224,1.5402524,-2.0028806
323270323,323269972,-1.7922115,2.541159,-0.56262314
323274075,323273770,1.2668636,2.9755397,2.3339677
323277930,323277577,3.3661666,2.9391258,0.21819673
323281705,323281393,-0.11742461,-1.6130269,-1.2414476
323285493,323285197,6.4170375,0.25709552,1.0302193
323289351,323289001,0.12050707,-1.3995323,1.0566941
323292058,323291739,-4.054846,-3.810715,-0.10612796
323379540,323379239,-0.36378857,-2.7106783,2.0273159
323382120,323381795,-1.7462097,-2.9592059,1.0229273
323387116,323386774,3.4199064,-3.006335,0.49548584
323389605,323389295,5.517537,-1.199532,-0.5571979
323393384,323393025,-2.1767323,-3.9417892,1.2164243
323397132,323396828,4.3235664,0.28365922,-0.405453
323399706,323399373,1.9228855,-0.14765166,-0.6355504
323406011,323405709,4.1386113,0.028912276,0.24470165
323407360,323406990,2.5857089,-0.35241228,-0.03184461
323411164,323410782,3.545566,-1.1644684,-1.2363236
323413653,323413326,0.47741812,0.7211019,-1.9396849
323418694,323418394,-5.322055,-0.5386328,0.53477746
323518914,323518612,0.3039954,-0.7620775,0.16667676
323522718,323522419,1.0702175,-1.124799,0.06365019
323527810,323527493,-0.6009949,-1.5724895,-1.0185994
323529064,323528763,1.0581541,-1.1781119,-0.86798805
323532917,323532581,0.53313607,-1.7274157,-0.2332262
323539452,323539151,-0.35722744,-2.9420593,-0.30483708
323540726,323540399,0.75905573,-1.9948426,-0.77567416
323544505,323544194,-1.2903757,-2.1147182,1.7895405
323546943,323546633,-0.8111249,-1.7261769,0.5053414
323550770,323550437,0.16149426,-0.54915327,0.7324439
323554469,323554157,-0.27756247,-0.7512568,-0.64403725
323558258,323557941,-1.4580154,-0.8845858,1.6463807
323560835,323560486,2.4729629,0.1580497,-0.22170895
323564596,323564283,4.1154613,0.5040215,-0.27326
323600199,323599811,-2.7573204,1.5873234,-0.34398797
323603920,323603609,-1.9264404,2.1174126,0.14602011
323606444,323606149,-1.9113393,-0.07224174,0.54805976
323610325,323609956,-1.8966341,1.557483,-0.49553183
323615335,323615027,5.179349,0.2571392,-0.5989468
323616610,323616304,6.886069,1.2589347,0.25701833
323620745,323620400,3.604363,-0.10436351,1.298001
323624429,323624128,1.3383425,-1.3945435,0.14444855
323628194,323627840,0.38956028,-1.5920533,-0.7240391
323630703,323630382,0.86948586,-1.932755,0.4997141
323635641,323635343,-1.6223161,-0.6010251,0.9047004
323638196,323637863,0.7313361,0.28307527,1.6418647
323642014,323641676,1.5200794,2.5317967,-0.6195238
323645869,323645495,2.187395,1.8655559,0.28519362
323729503,323729200,0.997631,0.82424563,0.34808588
323732044,323731742,2.1658895,2.097142,1.3937082
323735841,323735545,1.5633932,1.4876882,-1.0725466
323739665,323739349,2.4950395,2.3200336,-0.75331116
323743468,323743171,1.3386297,1.642385,-0.9574943
323747326,323746968,0.1936238,1.0090516,-1.1709348
323749826,323749510,-0.036026783,1.3094788,-2.2481277
323753669,323753331,-2.4182646,0.8875131,-0.19036122
323757461,323757127,-2.84559,0.9876252,-0.7358098
323761216,323760918,-3.3642304,-0.21100023,0.13850226
323763786,323763461,-2.1544821,1.4470896,-0.6352645
323767571,323767273,-1.0878024,1.7202815,0.39796776
323771367,323771067,-2.695747,1.2766008,2.387508
323777714,323777409,-1.924637,-0.16638738,-0.72448534
323781547,323781215,0.5646966,-0.041783787,0.28583977
323828454,323828153,-0.67673326,2.0423994,0.2442593
323833539,323833237,-0.90102786,1.5100288,0.27184817
323837342,323837033,-0.8722212,0.32652864,-1.78291
323841142,323840837,3.7179258,0.98311013,-2.5688543
323844948,323844646,-0.9513883,1.2650008,0.20046961
323848750,323848451,-3.4747198,0.83316195,1.1237336
323852633,323852266,-5.2443113,-0.41018942,-0.8710542
323855144,323854803,-2.5601728,0.6953675,0.19420078
323858964,323858607,-1.1754221,0.7010591,-0.1581345
323863978,323863678,-0.23240082,2.3751268,-0.5462601
323865464,323865160,0.055032894,1.9607152,0.13825363
323869247,323868948,-2.1514165,0.81629777,0.24101014
323932485,323932181,2.1300015,2.5532017,-0.29679072
323936362,323935991,-1.9483382,-0.7355291,0.16423173
323938817,323938521,-5.526199,-1.3332444,-0.6013295
323942655,323942336,-5.576516,-0.3210575,-0.5742664
323946485,323946143,-2.7723908,1.7591594,0.67929035
323950465,323950164,-0.045185253,0.84593236,0.22725636
323953000,323952676,1.8363177,-1.7593675,0.8296139
323956695,323956389,2.652959,-2.7283053,-0.2373687
323960453,323960154,-0.8503942,-2.474081,0.47952262
323964228,323963914,-2.1998608,-2.1548789,0.1260976
323966736,323966429,-0.01235327,-1.70622,0.93860835
323970556,323970239,0.95797724,-2.9901211,0.29618728
323974446,323974065,2.7709432,-3.3413615,-0.49410254
324026351,324026053,-2.0084405,1.8478823,-0.8132808
324031658,324031344,-0.6785025,1.355943,-1.3052982
324034168,324033849,-1.7727903,0.34451517,-0.5252511
324036780,324036423,-1.3745692,1.2713523,-0.27892166
324040410,324040110,-2.086106,1.4079345,-0.7370645
324044280,324043927,-4.2828965,-0.31252965,1.0019335
324047992,324047637,0.46742943,0.564387,1.0406674
324051744,324051427,2.5705712,0.5735557,0.18338317
324054330,324053965,2.5277538,1.4546705,-0.8181401
324058148,324057779,-1.3806641,-1.1103319,0.46887222
324061874,324061576,-1.0821726,-1.9333841,-0.33366752
324065712,324065382,4.085517,-2.795174,0.22281285
324068220,324067917,0.73162514,-3.183906,0.11473125
324072070,324071726,-2.2415605,-2.6022336,1.0127422
324075901,324075537,0.034415264,-2.8577876,-0.9293437
324215426,324215086,-1.009967,1.6621107,1.1517498
324219184,324218882,6.5154,0.13643469,-0.96492124
324223022,324222689,5.0657167,0.4042233,0.81966114
324229339,324229031,1.186512,-1.0837184,-0.6583745
324233176,324232847,-2.8061197,1.1949174,1.118703
324239484,324239180,-4.3378515,0.3929977,2.39491
324244620,324244277,2.4953325,1.1226333,-0.29404163
324250899,324250599,1.5799646,4.4648333,-1.4377321
324254725,324254404,-0.5783979,4.0489717,-0.74823374
324259774,324259477,-0.63612384,4.138759,-2.6719038
324261064,324260747,-0.25277054,3.6067977,-2.8683486
324344770,324344472,1.7388124,0.2157348,0.8399142
324351115,324350816,2.4090192,-0.75598073,-0.5517294
324352433,324352090,1.5226972,-0.17703122,-0.91055655
324356507,324356167,1.7706203,1.9312029,2.1070137
324361451,324361141,-0.15416965,2.3481278,-0.96786916
324362726,324362400,-0.61691386,3.4127436,-1.2775908
324366559,324366196,6.847095,1.7261631,-0.037284005
324370197,324369901,0.40579203,1.3048633,0.25329536
324372758,324372431,1.8979977,1.3169607,0.028199468
324376487,324376189,-1.872259,1.1310072,-1.4374775
324381588,324381282,-2.3696625,-0.07197011,0.13476332
324385414,324385074,-1.301798,1.9166125,-1.617098
324386697,324386345,-1.6773485,2.5829682,-1.286776
324390439,324390142,0.9036,3.1298034,-1.3352486
324516035,324515732,2.6713479,1.3166629,-0.7000517
324520057,324519719,1.3209746,2.8569448,-0.3774103
324523847,324523550,-3.1311524,1.7589316,0.061791163
324527747,324527372,-2.2522593,1.1285672,-0.8439684
324533856,324533557,-3.6363595,0.16388865,-0.7475252
324537617,324537321,-4.076584,-1.4703352,-0.15917209
324543944,324543643,-2.1277335,-0.84005976,-0.13251661
324549067,324548725,0.9459174,-1.4850713,-0.043725226
324554094,324553792,3.3700352,-1.7671525,-0.98357296
324555359,324555061,3.0933957,-1.5284069,-0.3727926
324559230,324558875,3.8280327,-1.5850494,0.7238366
324564249,324563940,2.2198858,-3.4159791,0.24973129
324565511,324565210,2.8979733,-3.8416212,-0.26692542
324569351,324569027,2.2351532,-1.4753835,0.22601148
324587116,324586779,-2.2646937,-2.3450892,2.1761868
324590977,324590633,2.7947967,-1.7001681,-0.988257
324594688,324594390,1.7044088,-0.5201562,-0.78605795
324597246,324596922,-1.2714789,0.47298396,-0.4132976
324601044,324600733,-2.0977662,-0.78846323,2.2260866
324605036,324604740,2.6163895,-1.3411424,0.5424692
324607594,324607254,-0.98294955,0.27277184,-0.63769585
324611318,324610986,-1.7458011,0.7068446,0.7176411
324615115,324614759,1.9580632,0.58397925,-0.8658169
324618799,324618501,-0.14174879,1.7243952,0.9116743
324621356,324621051,-3.4643736,2.1254406,-1.2136608
324625140,324624836,-2.316358,3.7268217,-0.5598885
324628934,324628639,-1.5870405,4.062538,-0.5005607
324634011,324633712,-2.4377172,1.0023295,-0.98456705
324635293,324634983,-1.1979858,-0.03308826,0.13864106
324639117,324638788,0.104735434,-0.62150097,0.28715044
324645426,324645130,-4.441405,0.20743765,-0.4980712
324646703,324646400,-2.1450007,0.56962967,-0.61972994
324649237,324648935,0.3186176,2.1762278,-0.16774541
324654319,324654010,-2.311197,-0.9041164,0.4204314
324656848,324656546,-0.09315813,-0.9241209,-0.2527327
324660733,324660361,2.7960525,0.9799076,-0.072168574
324665732,324665430,1.4640795,-1.2525107,0.029268743
324667024,324666698,1.6094337,-1.3206314,0.6347777
324670811,324670503,-1.40325,-0.85247767,-0.43950537
324674620,324674310,2.6528442,-0.8468703,0.45202687
324677153,324676850,0.6468187,-0.83293575,0.6006635
324681027,324680661,-1.2564169,-2.3705285,0.19231115
324686238,324685938,2.2293785,-1.1596124,1.0744226
324688839,324688495,-0.097069226,-1.5801575,1.3213813
324692490,324692183,0.5215842,-1.6576152,0.2714777
324694980,324694683,1.9405112,-1.104087,-1.4068931
324698741,324698440,0.51174253,0.5450416,0.22510515
324702518,324702220,-1.2225786,-1.3000815,0.8950723
324706339,324706023,1.3983501,-2.3131673,1.2749608
324708862,324708560,3.075561,-1.9226413,0.84488493
324726620,324726320,4.1618843,1.8280483,-0.14347604
324730445,324730127,1.2281796,2.9855168,0.5042551
324735497,324735200,2.9091856,0.5204831,-0.25429332
324736820,324736470,3.797903,0.32278812,-0.20713028
324740610,324740282,1.7883393,1.8225418,1.6098189
324746934,324746618,0.2575824,0.97698855,0.91340107
324748245,324747896,0.5093874,0.585546,0.76574856
324750777,324750442,-0.8580175,1.8166804,-1.1230739
324755800,324755500,-2.796729,1.4504054,-0.014207674
324758356,324758033,-1.3094835,1.0982317,-0.3894955
324762226,324761849,-7.3996925,-0.83881044,-0.7958431
324766156,324765853,-2.4662056,0.4062329,-0.92724425
324768755,324768422,-1.5860981,1.3425257,-0.30805272
324786258,324785951,-0.95631325,-0.11102192,0.7071251
324793881,324793578,-0.7629704,-1.9371079,0.2992844
324796424,324796098,0.5094565,-1.7986931,-0.7311088
324801464,324801167,2.5930986,-0.21427058,-0.4765795
324804018,324803705,1.9812341,-0.88376766,-0.23362724
324806564,324806243,0.2624998,-2.1646724,0.18084489
324812888,324812587,0.008832023,-2.6632636,-0.28591114
324814154,324813854,1.7264968,-2.617514,-0.44214112
324818026,324817666,2.3220115,-2.495185,1.2871398
324821778,324821482,-1.5661297,-3.7281342,0.11453991
324824340,324824018,-0.093790784,-4.115355,0.58505654
324828115,324827806,5.934318,-3.9469154,-0.2694928
324833180,324832882,1.8878294,-3.9080372,-0.33880553
324835750,324835430,-2.6399477,-3.1174424,-0.17919204
324838257,324837957,-1.9257665,-1.9558727,0.15203044
324842063,324841762,3.093052,-1.1913425,-0.027761735
324845874,324845571,2.3342493,-1.498038,0.4467586
324848770,324848422,2.122234,-1.4192269,0.4353288
324853652,324853340,1.0787416,0.20548679,0.5748998
324856194,324855845,0.7844717,2.2671704,0.12138444
324859895,324859577,3.818798,2.8676016,1.2994474
324863660,324863359,3.4657197,4.260038,0.59726137
324867438,324867136,0.5056039,6.00293,-0.8072932
324869970,324869669,2.0428066,4.508628,2.0463421
324873774,324873477,2.0136485,1.8797617,-0.805502
324877659,324877312,-0.013757865,2.792197,-0.15337472
324883942,324883630,2.8563497,2.6697695,-0.09838917
324887737,324887432,2.9124217,1.869764,-0.23077807
324894078,324893774,-0.36749947,3.5168824,-0.7140167
324897895,324897595,-2.017082,3.1831324,-0.6720231
324902956,324902657,-1.3813814,1.622801,0.47401255
324905503,324905200,-4.1198373,1.0207707,-0.83725375
324909317,324908999,-4.582661,-0.7074704,0.7065235
324914375,324914071,-6.006657,-3.5525813,-0.05937464
324915681,324915346,-6.528893,-3.5717237,-0.30779818
324919450,324919150,-1.9688388,0.4285015,0.032274984
324923248,324922951,-0.6340393,1.4044082,-0.58445084
324925805,324925495,1.389986,0.8629571,0.8977148
324929806,324929505,0.9409008,-0.4569662,-1.2323118
324934840,324934542,-1.3140651,-1.0815918,-1.3527824
324936112,324935784,-1.264415,-0.43895024,-0.9403476
324939905,324939567,-2.6526082,-0.5683357,1.2415736
324944839,324944540,-1.0773205,-2.305499,-0.5461801
324948696,324948361,-0.79204667,-2.9055824,0.84286946
324951166,324950862,1.5150688,-2.0685756,0.18183896
324953694,324953397,1.9790568,-1.0346605,0.57283527
324957540,324957204,1.9572697,-1.9100522,-0.021820422
324961394,324961016,-1.5497051,-4.1728477,0.7221834
324965140,324964815,0.5426509,-3.7737098,-0.38100728
324967659,324967351,2.291514,-2.340473,1.0661124
324971464,324971159,3.8286474,-0.75122887,0.30310664
324975273,324974964,0.50104606,-2.9613485,0.3472791
324979073,324978768,0.9984619,-2.5538383,0.07148164
324984188,324983854,1.055101,-2.268972,0.56957823
324985419,324985115,1.1141318,-2.2635314,0.27778307
324989216,324988919,-1.4064553,-0.5511773,-0.42099115
324995590,324995279,2.8957214,-1.2865138,-0.27347702
325000702,325000345,0.14552046,-0.83333653,0.81327766
325004438,325004141,3.2693686,-0.7907117,0.13800283
325007008,325006683,4.349813,-0.95494264,-0.31281435
325009521,325009221,0.6188902,-0.9756296,-0.84870404
325031144,325030810,-1.2501132,0.6646458,-1.2892686
325034889,325034587,-4.3399744,-0.20753075,0.102929935
325038701,325038393,0.23893782,-0.22482802,-0.8427538
325041284,325040939,0.6637225,2.0252078,-1.3548744
325046312,325046004,-6.7289085,1.4368826,0.1528932
325050199,325049837,-2.5380068,2.7245076,0.65467036
325052676,325052358,-1.4428039,2.1464438,0.61118704
325055181,325054884,-1.925288,2.0838456,-1.4191273
325060354,325059968,-4.099564,0.3080081,-0.4687296
325062794,325062497,-1.1069564,-0.051570673,-0.15811172
325066671,325066314,3.029232,-0.062449437,-0.93105
325069163,325068837,4.1417675,0.7322233,-1.9393151
325072956,325072652,-1.7511643,2.010295,0.12188415
325076796,325076466,-3.5372512,0.5152444,0.32281992
325080608,325080263,0.39562362,0.91761047,-0.026759004
325086900,325086599,-4.320715,1.6663013,-1.0431004
325090774,325090406,-3.5507824,0.51359415,0.4438923
325095979,325095683,2.7890308,-2.1979086,1.4197338
325097253,325096934,2.88464,-2.757555,0.932616
325101007,325100681,-3.062662,-2.4472802,-0.4954399
325105972,325105676,2.8503149,-1.9593115,-1.7288148
325108535,325108215,5.091953,-1.0692222,-0.9049824
325112357,325112013,2.3842165,-1.3519983,-0.2691392
325164322,325163999,-1.1178982,-0.20190413,-0.6812514
325168107,325167789,1.3903579,-1.6327175,-0.46269545
325170651,325170327,0.52242583,-2.3927453,-0.2733271
325174611,325174313,1.3917961,-1.8060076,1.0006491
325178457,325178158,0.59988654,-1.0454237,-0.30753586
325182294,325181929,0.15292893,-0.849248,-0.3395074
325184783,325184421,2.0040672,-1.1652008,-1.7083659
325188433,325188134,-0.8454087,0.61185044,0.037070222
325192248,325191885,0.3056356,0.83060867,0.07578849
325197288,325196966,-1.1802205,-0.29813433,-0.07838408
325198540,325198241,-1.170421,-0.17725359,-0.55171806
325202350,325202050,0.995611,1.4530319,-0.5604433
325218837,325218533,1.2599173,2.5297003,0.0875418
325220170,325219808,1.955218,2.4499002,1.5476991
325223943,325223615,0.2777762,1.3456217,-0.3389808
325228982,325228681,4.421422,3.1485815,0.38189894
325230283,325229975,2.5142288,2.409912,0.11458968
325234049,325233754,-0.036584727,0.62951833,1.3930923
325237865,325237561,-4.2665014,-2.8333073,-1.8487703
325241700,325241377,3.057544,2.0948768,-0.419782
325244220,325243913,-2.5632114,2.033926,-0.50491184
325249288,325248978,-0.99916995,0.2086506,0.9670891
325253156,325252790,-3.5236645,0.016619831,-0.67453295
