timestamp,timestamp_sample,xyz[0],xyz[1],xyz[2]
317891511,317891181,0.001037262,0.0010784287,-0.0033758362
317892786,317892484,0.0037963067,0.0015656434,0.01238265
317895258,317894960,0.0060404185,0.001954429,0.031485
317897782,317897465,0.003950931,0.0018758643,0.026616456
318010558,318010219,0.0010732333,0.0036581242,-0.002011826
318013094,318012757,0.0051829554,0.009697714,-0.0031312807
318018138,318017830,-0.0009123438,0.0060604652,0.002186694
318020710,318020384,-0.0037639758,-0.0035684037,0.0057374723
318024542,318024179,-0.0011116106,-0.013505406,0.005581399
318027012,318026710,0.0007160474,-0.011453218,0.0007442653
318030872,318030524,0.004200539,0.0035983438,-0.0025307299
318034647,318034323,0.005035116,0.015834687,-0.00068175397
318038430,318038129,-0.003249437,0.007899895,0.002237864
318042278,318041935,-0.0045149312,-0.008958603,0.005019725
318044812,318044470,-0.0025753155,-0.01541714,0.0021686791
318048622,318048314,0.00018734873,-0.0065551354,0.00033169935
318052405,318052084,0.0013606685,0.009805047,-0.0032502296
318055189,318054841,0.003611433,0.015877232,-0.00021390525
318058918,318058616,-0.0011032112,0.0062631527,0.003101149
318062760,318062421,-0.0020458663,-0.008225666,0.005692568
318067664,318067365,0.0031008879,-0.011008948,-0.0011515834
318068947,318068614,0.0031054963,-0.008199672,-0.0012372802
318072689,318072389,0.0011053259,0.007585389,-0.0008732635
318077761,318077459,-0.0013401407,0.0078120194,0.0022351912
318080385,318080002,-0.00074645516,0.0011971348,0.004925558
318084111,318083798,0.0025126706,-0.0074168546,0.006434626
318089224,318088880,0.0010504778,-0.0047693853,-0.0046601347
318090459,318090150,0.0009528919,-0.002244786,-0.006359223
318094254,318093949,0.0009763549,0.006210859,-0.0039929277
318099349,318099023,-0.00072485826,0.0054070195,0.009124056
318100607,318100300,-0.00037248858,0.0033637532,0.011337787
318104404,318104104,0.0021982552,-0.0032860085,0.006963519
318108205,318107902,0.0030450693,-0.004140131,-0.0051836055
318113284,318112978,-0.0008322084,-0.002224519,-0.005754526
318114590,318114247,-0.0020649212,0.0002715698,-0.004070251
318118406,318118063,-0.0027387228,0.004730323,0.006506228
318124699,318124396,0.0029711216,-0.00051642687,0.006478077
318126018,318125679,0.0046964516,-0.0016929458,0.0030039225
318128581,318128207,0.0043040738,-0.00435246,-0.005216364
318134857,318134552,-0.0020595524,-0.0011492729,-0.004908208
318136188,318135832,-0.0028328819,0.0005767233,-0.000308603
318140215,318139840,-0.004191978,0.007032512,0.012597637
318142672,318142361,0.00062560727,0.006283448,0.012407474
318146358,318146060,0.005055913,0.0001620275,9.376551e-05
318150220,318149906,0.003172909,-0.009581313,-0.007803566
318153878,318153580,0.00033834646,-0.0050687403,-0.0077117225
318160247,318159938,-0.0055031,0.008413847,0.010596394
318164060,318163725,0.0005744065,0.005855094,0.009656469
318169116,318168802,0.009246519,-0.008449793,-0.006902424
318171709,318171337,0.006577236,-0.008903224,-0.011236105
318174173,318173873,0.0007204288,-0.0044524386,-0.009014078
318180555,318180217,-0.005193164,0.009565131,0.014281232
318181813,318181507,-0.0028946484,0.009799691,0.015113353
318185612,318185303,0.0021087376,-0.001877896,0.0061185234
318190725,318190371,0.0062780534,-0.0121886395,-0.008548532
318191943,318191635,0.0046003703,-0.009777676,-0.009789315
318195739,318195441,-0.0010819369,0.003153895,-0.0027856533
318200827,318200517,-0.006168822,0.009681109,0.011085542
318202117,318201785,-0.0044508637,0.0058663236,0.012084013
318205900,318205592,0.002091815,-0.007248635,0.0056392127
318209705,318209395,0.006520242,-0.009306811,-0.0041205995
318213506,318213200,0.0036916079,0.0006255098,-0.009404423
318216043,318215737,-0.00063322665,0.008115945,-0.005491964
318221341,318221036,-0.0072113727,0.0027537409,0.007818122
318223892,318223576,-0.0055465642,-0.004573532,0.01046456
318227680,318227333,0.004274108,-0.010004855,0.0074419654
318230069,318229765,0.0076829526,-0.003973658,-0.0032395832
318233865,318233552,0.003909761,0.006265514,-0.0076111685
318237651,318237306,-0.0043229694,0.009683521,-0.0032961073
318241433,318241114,-0.0053134025,-0.0044017048,0.0077591892
318245234,318244924,-0.0014545517,-0.011686239,0.008018789
318247754,318247453,0.0031043822,-0.007611485,0.0055397446
318251610,318251284,0.005430508,0.004167389,-0.0030104346
318255380,318255074,0.0035129886,0.011438595,-0.008397621
318262982,318262679,-0.0034183052,-0.011804333,0.011303145
318265522,318265217,-0.0019122636,-0.010779991,0.012239719
318271863,318271559,0.0045693284,0.0105531,-0.0074921674
318273140,318272829,0.004326592,0.012731016,-0.0084732855
318275664,318275366,0.0021127246,0.00858678,-0.008051073
318280743,318280439,-0.0010578177,-0.00856113,0.005701687
318283356,318282996,-0.003611949,-0.01162505,0.007780612
318287150,318286788,-0.0004491851,-0.003899799,0.00568197
318292171,318291857,0.00049623824,0.0101878205,-0.0069818604
318293430,318293128,0.0010586405,0.009531249,-0.006424595
318297231,318296930,0.0040774453,0.0030474125,-0.0013218169
318301233,318300900,-0.00066422095,-0.010258001,0.005298132
318303776,318303475,-0.0023733068,-0.011663502,0.0076147327
318307547,318307235,-0.0014141588,-0.00055568514,0.0024275745
318311300,318310971,0.001271428,0.008528383,-0.0030830088
318316280,318315970,0.0060030785,0.0026456465,0.002571203
318317597,318317286,0.006056192,1.299808e-05,0.004015738
318322651,318322314,-0.0015870554,-0.0063909935,0.0060437117
318328951,318328648,-0.0032070894,0.0032823533,-0.003975419
318331516,318331190,7.2103445e-05,0.0063490234,-0.0030439636
318336562,318336260,0.006581662,0.002756583,0.0064808796
318339109,318338796,0.0036340049,-0.001199966,0.0077947415
318342939,318342604,-0.00086773076,-0.00710628,0.0014026045
318347989,318347681,-0.0027844019,-0.002542173,-0.008199381
318349311,318348953,-0.0010829199,-0.0011466028,-0.008332967
318353082,318352754,0.004037219,0.003246926,0.001351728
318356860,318356558,0.0038375428,0.0032790732,0.008087668
318360738,318360372,-0.0007832309,0.00038231004,0.0067166677
318363261,318362909,-0.0026701086,-0.0016252756,-0.0016418757
318368297,318367976,0.0005762635,-0.0075026224,-0.007917021
318370848,318370512,0.0029551066,-0.0055760015,-0.0025537494
318374654,318374321,0.0009359696,0.0031965333,0.009706366
318377159,318376857,0.0005938757,0.0067401724,0.01230049
318381005,318380669,-0.001368791,0.0049661244,0.0005699453
318384995,318384684,-0.0011559024,-0.0043023936,-0.0059593082
318388727,318388424,0.0019444962,-0.009632779,-0.00836633
318392581,318392221,0.0009881853,-0.002659154,0.0033860938
318395072,318394709,-0.0002124979,0.004704436,0.005876325
318398761,318398424,-0.0028829398,0.0118941795,0.0076379282
318402533,318402230,-0.0012312373,0.0016845175,-0.0018661505
318429194,318428871,0.0063398588,-0.008890935,-0.0031135408
318430459,318430140,0.004096556,-0.0049464405,-0.002683359
318433017,318432678,-0.0023080637,0.0037698813,0.0004653873
318438059,318437754,-0.008396264,0.010308219,0.0033753288
318440682,318440320,-0.0030133876,0.0031661037,0.0076024137
318444409,318444100,0.009027938,-0.008288065,0.003018068
318449503,318449169,0.0065589664,-0.0059027653,-0.004160229
318450774,318450439,0.0015649647,-0.0027790878,-0.0048462283
318454559,318454248,-0.00782214,0.008399211,-0.003051877
318459671,318459325,-0.006212269,0.0050087366,0.006933408
318462199,318461862,0.0028733755,-0.003970014,0.008888863
318464949,318464631,0.009506112,-0.008727126,0.007240864
318469932,318469625,0.0037892503,-0.0008113783,-0.0054233177
318472457,318472151,-0.0030228987,0.0041875606,-0.008834652
318474924,318474625,-0.0073440857,0.0063907844,-0.0073083276
318478674,318478375,-0.00677185,-0.0001817539,0.009454332
318482567,318482224,0.00400161,-0.0045801606,0.015198213
318486269,318485959,0.008248327,-0.0026599984,0.004308542
318490079,318489766,0.0011941806,0.0058615925,-0.012830558
318492640,318492315,-0.003967203,0.006339746,-0.015676051
318496470,318496128,-0.0066290474,0.001664667,7.8703786e-05
318500240,318499926,-0.0018037441,-0.006329598,0.016041871
318504097,318503724,0.003363846,-0.0023783576,0.011052817
318506585,318506259,0.0027115573,0.0016505277,-0.0018756101
318510374,318510066,0.0017494074,0.008403339,-0.013308848
318514204,318513885,-0.002758963,0.0038135808,-0.009627446
318519277,318518945,-0.0006924566,-0.010151514,0.013452823
318520531,318520214,0.000916632,-0.010391255,0.016304204
318524397,318524024,0.00026190138,-0.0017339806,0.009662873
318530671,318530363,0.00037502,0.007697185,-0.014669491
318531956,318531632,0.0004937879,0.006399229,-0.0137402965
318534520,318534169,0.0020002052,0.0006441917,-0.002760712
318539542,318539243,0.0020100542,-0.009265933,0.013351077
318542156,318541787,0.00020401379,-0.0073717274,0.010190288
318546140,318545816,-0.0037156355,0.002838395,-0.004169318
318551156,318550849,0.0040513305,0.0068109613,-0.008229234
318552405,318552085,0.004778522,0.00529486,-0.0046023945
318556125,318555822,0.00414048,-0.0019691533,0.0065262914
318561234,318560888,-0.004087891,-0.0064647608,0.01012254
318563659,318563352,-0.00784167,-0.0040325704,-0.0008282895
318566231,318565891,-0.0056089815,0.0003093969,-0.0069627906
318571290,318570959,0.0034129191,0.0067121238,-0.002280463
318573872,318573504,0.003987773,0.0034197362,0.0064471033
318577612,318577301,0.003338557,-0.0028586532,0.011131096
318580156,318579840,-0.0032408526,-0.0056935046,0.0039169937
318583954,318583644,-0.004692052,-0.003725595,-0.0061360016
318587764,318587450,-0.001215292,0.0008914268,-0.0063938554
318592830,318592526,0.006614871,0.0039886856,0.00967494
318594123,318593796,0.007056654,0.0046080016,0.011521751
318597904,318597599,0.0014164072,-0.0004824022,0.006335776
318601719,318601410,-0.0051999744,-0.0053782566,-0.008523393
318605515,318605214,-0.0028259903,-0.0046514506,-0.00872241
318608062,318607748,0.0011045727,-0.00153712,-0.0010676329
318632361,318632032,0.0008096206,0.0061346116,0.012873849
318633613,318633297,-0.0008438851,0.007293831,0.012768063
318636100,318635800,-0.0019024354,0.008138772,0.007940081
318641098,318640793,-0.0022431833,-0.0058351033,-0.010321225
318643629,318643321,0.0014527098,-0.010203539,-0.010267222
318647382,318647078,0.0045279264,-0.0031600175,0.0019926012
318652461,318652152,-0.004810639,0.011374399,0.011270262
318653724,318653422,-0.0058535594,0.0125882225,0.010001234
318657593,318657245,-0.004798191,0.0038027945,-0.0008005395
318661347,318661048,0.0041958923,-0.007836389,-0.0073584835
318665197,318664846,0.007946131,-0.010871709,-0.0034330806
318667745,318667383,0.0052319835,-0.0039578527,0.0011576738
318672754,318672450,-0.009953262,0.008598348,0.005064224
318675342,318675008,-0.009679648,0.0069519663,0.005974218
318679115,318678792,0.0031672167,-0.001025962,-0.0018601735
318681633,318681331,0.008158978,-0.008503619,-0.0024640672
318685444,318685141,0.009842111,-0.0075483415,-0.00092822796
318689332,318688965,-0.003150757,0.003823802,-0.0013904665
318693060,318692749,-0.009645755,0.0066018384,0.00044741342
318695656,318695340,-0.0062962254,0.004336728,0.0027752544
318699406,318699097,0.0058585578,-0.0039959457,0.005960757
318703236,318702900,0.012639742,-0.0068212333,0.003005235
318707036,318706710,0.005676577,-5.9477683e-05,-0.006701571
318709812,318709488,-0.0061752354,0.004940531,-0.008039304
318713536,318713236,-0.010360247,0.0050355913,-0.00063122186
318717287,318716980,-0.00013655715,0.00077647873,0.011019099
318723627,318723287,0.009240007,-0.0044162907,0.0022943777
318724934,318724567,0.0073499666,-0.0013792398,-0.0022010282
318727309,318727004,0.00093547866,0.0034895672,-0.010004729
318732396,318732079,-0.009196945,0.003948358,-0.0030452532
318734913,318734615,-0.0065917047,0.00044250282,0.008741314
318737485,318737152,0.00028459588,-0.0005824347,0.014975245
318742524,318742225,0.007778195,-0.0028389306,0.007325085
318745059,318744761,0.004181737,0.0019162751,-0.006859141
318748871,318748570,-0.0058323783,0.005187987,-0.014998759
318752692,318752375,-0.0066708676,0.0006042098,-0.001946435
318755236,318754913,-0.00046368796,-0.0034882089,0.012322089
318759046,318758719,0.0049954015,-0.0027302622,0.018745042
318764120,318763793,0.0029382075,0.0010546268,-0.0058637965
318766660,318766331,0.0013154371,0.0040851883,-0.016783323
318769239,318768877,-0.00065502356,0.0043748985,-0.017691063
318772980,318772676,-0.00096362625,-0.00076976785,0.0055444296
318776823,318776502,0.0015581606,-0.007093456,0.016798003
318780635,318780310,0.0013810047,-0.003785309,0.010129289
318784405,318784104,-0.0025283562,0.0022348643,-0.010880304
318786942,318786636,3.5011384e-05,0.004639944,-0.014065893
318791036,318790665,0.0018848317,0.0029118597,-0.004234931
318793541,318793232,0.0035924737,-0.0022754732,0.009654963
318797333,318796979,-8.888025e-05,-0.006220978,0.015828442
318801003,318800685,-0.0075653694,-0.002733404,0.0012826102
318804747,318804443,-0.0014059782,0.0047550807,-0.012303072
318808491,318808193,0.004391066,0.0072573884,-0.0061340206
318813584,318813282,0.0037772707,-0.002105692,0.013595373
318814844,318814540,0.00036472335,-0.0046220035,0.012595651
318818644,318818343,-0.0056736725,-0.0070873564,0.0026571888
318824990,318824687,-0.0003497298,0.0040755193,-0.009332742
318828792,318828492,0.009044511,0.006814825,0.0014831076
318835144,318834836,0.0012724298,-0.005191835,0.009307035
318844021,318843717,-0.0017957233,0.00028364453,-0.0061425283
318846563,318846252,0.0061824163,0.005623346,0.0023443555
318850359,318850058,0.008939632,0.00788751,0.012646612
318855444,318855137,-0.0023150318,-0.0049982397,0.0001071446
318856703,318856404,-0.0040256884,-0.008378435,-0.0042757746
318860514,318860211,-0.008245685,-0.007918036,-0.011136363
318864384,318864020,0.0023173532,0.00016629501,-0.0012504758
318911300,318910957,-0.004343429,0.008196491,0.004439649
318912540,318912239,-0.0043342663,0.0057882355,0.0010604158
318916338,318916029,-9.800028e-05,-0.0057176156,-0.0051752566
318920208,318919844,0.005235707,-0.009960662,-0.007014178
318925215,318924909,0.0046515292,0.0025048817,0.0034405354
318926488,318926180,0.0019296604,0.0059456984,0.0042264787
318930378,318929992,-0.0062999753,0.008921558,0.0040858863
318951873,318951550,-0.011481586,0.0043638204,0.0025632721
318957166,318956843,0.008086383,-0.0044930335,0.0055616344
318958484,318958140,0.012410637,-0.006096598,0.0039574173
318962234,318961887,0.0075915405,-0.0034051365,-0.0034172023
318965885,318965586,-0.0047285603,0.0003153986,-0.009628482
318969705,318969351,-0.012069719,0.0019686297,0.0003947301
318972168,318971846,-0.009405696,0.001860202,0.007549057
318977241,318976924,0.012151242,-0.0016725361,0.014273364
318979861,318979480,0.011546466,-0.002377727,0.0021732247
319026749,319026411,0.00014422572,0.0006736983,-0.012269245
319029358,319028955,-0.000567226,0.00102099,0.0034154414
319031799,319031479,-0.0010445224,-0.00014970945,0.017606052
319037064,319036759,-0.0013831165,-0.0041501154,0.008511594
319038356,319038054,-0.00082376465,-0.003626991,0.0032691367
319042125,319041793,0.0007371357,0.0003450676,-0.015561289
319045942,319045591,0.002934212,0.0028755039,-0.009362109
319049652,319049318,-0.00012193432,0.0019099785,0.005786696
319053344,319053043,-0.001081819,-0.0034140511,0.018487347
319057209,319056871,-0.0060792095,-0.0058117183,4.64034e-05
319059732,319059394,-0.0032320793,-0.004981853,-0.009754513
319063490,319063191,0.0032917587,0.0038870228,-0.0111281155
319067307,319066996,0.005888112,0.005246753,0.0028172536
319072378,319072071,-0.0021662815,-0.002975736,0.011865014
319073646,319073342,-0.0040898635,-0.006145187,0.009531134
319077463,319077146,-0.0059537175,-0.006328374,-0.003130139
319083796,319083490,0.0074708275,0.007931545,-0.0011846345
319085072,319084759,0.009310394,0.009112947,0.0033038731
319087613,319087306,0.006804902,0.0072936844,0.0075819804
319092683,319092384,-0.0042353002,-0.0055371355,0.0042674816
319095259,319094917,-0.007660839,-0.00922907,-0.005793983
319099035,319098712,-0.00075172813,-0.0064174905,-0.0057957307
319104094,319103789,0.007826549,0.010255978,0.0038302615
319105361,319105058,0.0069599696,0.010913992,0.00725722
319109169,319108866,0.0018434372,0.0060652015,0.006367533
319112967,319112668,-0.004939952,-0.008147022,-0.0016301121
319115505,319115204,-0.006337222,-0.011332321,-0.008948317
319127184,319126811,0.005183963,0.011586619,0.008374795
319129563,319129243,-0.00019974474,0.0031422665,0.006151556
319133311,319132994,-0.004183081,-0.01132697,-0.0058681886
319137145,319136802,-0.0033841506,-0.010869211,-0.006860017
319140902,319140579,0.0038143282,0.0019434091,0.004100861
319144685,319144384,0.0030925334,0.012406955,0.008737623
319147226,319146920,-0.00075832434,0.008719469,0.0036893154
319151054,319150726,-0.004085418,-0.003522869,-0.001690598
319154843,319154539,0.0015244102,-0.011134379,-0.0062311026
319158683,319158346,0.005767116,-0.005846912,-0.00060462934
319161260,319160884,0.0032021636,0.0027454856,0.0019463779
319165024,319164683,-0.0024863873,0.010934407,0.0043043634
319168838,319168495,-0.0015007706,0.00371115,0.002949885
319175139,319174831,0.004748348,-0.0071970574,-0.0015342191
319178949,319178636,0.003625995,-0.0018370484,-0.0020977452
319184011,319183711,-0.003958422,0.007146203,0.0008786933
319186566,319186247,-0.0064510573,0.005527267,0.0010621261
319189164,319188818,-0.0020935317,-0.00057742815,0.0054268083
319195436,319195130,0.007082886,-0.005929852,-0.00021557767
319196749,319196404,0.0074171578,-0.0039713276,-0.0006165274
319199261,319198939,0.004108782,0.0006965831,-0.0028999306
319204521,319204213,-0.0077108876,0.0011360686,-0.0029350093
319207015,319206698,-0.00809553,0.0032767113,0.0038389158
319210842,319210511,0.000421052,0.0016440875,0.010755166
319215779,319215476,0.008619814,-0.0032644416,-0.00027941275
319217037,319216703,0.007923723,-0.004042381,-0.004331863
319228419,319228112,-0.004116168,0.0023562696,0.010940635
319232223,319231921,0.0048763114,0.004828275,0.008615707
319236026,319235726,0.0076172114,2.4683583e-05,-0.0012702253
319238640,319238280,0.0013712423,-0.003663853,-0.011988517
319242420,319242079,-0.004742018,-0.0034013668,-0.008645034
319246189,319245876,-0.0077690026,0.002757832,0.0036211512
319248750,319248413,-0.0047284286,0.004579111,0.013358778
319252554,319252224,0.0063118394,0.0025823812,0.012840758
319256338,319256027,0.006634702,-0.0027148938,-0.0021563002
319260186,319259837,0.0023600317,-0.0050974335,-0.014425539
319262673,319262369,-0.0025506984,-0.0048635,-0.011392021
319266528,319266180,-0.0032878243,0.00081148266,0.009001519
319270302,319269982,-0.0021209652,0.0036264216,0.015583809
319276624,319276322,0.002709068,-0.003331689,-0.0067048334
319280438,319280134,0.003946902,-0.0047076032,-0.013268229
319285699,319285400,-0.0007740546,0.003537854,0.0013820449
319286995,319286658,-0.0016456118,0.004714182,0.0066648163
319290783,319290442,-0.0028829186,0.0017933174,0.013156118
319296962,319296649,0.0041802,-0.0047427076,-0.0053363573
319298289,319297926,0.004159105,-0.0041937027,-0.009777894
319302028,319301695,0.0038701906,0.0012099766,-0.010129934
319305803,319305501,-0.0007985252,0.0068590236,0.004848309
319308349,319308037,-0.0053671175,0.004699509,0.01046965
319318534,319318195,0.004932298,0.00014997133,-0.006806516
319322360,319322000,0.00590072,0.006936236,-0.0043106647
319326164,319325809,0.00089333707,0.0063449107,0.003160054
319329949,319329615,-0.007834883,-0.004033549,0.005633859
319332459,319332148,-0.006856386,-0.0079556955,0.0060357135
319337526,319337223,0.0018650963,-0.0027434197,-0.0023391154
319340130,319339755,0.007139121,0.0047684507,-0.00160772
319343867,319343562,0.007277139,0.0121834725,-0.0014562389
319347666,319347364,-0.0040399116,-0.0007649143,0.003045665
319350223,319349905,-0.0050907494,-0.0093029095,0.00418566
319354076,319353713,-0.0013626515,-0.012439391,0.0031935358
319357814,319357515,0.004382146,0.0014340652,-0.00037956992
319361669,319361335,0.009207688,0.011822695,-0.0012341866
319364466,319364116,0.0048164385,0.009535795,-0.0013713157
319386998,319386696,-0.0014708672,0.00077368587,0.0014462332
319389593,319389239,-0.0022933856,-0.009746032,-0.0004992099
319392128,319391772,-0.0011433158,-0.010338206,1.8489383e-05
319398414,319398111,0.001993436,0.007160566,-0.0015443965
319399701,319399381,0.0023248373,0.009969618,9.0920876e-05
319403502,319403195,0.002099119,0.008868482,0.0023218067
319407301,319406992,-0.00092912983,-0.0032285494,0.0031187686
319409830,319409530,-0.0013512494,-0.006895881,0.001483562
319413631,319413333,-0.00065625616,-0.007879951,-0.0004973463
319418714,319418409,-0.000791286,0.006455362,0.00043426928
319419986,319419681,-0.0014178688,0.007952478,-0.00043291587
319423870,319423493,-0.00067147246,0.006470825,0.0026973386
319431407,319431101,0.0030413228,-0.008384425,0.0022424245
319433957,319433651,0.0013092798,-0.0033872265,-0.002414936
319439041,319438708,-0.0010832576,0.0038194295,-0.0014050507
319442815,319442514,-0.0010285225,0.004356999,0.0026225054
319445603,319445289,-0.00016814067,0.003761853,0.006675488
319448115,319447808,0.0015389215,0.0020489078,0.008508971
319451895,319451587,0.003005987,-0.0024053406,-0.0016842365
319455732,319455380,0.0021694098,-0.005854288,-0.007401315
319459376,319459073,-0.0018248092,-0.0009837734,-0.0074069863
319463138,319462820,-0.0017739076,0.0046487506,0.0032776543
319465729,319465386,-0.0008945322,0.006671642,0.006676042
319469454,319469154,0.004102836,0.0030821303,0.009697534
319473305,319472962,0.004444883,-0.004114073,-0.005429262
319479605,319479304,-0.001357586,-0.0064810053,-0.0038953417
319483456,319483116,-0.0026521059,0.003413772,0.00835777
319488483,319488184,0.00054476684,0.0080906255,0.010485366
319491100,319490729,0.003786611,0.0033778246,0.0024772135
319493653,319493290,0.0048558675,-0.0058314465,-0.0061901594
319499908,319499602,-0.0001020912,-0.005304727,-0.003899997
319501190,319500886,-0.0013653259,-0.0015366444,0.0009779138
319504973,319504675,-0.004888144,0.008126236,0.011139595
319508790,319508483,0.0009654632,0.008100374,0.010330444
319511350,319511022,0.0034338767,0.0016305463,0.00069319026
319536914,319536574,0.004591766,-0.005289655,-0.009514732
319540571,319540260,-0.0030893157,0.0040369085,-0.0043832767
319543131,319542778,-0.0067850407,0.009943038,0.0029545233
319546842,319546543,-0.0053669643,0.005676299,0.010850017
319550678,319550351,0.00017065997,-0.006122414,0.005632349
319553214,319552890,0.0064837644,-0.010483596,0.0008460684
319557047,319556700,0.0076365257,-0.0010047833,-0.008956181
319562073,319561766,-0.0017192626,0.00899067,-0.0020185208
319564676,319564312,-0.0071169958,0.005581177,0.004436796
319567196,319566850,-0.0059747403,-0.00057831366,0.010477287
319570981,319570646,0.0002212824,-0.0072397683,0.010890602
319574785,319574453,0.0065918243,-0.0039034667,-0.0020839225
319581103,319580795,-0.002156576,0.0085838605,-0.008657668
319584908,319584601,-0.0065656607,0.0032101225,0.0034050124
319591281,319590944,0.0010466476,-0.010261734,0.007906577
319592533,319592223,0.0023371968,-0.007857704,0.0040327106
319595059,319594761,0.0051478297,-0.00021909412,-0.0041767936
319601406,319601095,-0.0016299865,0.009324543,-0.0075807064
319602666,319602366,-0.0035508494,0.006265693,-0.004347986
319606467,319606166,-0.004476778,-0.006834885,0.008023773
319610544,319610220,-0.0010520796,-0.012094314,0.008831311
319613106,319612753,0.0012875616,-0.005292153,0.005658478
319616907,319616569,0.0040928326,0.0092314035,-0.0058947243
319621755,319621454,0.0018068595,0.0074084066,-0.005466902
319623005,319622704,0.0011897357,0.004615504,-0.00218879
319626851,319626513,-0.001753914,-0.00751626,0.010392697
319630607,319630285,-0.004378864,-0.009307076,0.007199806
319634426,319634098,-0.0017856952,0.0047730985,-0.00201594
319638218,319637885,0.002164739,0.011166734,-0.005453287
319641989,319641689,0.0041241855,0.0032475311,-0.0011496978
319644626,319644276,0.00041373074,-0.0055160364,0.0032588528
319648351,319648031,-0.0028548113,-0.011222919,0.0071425703
319652188,319651839,-0.0044932524,-0.00048799627,0.0030813005
319654735,319654386,-0.0023354818,0.005807097,-0.0052782283
319658537,319658199,0.00073831336,0.007835737,-0.004160323
319662306,319661987,0.0040449137,0.0008432654,0.0019039981
319666139,319665794,0.0007566108,-0.006303541,0.00654264
319668647,319668331,-0.0012827689,-0.006135096,0.004386976
319672447,319672136,-0.0043689315,3.0924723e-05,-0.0035244185
319676328,319675959,-0.00087327894,0.0060997643,-0.0031516869
319682596,319682295,0.0042486754,0.0013583982,0.0071634417
319686393,319686092,-0.0012513583,-0.0043370253,0.0028981504
319692984,319692667,-0.0033012186,-0.002587652,-0.0074170497
319697974,319697659,0.0031055664,0.0021363199,0.0031910187
319700560,319700209,0.0030004578,0.004790008,0.008017521
319704204,319703902,0.0017769753,0.0052092005,0.008140184
319707960,319707657,-0.00019604701,-0.0011870264,-0.0015609283
319710555,319710196,-0.0005951445,-0.0057809777,-0.0070996867
319714340,319714003,-9.226636e-06,-0.0057943305,-0.0059379046
319718129,319717807,0.0017490201,0.0016282654,0.0027876096
319721933,319721614,-0.0011787346,0.00979344,0.008844373
319726987,319726688,-1.3489725e-05,0.0028059583,0.0012633647
319728312,319727957,0.0005087657,-0.00061137363,-0.0021182403
319732063,319731765,0.0036563668,-0.010605523,-0.007443658
319737140,319736837,1.3752748e-05,-0.0026179126,0.0031956844
319739724,319739385,-0.0024264618,0.006028625,0.005196159
319742219,319741921,-0.0032709958,0.012119315,0.009289834
319747299,319746989,0.00066714786,0.000358786,0.0009050677
319749820,319749522,0.0046910355,-0.009103028,-0.00318784
319753642,319753330,0.0037069595,-0.01148889,-0.006419734
319759974,319759672,-0.009020657,0.009180486,0.0040651704
319763822,319763487,-0.0054692165,0.0109205665,0.0070997598
319798030,319797731,-0.005734305,0.00565871,-0.007062402
319801870,319801538,-0.010023662,0.007571511,0.004250016
319805648,319805350,-0.0005718931,-0.00023086926,0.0103117265
319809505,319809155,0.009877452,-0.007284129,0.007370389
319811999,319811690,0.009871363,-0.0077583934,-0.0006069917
319815791,319815493,-0.000857559,0.0028548068,-0.012039354
319819611,319819298,-0.00784768,0.00637914,-0.0049732844
319823453,319823110,-0.004932326,0.00072444597,0.009990566
319826015,319825659,0.0013226039,-0.0038943558,0.015615065
319829754,319829448,0.009505226,-0.00603826,0.0075523113
319833608,319833253,0.006767126,0.00045075532,-0.010002029
319838626,319838327,-0.0056156893,0.0043796203,-0.010813023
319841232,319840872,-0.0057682814,0.001560694,0.002677018
319843737,319843420,-0.0023830251,-0.003839976,0.012885956
319848781,319848476,0.0040847324,-0.005782815,0.013593685
319851336,319851015,0.0043144664,-0.001067452,-0.0017082341
319853877,319853577,0.0018111774,0.0049184854,-0.014787986
319861642,319861338,-0.0020068993,-0.0034905516,0.0042246687
319865400,319865066,-0.0028014164,-0.00757852,0.018497098
319869142,319868813,-0.0021802504,-0.0020269488,0.006550724
319871648,319871347,0.00042094858,0.0040257135,-0.00536584
319875492,319875137,0.0013495574,0.0066909217,-0.015915005
319880496,319880192,0.0022960976,-0.0020807541,0.0048121675
319883041,319882728,0.00024321946,-0.006866059,0.012621174
319885624,319885293,-0.0014637115,-0.007183581,0.015377633
319897023,319896690,0.0073504495,0.002641764,-0.0058304546
319900815,319900506,0.0045392993,-0.003908857,0.0073462776
319903368,319903028,-0.0011998173,-0.006082204,0.013794433
319907139,319906832,-0.0067687347,-0.0036485167,0.0038983622
319910985,319910646,-0.0031477283,-0.0002995883,-0.007877526
319913478,319913175,0.004044192,0.0034877025,-0.009269911
319917337,319917001,0.009564436,0.004590488,-0.00011487967
319921109,319920789,0.0063823326,0.00089958543,0.0072492026
319924955,319924612,-0.0040336247,-0.002906313,0.005984471
319927477,319927142,-0.0074558943,-0.0044603855,-0.003093539
319932510,319932206,0.0021157472,0.003657094,-0.0030354643
319935048,319934742,0.006849518,0.00418574,0.0021325191
319941585,319941284,0.00025761535,0.0014173657,0.0082292715
319945332,319945017,-0.0067566177,-0.0051310863,-0.0040953364
319950333,319950011,-0.0015105358,-0.0068965005,-0.005527583
319952936,319952582,0.002992511,-0.0017279221,-0.0005471005
319956684,319956344,0.0075035216,0.007226445,0.00984153
319961686,319961385,-0.00102419,0.0043006823,0.0028227463
319962955,319962655,-0.0011756539,-2.4807314e-05,-0.00022248375
319966807,319966468,-0.0021191826,-0.009001991,-0.011416306
319970602,319970289,0.0028139215,-0.009589016,-0.0026664922
319973115,319972801,0.005067208,-0.00066776504,0.0066397525
319976964,319976630,0.0029203412,0.008786939,0.009228002
319982010,319981683,-0.003467151,0.004793086,-0.0016886783
319984569,319984255,-0.0016740292,-0.006426165,-0.005549066
319987110,319986765,0.0017522321,-0.011939581,-0.0052801343
319990888,319990563,0.006394874,-0.009994852,-0.001171017
319994689,319994375,0.0017059972,0.0033192406,0.007671284
319998477,319998174,-0.0059541855,0.011975092,0.0043392717
320002313,320001981,-0.004053093,0.0038091412,0.0014892891
320004825,320004519,0.0018360247,-0.006227149,-0.0043919845
320008671,320008340,0.0074395556,-0.011306072,-0.0015890431
320012430,320012130,0.0006545633,-0.0011732456,0.0022575331
320014987,320014672,-0.0053727254,0.0057969023,0.0046602683
320019006,320018681,-0.0081767505,0.012236009,0.002406111
320022773,320022469,-0.0012713126,0.0032836895,0.00061049766
320026632,320026277,0.008755381,-0.00694339,0.002353479
320029124,320028791,0.00911481,-0.009745902,0.0013209055
320032800,320032467,-0.0014656014,-0.0013304318,-0.0019471988
320036538,320036228,-0.011828782,0.0072509698,-0.0022403293
320042881,320042577,0.0037250803,-0.0004386162,0.0065925783
320044155,320043847,0.0075305924,-0.0039818897,0.00757323
320046685,320046382,0.011846706,-0.008114173,0.006481684
320051772,320051473,-0.0010467496,-0.0024785253,-0.009498578
320054340,320054005,-0.009224816,0.0040429262,-0.009671852
320058144,320057814,-0.008012279,0.007991767,-0.0005670071
320064477,320064151,0.01174969,-0.0049652862,0.014876845
320068256,320067948,0.009952276,-0.0056260154,0.00034272004
320072069,320071756,-0.0013617119,0.0007659704,-0.015536219
320074637,320074309,-0.007166525,0.0045982646,-0.01509631
320078400,320078102,-0.0067420336,0.0021509042,0.001860645
320083479,320083173,0.006169334,-0.0036789535,0.020679258
320086025,320085709,0.008564486,-0.002898278,0.0104132835
320088626,320088278,0.0064340974,-0.0012385867,-0.0072369734
320092377,320092054,-0.00088957686,0.0017483605,-0.01882368
320096207,320095865,-0.0060699335,0.0009698081,-0.0064377636
320098721,320098396,-0.0014913067,-0.0016411069,0.0103162965
320103993,320103693,0.005460404,-0.001964935,0.01750366
320107726,320107418,0.0018471909,-0.0021574565,-0.003885876
320110247,320109945,-0.0013240704,-0.00082233455,-0.016882366
320113981,320113663,-0.00067108957,0.0028072328,-0.014618585
320119005,320118698,0.00134012,-3.0767264e-05,0.013282191
320120285,320119971,0.0006156949,-0.0018463179,0.017856386
320124146,320123780,-0.0017114091,-0.0010214524,0.015332513
320127875,320127576,-0.0044318708,0.0023861725,-0.010915746
320131695,320131386,0.0025029012,0.0024358504,-0.01559196
320134233,320133921,0.0053875493,0.0020704137,-0.00819313
320139326,320139011,-0.0010406234,-0.0037372073,0.0145417275
320141881,320141532,-0.006265268,-0.0025470064,0.013290104
320145640,320145335,-0.0066911336,-0.0013395693,-0.0031979955
320148179,320147876,-0.0025487777,0.0007111979,-0.012834314
320151987,320151681,0.007868447,0.0019244825,-0.010654085
320155823,320155487,0.0083306385,-0.0007383221,0.007027219
320159628,320159292,-0.002402543,-0.0012624298,0.011626907
320162151,320161829,-0.0068452596,-0.004639181,0.0067370464
320166011,320165642,-0.0058918437,-0.0036960973,-0.0070606554
320169775,320169442,0.0036803219,0.0013691259,-0.006777183
320173634,320173253,0.010228984,0.0057953284,0.0025781794
320176080,320175782,0.006282592,0.0037250614,0.00849768
320179905,320179591,-0.0046881787,-0.0034307062,0.00392241
320184029,320183691,-0.009470546,-0.00850119,-0.0018961995
320201468,320201164,-0.009288395,-0.0047045387,-0.005045775
320203995,320203694,-0.0073521747,-0.008482062,-0.007265376
320207819,320207498,0.002025956,-0.0045390213,-0.00082900276
320211638,320211307,0.007123609,0.0061864527,0.007676547
320215413,320215111,0.0011715976,0.010163672,0.0072336965
320217951,320217647,-0.0056479513,0.004684477,-0.0010071554
320221792,320221458,-0.0046370784,-0.0082167955,-0.008573638
320225582,320225260,5.5370125e-05,-0.008628534,-0.002341703
320229387,320229082,0.004860641,0.00019096871,0.006866941
320234458,320234141,-0.001472475,0.008920163,0.006134836
320235745,320235411,-0.0043530674,0.0081333555,0.0031746293
320239551,320239225,-0.005810947,-0.00060793204,-0.0058137043
320245882,320245559,0.00675938,-0.008449046,-0.00027899953
320249722,320249366,0.0036036372,0.0011511401,0.007424296
320254744,320254442,-0.006198263,0.010731417,0.0022310417
320257335,320256983,-0.006258845,0.0061841547,-0.002610097
320261201,320260792,0.0021844713,-0.0060271486,-0.00266912
320266393,320266084,0.010449573,-0.009158441,0.004369578
320267671,320267332,0.0077483887,-0.005939523,0.0053021805
320271492,320271170,-0.0044118585,0.0037368261,6.614532e-05
320275128,320274821,-0.0077747577,0.008394909,-0.0017527887
320277708,320277369,-0.0017155273,0.004657954,0.0008721387
320281420,320281109,0.010825703,-0.0042714337,0.005265328
320286461,320286155,0.0051586865,-0.0071356553,0.00010719855
320290339,320289971,-0.0063849567,0.00014642875,-0.0043603186
320306756,320306453,0.0032432557,-0.00397472,-0.006402337
320309349,320309018,-0.0053646583,-0.0013282248,-0.013725443
320313097,320312794,-0.010751694,0.0059086797,-0.0066392063
320316982,320316609,-0.0020238701,0.004693158,0.012468432
320320713,320320409,0.010423372,-0.0016953296,0.015696947
320323309,320322951,0.009881655,-0.0025974007,0.0040312796
320327058,320326751,-0.0008713732,-0.0053643472,-0.012077495
320330937,320330564,-0.008891917,0.00031637438,-0.015924446
320335938,320335631,0.00023624975,0.004470779,0.01221809
320337247,320336908,0.0031936832,0.003978765,0.01567213
320341060,320340727,0.0061463583,0.00016661975,0.015448739
320346305,320345993,0.0021927406,-0.0028377373,-0.01368607
320347594,320347293,0.0008363245,-0.003873378,-0.01784322
320351346,320351027,-0.0029778017,-0.00038786276,-0.011795299
320356447,320356115,0.0007977208,0.0025936805,0.018420637
320358930,320358590,0.0021869463,0.002299152,0.022579959
320362622,320362303,0.0040460387,-0.0024811917,0.0048198146
320365157,320364828,0.0023629055,-0.0024284574,-0.010779613
320368930,320368620,0.0009867805,-0.0014614922,-0.020013213
320372720,320372421,0.0021756005,0.0016780408,0.0015754929
320376539,320376226,0.0016530467,0.0018793902,0.017061425
320379095,320378763,-0.0009840132,0.00015315831,0.017587943
320382877,320382572,-0.0042805383,-0.0018385341,-0.0032752778
320386709,320386377,0.0016575344,-0.00026288338,-0.015627377
320393026,320392720,0.0030668888,0.00512436,0.0043654838
320396822,320396524,-0.0018275643,0.0020924497,0.014943525
320401921,320401603,-0.007950366,-0.006969198,0.00097234506
320404439,320404139,-0.0020851425,-0.005025041,-0.008621617
320406976,320406673,0.0051520374,0.002503212,-0.010802486
320413328,320413018,0.0026040985,0.0035323813,0.0058272695
320414648,320414319,-0.00028989845,0.0012322332,0.008693082
320418456,320418119,-0.009097485,-0.004808868,0.0058239917
320422216,320421914,-0.00789602,-0.0074828495,-0.0048534246
320424779,320424437,0.0003367266,-0.0029060922,-0.004169147
320428847,320428531,0.011120622,0.0060126777,-0.0004942469
320433784,320433483,8.836256e-05,0.005914296,0.004586193
320435055,320434728,-0.004291097,0.002010231,0.003472659
320438849,320438486,-0.007280289,-0.008998173,-0.00093143556
320442531,320442226,-0.0035204538,-0.008294413,-0.001918273
320446315,320446002,0.007233552,0.0042431583,0.0014615146
320450138,320449807,0.00822637,0.013408973,0.004360519
320453913,320453614,-0.0027331142,0.004771035,0.0014425325
320456460,320456152,-0.0061629224,-0.0060463906,-0.0019178601
320460365,320459966,-0.006743801,-0.012456382,-0.0055936086
320464094,320463763,0.0050039967,-0.0022912966,0.0019138871
320466623,320466310,0.008526332,0.0066679916,0.005273005
320470428,320470113,0.0029741,0.012654747,0.0036603853
320474215,320473912,-0.0041372837,0.0021586923,-0.004782492
320478014,320477716,-0.0045637614,-0.011349756,-0.0040871473
320480624,320480317,-0.0021533726,-0.012383346,-0.002293658
320484385,320484062,0.004083772,-0.0031347582,0.004561239
320488182,320487873,0.002301711,0.010492853,0.005097146
320494509,320494210,-0.004186143,0.0011742264,-0.0028598097
320498366,320498023,-0.0009297145,-0.010279421,-0.0015918089
320504663,320504359,0.0034946504,0.0015081379,0.004221521
320505932,320505629,0.0023546356,0.004971325,0.003946118
320508474,320508171,-0.0024653052,0.007838439,-0.0007094577
320514984,320514679,-0.0016389673,-0.001453867,0.0015353889
320516330,320515964,-2.2057337e-05,-0.0034155275,0.0036664696
320520105,320519728,0.0036376102,-0.0063534346,0.003154704
320523754,320523436,0.0035765227,-0.0024421187,0.00026227947
320526239,320525941,-0.001960549,0.0033090292,-0.0047758324
320530085,320529742,-0.008242763,0.0064007696,-0.0027965715
320535109,320534807,-0.00038875453,0.0028278485,0.005690759
320537700,320537352,0.0067832787,-0.0030927556,0.008471845
320540205,320539880,0.008793078,-0.0041603227,0.004209164
320543986,320543687,0.0012064643,-0.0039729755,-0.0046753325
320547797,320547491,-0.006880271,0.0013161823,-0.0071560047
320551645,320551308,-0.0053996267,0.0051901676,0.0025026836
320555408,320555105,0.0038989435,0.0045948513,0.011395688
320558002,320557664,0.008363878,0.0010182385,0.007318789
320561822,320561458,0.005216414,-0.006474466,-0.002860998
320565640,320565273,-0.005983142,-0.0043919976,-0.013958979
320568109,320567794,-0.008714975,-8.901921e-05,-0.008072651
320582060,320581762,0.0015407057,-0.006439792,-0.009652212
320585857,320585558,-0.00044791074,-0.005954993,-0.0135730235
320589681,320589359,-0.0034816577,0.0027665491,0.0011235153
320596181,320595883,0.0012483082,0.004578104,0.014388181
320600009,320599690,0.0065508448,-0.0039660363,0.0014581939
320604937,320604627,-0.0013102603,-0.008740724,-0.017376093
320607428,320607130,-0.0016378994,-0.00189213,-0.009132723
320609998,320609655,-0.001322283,0.0028976887,0.002897183
320616316,320615999,-0.0012266891,0.0036528078,0.014976161
320617612,320617275,-0.000640859,0.001241993,0.008576349
320621385,320621075,0.0035356204,-0.007284844,-0.009106113
320626447,320626148,0.005363479,-0.0016393672,-0.010425738
320627751,320627417,0.003459523,0.00075706525,-0.0051873066
320631549,320631226,-0.004581827,0.0071020965,0.010791342
320639205,320638860,0.00023454883,-0.006409382,0.001389668
320641730,320641372,0.0031871758,-0.006335473,-0.009674426
320645479,320645178,0.0070079407,0.0015382607,-0.009838412
320649338,320648993,0.0025762795,0.0061902525,-0.0002804926
320653144,320652810,-0.0053493557,0.00084057625,0.013208311
320656894,320656595,-0.0072044446,-0.005221396,0.005162115
320660762,320660404,0.0019963586,-0.004727506,-0.0034728486
320663243,320662938,0.0065119476,-0.0011016106,-0.0077611576
320667093,320666745,0.00644811,0.007860686,-0.0034419424
320669616,320669304,0.0018588762,0.009089526,-0.00027998313
320673673,320673319,-0.006308582,-0.003067052,0.005838206
320677398,320677093,-0.008176812,-0.009121317,0.004084067
320681160,320680839,-0.00050910364,-0.0020767648,0.0001831385
320708908,320708610,0.0011326316,0.006056777,-0.003485366
320711469,320711148,-0.0010778351,-0.0031399478,-0.0023245628
320717807,320717490,-0.0023076255,-0.010606194,0.0038076998
320719150,320718781,-0.0009803455,-0.007814887,0.0040285285
320722904,320722569,0.0036044721,0.0062977416,0.003039594
320726728,320726379,0.003237369,0.010739226,-0.0018190971
320729223,320728916,0.0027032602,0.0048262426,-0.0013045473
320733032,320732715,-0.0015013021,-0.007260617,-0.0008278682
320738105,320737788,-0.00038923376,-0.005976913,0.0033431824
320740673,320740346,0.0011843729,0.00097092055,0.0018482882
320743219,320742876,0.002481013,0.0069508646,-0.0006851761
320746970,320746668,0.0024125036,0.008212025,-0.0016698427
320750818,320750472,0.0006265812,-0.00041487644,0.0007638652
320754656,320754307,0.0007245097,-0.008782193,0.0016986883
320758618,320758316,0.00055768306,-0.0053638583,0.002425739
320761164,320760831,-2.0593907e-05,-0.0016004178,0.00053663587
320764971,320764622,-0.001160824,0.005374587,-0.00056624063
320768664,320768338,0.0004232338,0.0055830227,0.0028970556
320772372,320772039,0.001157821,-0.00033945328,0.0030796365
320774875,320774573,0.000979343,-0.00278942,0.0016642846
320778704,320778386,0.0014945399,-0.005284856,-0.0039268457
320782522,320782189,-0.0020243006,-0.00011847407,-0.0044140997
320785040,320784727,-0.0044331388,0.0037218262,-0.0025868006
320788848,320788533,-0.0010337374,0.006093211,0.0070833713
320792674,320792343,0.00086781237,0.0021474706,0.007451814
320798984,320798685,5.8886257e-05,-0.005705735,-0.007436052
321813890,321813585,0.0062634833,0.0067973337,0.0036469647
321815161,321814855,0.002885645,0.008849409,-0.0009264209
321817705,321817405,-0.0009828939,0.00800396,-0.007886896
321824211,321823910,0.0010418711,-0.00985621,0.00036688437
321825468,321825167,0.0029771382,-0.011053258,0.0052077486
321828040,321827702,0.0051513826,-0.0078570945,0.010169683
321832958,321832659,0.0012059179,0.00486634,0.002810382
321835545,321835212,-0.0020124307,0.0092959,-0.007812768
321839293,321838969,-0.0033198334,0.0072008725,-0.0073294565
321844407,321844038,0.0036783186,-0.0072734915,0.0070545697
321845598,321845300,0.004736688,-0.007925874,0.010120221
321849418,321849112,0.0008403908,-0.005094826,0.00626661
321854482,321854182,-0.0049393238,0.0052363565,-0.007440471
321857023,321856717,-0.0035993531,0.007559788,-0.008693057
321859629,321859284,0.00057931605,0.006700877,-0.0022038568
321864634,321864331,0.0066959066,-0.004382438,0.011464041
321867185,321866875,0.0012362682,-0.0077873957,0.007189473
321871011,321870685,-0.006684365,-0.0048415004,-0.0056102327
321874786,321874483,-0.003654582,0.0021618304,-0.0086457
321877373,321877024,0.00016729526,0.008241107,0.00021356801
321881162,321880833,0.0047271056,0.008314836,0.0107175335
321884931,321884629,0.0043235845,-0.0047931997,0.008141402
321887471,321887165,-0.0011296936,-0.009717438,-0.0012795117
321895132,321894784,-0.002725235,0.0050219838,-0.0038020397
321896365,321896051,-0.0015612541,0.008280576,0.001964823
321898893,321898585,0.0027019705,0.01011113,0.011609952
321901729,321901382,0.007351138,0.008148066,0.016216593
321905415,321905115,0.0020357564,-0.0067966753,0.0023385368
321909187,321908863,-0.0018069445,-0.010554387,-0.012974124
321915418,321915116,2.6782957e-06,0.007159223,0.0028674721
321916663,321916362,0.0017667415,0.009471484,0.010330396
321920574,321920248,0.003895317,0.0074975686,0.016076634
321925526,321925225,2.8430857e-05,-0.007301167,-0.0023746241
321926845,321926504,-0.0010180064,-0.010939174,-0.009822807
321930639,321930311,-0.003102075,-0.009893277,-0.013269868
321935675,321935374,0.00092771486,0.008546357,0.007961109
321936980,321936644,0.0007670875,0.010521468,0.013440668
321940785,321940452,-0.0020039943,0.005726284,0.012092143
321944567,321944254,-0.00055011304,-0.00733658,-0.003427916
321947109,321946796,-1.0656255e-05,-0.012258792,-0.013296428
322074140,322073785,0.00196705,0.0067939446,-0.014438243
322076570,322076272,0.0076882024,0.009084969,0.019502042
322080443,322080084,0.00096850464,-0.006453346,0.030588493
322084159,322083815,3.8572627e-05,-0.009694895,-0.00395613
322087917,322087612,-0.018613014,0.0053685475,-0.023661448
322091741,322091424,-0.0025905068,0.0030951516,0.005369507
322094331,322093959,0.019507136,-0.004240232,0.021697722
322098075,322097756,0.0037667917,0.007985098,0.005482084
322101880,322101570,-0.011901283,-0.008352031,-0.023699125
322108239,322107907,-0.00691226,0.003568857,0.010711391
322112019,322111712,0.0069968402,0.013528884,0.03286398
322118413,322118063,3.449649e-05,-0.010137601,-0.013787659
322119648,322119339,-0.0005877065,-0.014875352,-0.029006265
322122228,322121883,0.009182067,-0.0120246215,-0.03369967
322128512,322128205,0.0034213453,0.0018061266,0.033103768
322129797,322129475,0.0011222434,0.004649235,0.03219136
322149022,322148720,-0.01069548,-0.0024394675,-0.0032775956
322150363,322150010,-0.013990448,-0.00064269477,-0.00831017
322154131,322153784,0.00056314754,0.0063342988,-0.010462536
322157784,322157477,0.013317038,-8.9348236e-05,0.013896766
322165303,322164996,-0.00909903,-0.008830028,-0.016532637
322167868,322167540,-0.008134508,0.002185237,-0.004379114
322172906,322172607,0.003965276,0.013387111,0.018123638
322175449,322175146,0.0009431908,-0.0071040485,0.0006092956
322290980,322290599,-0.011020269,-0.006126686,0.007564184
322295965,322295664,-0.00056412374,0.005870088,0.011109261
322297294,322296940,-0.013302401,0.002969376,0.007918432
322301144,322300778,-0.0062259915,0.0034147573,-0.019745851
322304843,322304544,0.02494629,-0.0052910955,-0.0030160728
322308665,322308355,0.000539218,-0.008020505,0.023646228
322311402,322311057,-0.0047370787,0.0035451613,0.015059767
322316424,322316126,0.033693925,0.006659325,-0.02240953
322319015,322318667,0.0040928917,0.0056996075,-0.010161819
322321550,322321174,0.0022904198,-0.0071969894,0.011491156
322325170,322324871,0.01007604,-0.003616997,0.009264224
322329013,322328664,0.005576303,0.0013893056,-0.00030241694
322332817,322332469,-0.020722296,0.009849074,0.0008757769
322336574,322336264,0.060291562,-0.017574977,-0.017826222
322339153,322338805,0.033848498,-0.018042944,-0.005736586
322342999,322342630,-0.08471159,0.01243726,0.019876951
322346760,322346417,-0.012685638,0.029791683,0.0052302624
322377164,322376856,-0.051447917,0.009329817,-0.013836129
322378426,322378126,-0.033061393,-0.009877585,-0.012441355
322382289,322381940,0.002977898,0.014335135,0.012544403
322386035,322385736,0.024407366,0.017196113,-0.013663648
322388581,322388276,0.0024278297,0.012501847,0.0009069818
322392673,322392326,-0.045611963,0.006633762,0.019330373
322528148,322527823,0.03174569,-0.040978238,-0.20473605
322532033,322531650,-0.027481468,-0.060914915,-0.210924
322535743,322535435,-0.09306378,-0.039099768,-0.22885212
322539570,322539240,-0.099286765,-0.027123747,-0.219961
322542144,322541785,-0.08588294,-0.090016544,-0.23002103
322545886,322545582,-0.020136094,-0.0775929,-0.24390884
322549712,322549399,-0.09747377,-0.06102957,-0.1969992
322553569,322553196,0.011046754,-0.12545761,-0.20820723
322556384,322555991,0.084773645,-0.11930789,-0.22272581
322560028,322559728,-0.041034795,-0.059656728,-0.23121028
322563778,322563478,-0.11715625,-0.07402039,-0.24308595
322568780,322568481,-0.05455858,-0.061824493,-0.2091554
322570036,322569735,-0.0678515,-0.059743475,-0.21414979
322573849,322573498,-0.08969305,-0.073949076,-0.23862591
322578872,322578570,-0.069273725,-0.10011997,-0.21769711
322581406,322581105,-0.06634743,-0.13332234,-0.23177591
322584009,322583669,-0.037989933,-0.15172312,-0.25336814
322589015,322588716,-0.017075798,-0.19771984,-0.23221695
322591676,322591261,0.03043685,-0.20295386,-0.19722557
322595403,322595067,0.017235994,-0.21906964,-0.21117179
322600438,322600134,0.0057459446,-0.19472678,-0.22922987
322601745,322601404,-0.0043230276,-0.18693064,-0.22394119
322605509,322605209,-0.04378419,-0.17373022,-0.22536188
322609323,322609014,-0.107112184,-0.10820021,-0.21210776
322615662,322615358,-0.036058802,-0.060872827,-0.22821271
322619517,322619174,0.02007911,-0.060222797,-0.2090363
322682896,322682594,-0.11703642,-0.015098659,-0.15896899
322685478,322685142,-0.11839821,-0.03812263,-0.1764538
322691792,322691487,-0.08706789,-0.0057728207,-0.14807251
322693051,322692743,-0.07125114,0.022544025,-0.12994975
322696891,322696550,-0.097563736,0.014191148,-0.1547798
322700678,322700355,-0.040902905,0.020842731,-0.1682712
322703210,322702893,-0.043729216,0.01247713,-0.14685403
322707097,322706705,-0.02843612,0.030740606,-0.13885325
322712073,322711772,-0.051495884,-0.00886131,-0.13986363
322714682,322714318,-0.072149985,0.014850121,-0.13989747
322717153,322716845,0.035768777,0.011687724,-0.12222016
322721185,322720886,-0.03181461,-0.0025412377,-0.14216186
322726292,322725935,-0.012632869,-0.045907397,-0.12028653
322745059,322744756,0.003191297,0.029408459,-0.10424662
322748911,322748572,0.03591125,0.031714328,-0.106439605
322752683,322752368,0.015631631,0.03926317,-0.10266692
322756476,322756174,0.018175898,0.021625644,-0.111281656
322759065,322758722,0.08095084,0.03876263,-0.09259172
322762834,322762517,0.0073403404,0.022505512,-0.106075324
322766643,322766333,0.0781271,0.043477945,-0.07078158
322771697,322771398,0.051702935,0.03523701,-0.092996396
322773022,322772684,0.042297732,0.020545663,-0.075080894
322776779,322776480,0.07363709,0.03614605,-0.08750483
322784392,322784091,0.01644733,0.05620079,-0.087725714
322788258,322787891,0.008022573,0.0836026,-0.0829831
322793290,322792964,-0.049437378,0.070200235,-0.094205946
322878292,322877960,0.029295372,-0.019962251,-0.06525933
322883511,322883209,-0.0062337243,-0.016069302,-0.047688376
322886179,322885833,0.025101418,0.0018454542,-0.0669455
322889864,322889563,0.017915595,-0.009796815,-0.056028526
322892414,322892055,0.0029980699,-0.018797252,-0.054847926
322896164,322895819,0.010914985,-0.027597178,-0.069924176
322899844,322899543,-0.0066586463,-0.041215725,-0.0503038
322903655,322903335,-0.0120415455,-0.04366578,-0.05596964
322906282,322905880,-0.0124926735,-0.04303718,-0.042253893
322910007,322909683,-0.002928075,-0.037364777,-0.037333593
323021633,323021316,-0.04077269,0.025238559,-0.01955002
323025485,323025131,-0.041455436,0.027726047,-0.009769906
323030494,323030195,-0.03277178,0.018293478,-0.017970946
323033063,323032740,-0.004788363,0.00918786,-0.0108264005
323035613,323035282,-0.016596906,-0.00089594745,-0.00034346248
323041930,323041613,0.0019552822,-0.016172634,0.0017167326
323043238,323042883,-0.0044760806,-0.015898015,0.00771198
323045728,323045425,0.0153359575,-0.009444491,-0.009770287
323052243,323051933,0.017641207,0.0012556267,0.009275633
323053512,323053211,0.0057813968,-0.00020437098,0.00732986
323057275,323056934,0.04320942,0.010357734,-0.008832244
323061000,323060685,0.042729467,0.013604095,0.00494106
323063518,323063218,0.038878422,0.023343958,-0.0030611614
323067291,323066984,0.043138478,0.027280902,-0.013244446
323126926,323126609,0.0046059536,-0.042623043,0.0057977578
323133451,323133152,0.011109729,-0.064515024,0.007820865
323137195,323136895,0.027497051,-0.081209145,0.020081023
323143451,323143148,0.028722817,-0.09021675,0.013335446
323144695,323144392,0.030033894,-0.10020116,0.018362965
323148522,323148196,0.030323353,-0.09583524,0.013470218
323153582,323153251,0.06475259,-0.09944104,0.023167422
323154822,323154521,0.043641493,-0.09675986,0.012993915
323158675,323158332,0.043202158,-0.087876156,0.015176322
323163710,323163400,0.03413529,-0.08605172,-0.0011122827
323164974,323164670,0.02009771,-0.09775506,0.004658722
323168819,323168484,0.013319141,-0.10799991,0.013908789
323172600,323172281,-0.0331699,-0.12664402,0.010673526
323176446,323176106,-0.032815903,-0.11524391,-0.0023404602
323178926,323178626,-0.023220055,-0.1201714,0.027973507
323249999,323249677,0.031528603,-0.007956871,0.014597511
323255043,323254741,-0.040652826,-0.01568275,0.023604257
323256330,323256010,-0.03201226,-0.01400377,0.020603606
323260209,323259826,0.009585062,0.03842412,0.02898711
323265207,323264890,-0.06739505,0.030879425,0.009129321
323266467,323266162,-0.010913914,0.027617715,0.008239505
323270326,323269972,-0.08938969,0.05883061,0.028667303
323274077,323273770,-0.0027824745,0.08289585,0.03296484
323277936,323277577,-0.068101875,0.055900153,0.007056515
323280453,323280138,-0.022979777,0.05054359,0.022107322
323285496,323285197,0.023508217,0.06208745,0.027017217
323289354,323289001,-0.028136864,0.03391876,0.028894978
323292061,323291739,-0.024764001,0.04371347,0.022365093
323295859,323295559,-0.0075347354,0.038315654,0.03300755
323379542,323379239,-0.02555089,-0.03783309,0.037757497
323382123,323381795,-0.042234734,-0.055528183,0.01674037
323387119,323386774,0.0101781245,-0.056430914,0.023860663
323389608,323389295,-0.015150732,-0.0682292,0.027216677
323393387,323393025,-0.025453972,-0.0795167,0.032913577
323397134,323396828,0.0209385,-0.06884075,0.027241742
323399709,323399373,-0.03466154,-0.08901459,0.024042731
323403485,323403170,0.03847559,-0.07438164,0.03122963
323407363,323406990,0.020790666,-0.09391378,0.024609178
323411167,323410782,0.045797363,-0.0801997,0.013983095
323413656,323413326,0.005519976,-0.07958873,0.016289163
323418697,323418394,-0.024428232,-0.09199541,0.013956829
323421297,323420944,0.021853374,-0.090012915,0.029144987
323515177,323514825,-0.016035585,-0.04597284,0.019044528
323518916,323518612,0.0023827527,-0.041082796,0.023619633
323522720,323522419,0.003793342,-0.042097468,0.032693606
323527812,323527493,0.0064577297,-0.04839071,0.018696925
323529067,323528763,0.017079696,-0.048721228,0.028859679
323532924,323532581,0.0043082805,-0.061252754,0.016809525
323538166,323537862,-0.00029783105,-0.083133794,0.013552481
323540729,323540399,0.019364905,-0.06496936,0.015644627
323543205,323542906,-0.020572461,-0.08933848,0.03462771
323546945,323546633,0.018148795,-0.07082265,0.013596579
323550776,323550437,-0.012727382,-0.09899881,0.026278509
323554472,323554157,0.013740886,-0.08404282,0.029824078
323556984,323556675,-0.016913397,-0.10017094,0.03469651
323560838,323560486,0.039482843,-0.073943235,0.026526432
323564598,323564283,0.027986152,-0.07761062,0.020114144
323600202,323599811,-0.059115678,0.005749667,-0.0017817052
323603923,323603609,-0.04238171,0.0093738,0.016694564
323606447,323606149,-0.06885116,-0.0019843085,0.0033815557
323610328,323609956,-0.03807503,0.02152129,0.012565726
323615338,323615027,0.012859224,0.027671259,0.014942627
323616613,323616304,-0.0046625393,0.028113676,0.020512415
323620747,323620400,-0.014307871,0.009700067,0.010257667
323624431,323624128,0.010071968,-0.0018192731,0.012416696
323628200,323627840,0.012645424,-0.0035240557,0.015696941
323630705,323630382,-0.00024833094,-0.0067169736,0.01430949
323635644,323635343,0.00051168713,-0.0021671238,0.0267045
323638202,323637863,-0.015987573,0.006241849,0.011675254
323642016,323641676,0.027504798,0.008929531,0.020546008
323644504,323644205,-0.0034023472,0.017994292,0.014813026
323729506,323729200,0.037501086,0.08216717,0.022545025
323732046,323731742,0.017813385,0.07742612,0.024229106
323735844,323735545,0.042730916,0.10182856,0.007454545
323739668,323739349,0.02530803,0.09322317,0.01295768
323743470,323743171,0.040542062,0.10038428,0.006312418
323747332,323746968,0.037909675,0.1011208,-0.007956923
323749829,323749510,0.026770007,0.11515811,-0.0051549324
323753671,323753331,0.013282009,0.111532874,-0.0049820375
323757464,323757127,-0.002345787,0.10940643,0.0020682889
323760005,323759655,-0.0009189785,0.10944202,-0.0060281986
323763788,323763461,-0.005085226,0.11791079,-0.0029934507
323767574,323767273,0.018012134,0.13784197,0.0035616613
323771370,323771067,-0.04157918,0.112336665,0.0049982453
323777716,323777409,-0.033061616,0.11530569,-0.0059298244
323781550,323781215,-0.033712592,0.12542409,0.014135186
323788055,323787756,-0.009254765,0.1113969,0.0057816603
323828457,323828153,0.02992073,0.05611208,0.014969459
323833542,323833237,0.043982733,0.056360804,0.0156128835
323837345,323837033,0.0009082126,0.057216235,-0.016717564
323841145,323840837,0.036162928,0.06720957,0.0047584083
323844951,323844646,0.037496973,0.0629638,-0.0005860418
323848752,323848451,-0.013190873,0.061924297,-0.0020926984
323852635,323852266,-0.0063159037,0.07341946,0.0011510493
323855147,323854803,-0.018421687,0.07039706,-0.0021143605
323858967,323858607,-0.003992753,0.06626291,-0.0034300059
323863980,323863678,-0.005912504,0.08128835,0.0027934273
323865467,323865160,-0.034151383,0.07849326,-0.002946125
323869250,323868948,-0.0099510895,0.07595974,0.0070249806
323932487,323932181,0.0129226465,0.0924133,-0.015392168
323935060,323934723,0.015989441,0.08032907,0.0005835885
323938820,323938521,-0.036546133,0.083997,-0.015442296
323942657,323942336,-0.03013774,0.098915905,-0.011285056
323946488,323946143,-0.016586723,0.092578836,-0.0026266838
323949250,323948941,-0.027646957,0.09807313,-0.012914936
323953002,323952676,-0.012857201,0.07857783,0.0027068832
323956698,323956389,-0.011876538,0.0681313,-0.0074165575
323960456,323960154,-0.032040972,0.05849566,-0.00996622
323962964,323962658,-0.035973445,0.06405959,-0.0021686829
323966739,323966429,-0.018517394,0.043389495,0.003145282
323970559,323970239,-0.0050130635,0.032055903,-0.011611189
323974456,323974065,-0.0035687767,0.028367963,0.004655888
323979418,323979116,0.016107181,0.033100035,0.007775357
324026354,324026053,0.017948152,0.06319647,-0.0055952966
324031661,324031344,-0.0022359313,0.06697612,-0.009669213
324034170,324033849,0.0007073495,0.081366114,-0.0071480907
324036783,324036423,-0.0115886675,0.07982,-0.013905112
324040413,324040110,0.0024330704,0.08087556,-0.0099514
324044282,324043927,-0.03840621,0.07873635,-0.0068048513
324047994,324047637,-0.034370612,0.0874998,0.0016562067
324051747,324051427,0.0012521432,0.09474904,-0.013663548
324054336,324053965,-0.032734286,0.08458699,-0.0070748758
324058151,324057779,-0.016427988,0.08447891,-0.005158137
324061876,324061576,-0.017967472,0.06935909,-0.004298675
324065718,324065382,-0.0025789368,0.0513567,-0.008979638
324068223,324067917,-0.00936817,0.055521954,0.0037559704
324072076,324071726,-0.026430784,0.03874886,-0.0107444655
324075908,324075537,-0.030268012,0.031249918,-0.0017688083
324215429,324215086,-0.00866917,-0.009633913,0.006410024
324219187,324218882,0.053058006,-0.022259146,-0.0043890486
324223025,324222689,0.015234572,-0.0017493757,0.010475417
324225579,324225234,0.03758142,-0.009298415,-0.00026654906
324229342,324229031,0.02456703,-0.008342413,0.00041730647
324233179,324232847,0.031108137,-0.020077124,0.012627402
324239487,324239180,-0.015602108,-0.0060261143,0.025290618
324243340,324242986,0.036222104,-0.0072533856,0.016574396
324249672,324249335,0.034882896,0.027290434,0.0046950653
324250902,324250599,0.04373409,0.031183487,-0.0021030349
324253509,324253142,-0.0102933105,0.042755432,0.0055981493
324259776,324259477,0.008292521,0.06437966,-0.018386656
324261067,324260747,0.0045518847,0.07636943,-0.0041834097
324344772,324344472,-0.024334878,9.838335e-06,0.006390135
324351117,324350816,0.00083119667,-0.005026593,-0.004205358
324352435,324352090,-0.00026562912,0.006652059,0.0095909145
324354931,324354628,0.021986492,0.0049597104,0.022426257
324361454,324361141,0.006428243,0.027467228,-0.00022720465
324362732,324362400,0.025856076,0.022442989,0.0037914957
324366565,324366196,0.058391392,0.024132399,0.010277308
324370200,324369901,0.048483655,0.026382463,0.0054028737
324372765,324372431,0.04997767,0.03360003,0.007245856
324376490,324376189,0.058565263,0.03197148,-0.0007927055
324381591,324381282,0.017616116,0.031844545,-0.0063646324
324385417,324385074,0.014338405,0.053331155,-0.0048410897
324386700,324386345,0.027957633,0.049386322,-0.006865975
324390442,324390142,0.024197262,0.073766984,-0.013127877
324516038,324515732,0.0063914875,0.053440318,-0.017708577
324520063,324519719,0.007780344,0.0753873,-0.0039723543
324523850,324523550,-0.011274523,0.083617024,-0.02338831
324527749,324527372,-0.0156509,0.071526706,-0.011897595
324530176,324529829,0.006031581,0.0859555,-0.014830343
324533858,324533557,-0.035926614,0.062496793,-0.022718288
324537619,324537321,-0.039729297,0.0669689,-0.016212063
324543946,324543643,-0.07129324,0.059201043,-0.011748171
324549073,324548725,-0.04217394,0.059329703,-0.023099748
324552822,324552523,-0.031462926,0.046250172,-0.02186582
324555362,324555061,-0.014617762,0.046211507,-0.025077375
324559233,324558875,-0.0055423733,0.039335344,-0.0064410632
