timestamp,gps_hvel[0],gps_hvel[1],gps_vvel,gps_hpos[0],gps_hpos[1],gps_vpos,ev_hvel[0],ev_hvel[1],ev_vvel,ev_hpos[0],ev_hpos[1],ev_vpos,fake_hvel[0],fake_hvel[1],fake_vvel,fake_hpos[0],fake_hpos[1],fake_vpos,rng_vpos,baro_vpos,aux_hvel[0],aux_hvel[1],aux_vvel,flow[0],flow[1],heading,mag_field[0],mag_field[1],mag_field[2],drag[0],drag[1],airspeed,beta,hagl
317883355,0.0,0.0,0.0,-0.021060122,-0.0038982437,0.0,0.0,0.0,0.0,-0.002106797,-0.00019497331,0.0017480273,nan,nan,nan,nan,nan,nan,0.0,0.35840225,0.0,0.0,nan,0.0,0.0,0.0031628609,0.0,0.0,0.0,0.0,0.0,0.0,0.0,0.0
317893716,0.0,0.0,0.0,-0.021060122,-0.0038982437,0.0,0.0,0.0,0.0,-0.002106797,-0.00019497331,0.001744749,nan,nan,nan,nan,nan,nan,0.0,0.35840225,0.0,0.0,nan,0.0,0.0,0.0031628609,0.0,0.0,0.0,0.0,0.0,0.0,0.0,0.0
318086349,0.0,0.0,0.0,-0.021060122,-0.0038982437,0.0,0.0,0.0,0.0,-0.0020108372,-6.8900175e-05,0.0016663261,nan,nan,nan,nan,nan,nan,0.0,0.35840225,0.0,0.0,nan,0.0,0.0,0.00314641,0.0,0.0,0.0,0.0,0.0,0.0,0.0,0.0
318289327,0.0,0.0,0.0,-0.021060122,-0.0038982437,0.0,0.0,0.0,0.0,-0.0020264927,7.165223e-05,0.001334982,nan,nan,nan,nan,nan,nan,0.0,0.35840225,0.0,0.0,nan,0.0,0.0,0.003134966,0.0,0.0,0.0,0.0,0.0,0.0,0.0,0.0
318487235,0.0,0.0,0.0,-0.021060122,-0.0038982437,0.0,0.0,0.0,0.0,-0.0019515771,0.00012120139,-0.0012531783,nan,nan,nan,nan,nan,nan,0.0,0.35840225,0.0,0.0,nan,0.0,0.0,0.0033086538,0.0,0.0,0.0,0.0,0.0,0.0,0.0,0.0
318690219,0.0,0.0,0.0,-0.021060122,-0.0038982437,0.0,0.0,0.0,0.0,-0.0019219778,7.186551e-05,-0.0065662637,nan,nan,nan,nan,nan,nan,0.0,0.35840225,0.0,0.0,nan,0.0,0.0,0.003180027,0.0,0.0,0.0,0.0,0.0,0.0,0.0,0.0
318903354,0.0,0.0,0.0,-0.021060122,-0.0038982437,0.0,0.0,0.0,0.0,-0.0019799247,2.4521723e-05,-0.013303101,nan,nan,nan,nan,nan,nan,0.0,0.35840225,0.0,0.0,nan,0.0,0.0,0.0033875704,0.0,0.0,0.0,0.0,0.0,0.0,0.0,0.0
319091112,0.0,0.0,0.0,-0.021060122,-0.0038982437,0.0,0.0,0.0,0.0,-0.0021669343,-0.0001379177,-0.02006711,nan,nan,nan,nan,nan,nan,0.0,0.35840225,0.0,0.0,nan,0.0,0.0,0.0031929016,0.0,0.0,0.0,0.0,0.0,0.0,0.0,0.0
319294160,0.0,0.0,0.0,-0.021060122,-0.0038982437,0.0,0.0,0.0,0.0,-0.0021104794,-0.00023950916,-0.026187476,nan,nan,nan,nan,nan,nan,0.0,0.35840225,0.0,0.0,nan,0.0,0.0,0.0031501055,0.0,0.0,0.0,0.0,0.0,0.0,0.0,0.0
319486914,0.0,0.0,0.0,-0.021060122,-0.0038982437,0.0,0.0,0.0,0.0,-0.0021817312,-0.0003918698,-0.03208536,nan,nan,nan,nan,nan,nan,0.0,0.35840225,0.0,0.0,nan,0.0,0.0,0.0031622648,0.0,0.0,0.0,0.0,0.0,0.0,0.0,0.0
319689907,0.0,0.0,0.0,-0.021060122,-0.0038982437,0.0,0.0,0.0,0.0,-0.002102999,-0.00045382045,-0.03556828,nan,nan,nan,nan,nan,nan,0.0,0.35840225,0.0,0.0,nan,0.0,0.0,0.0032269955,0.0,0.0,0.0,0.0,0.0,0.0,0.0,0.0
320090813,0.0,0.0,0.0,-0.021060122,-0.0038982437,0.0,0.0,0.0,0.0,-0.0020415355,-0.00054966845,-0.041401144,nan,nan,nan,nan,nan,nan,0.0,0.35840225,0.0,0.0,nan,0.0,0.0,0.0031939745,0.0,0.0,0.0,0.0,0.0,0.0,0.0,0.0
320491704,0.0,0.0,0.0,-0.021060122,-0.0038982437,0.0,0.0,0.0,0.0,-0.0019635074,-0.00048190355,-0.043017898,nan,nan,nan,nan,nan,nan,0.0,0.35840225,0.0,0.0,nan,0.0,0.0,0.0029896498,0.0,0.0,0.0,0.0,0.0,0.0,0.0,0.0
321892259,0.0,0.0,0.0,-0.021060122,-0.0038982437,0.0,0.0,0.0,0.0,-0.0025466532,7.401686e-05,-0.03802521,nan,nan,nan,nan,nan,nan,0.0,0.35840225,0.0,0.0,nan,0.0,0.0,0.0027896166,0.0,0.0,0.0,0.0,0.0,0.0,0.0,0.0
322085079,0.0,0.0,0.0,-0.021060122,-0.0038982437,0.0,0.0,0.0,0.0,-0.002541544,0.000120578334,-0.03739228,nan,nan,nan,nan,nan,nan,0.0,0.35840225,0.0,0.0,nan,0.0,0.0,0.0029536486,0.0,0.0,0.0,0.0,0.0,0.0,0.0,0.0
322293135,0.0,0.0,0.0,-0.021060122,-0.0038982437,0.0,0.0,0.0,0.0,-0.0023785923,0.00020563416,-0.036689106,nan,nan,nan,nan,nan,nan,0.0,0.35840225,0.0,0.0,nan,0.0,0.0,0.0029338598,0.0,0.0,0.0,0.0,0.0,0.0,0.0,0.0
322688947,0.0,0.0,0.0,-0.021060122,-0.0038982437,0.0,0.0,0.0,0.0,-0.0014543906,0.0026698234,-0.019826882,nan,nan,nan,nan,nan,nan,0.0,0.35840225,0.0,0.0,nan,0.0,0.0,0.032048106,0.0,0.0,0.0,0.0,0.0,0.0,0.0,0.0
322887101,0.0,0.0,0.0,-0.021060122,-0.0038982437,0.0,0.0,0.0,0.0,-0.0012044571,0.0012732428,-0.01971028,nan,nan,nan,nan,nan,nan,0.0,0.35840225,0.0,0.0,nan,0.0,0.0,0.0149611235,0.0,0.0,0.0,0.0,0.0,0.0,0.0,0.0
323282689,0.0,0.0,0.0,-0.021060122,-0.0038982437,0.0,0.0,0.0,0.0,-0.0027625374,-0.0010733004,-0.02850607,nan,nan,nan,nan,nan,nan,0.0,0.35840225,0.0,0.0,nan,0.0,0.0,-0.0036110878,0.0,0.0,0.0,0.0,0.0,0.0,0.0,0.0
324693439,0.0,0.0,0.0,-0.021060122,-0.0038982437,0.0,0.0,0.0,0.0,0.0011891779,0.006676849,-0.07539743,nan,nan,nan,nan,nan,nan,0.0,0.35840225,0.0,0.0,nan,0.0,0.0,0.0041657686,0.0,0.0,0.0,0.0,0.0,0.0,0.0,0.0
324891238,0.0,0.0,0.0,-0.021060122,-0.0038982437,0.0,0.0,0.0,0.0,0.00017137453,0.0073964074,-0.07591277,nan,nan,nan,nan,nan,nan,0.0,0.35840225,0.0,0.0,nan,0.0,0.0,0.000109791756,0.0,0.0,0.0,0.0,0.0,0.0,0.0,0.0
325084099,0.0,0.0,0.0,-0.021060122,-0.0038982437,0.0,0.0,0.0,0.0,-2.8571114e-05,0.0064154975,-0.07557911,nan,nan,nan,nan,nan,nan,0.0,0.35840225,0.0,0.0,nan,0.0,0.0,-0.0012574196,0.0,0.0,0.0,0.0,0.0,0.0,0.0,0.0
325292156,0.0,0.0,0.0,-0.021060122,-0.0038982437,0.0,0.0,0.0,0.0,-0.0004761275,0.0044262856,-0.07553035,nan,nan,nan,nan,nan,nan,0.0,0.35840225,0.0,0.0,nan,0.0,0.0,0.0030946732,0.0,0.0,0.0,0.0,0.0,0.0,0.0,0.0
325490012,0.0,0.0,0.0,-0.021060122,-0.0038982437,0.0,0.0,0.0,0.0,-0.000978902,0.0011907555,-0.076106906,nan,nan,nan,nan,nan,nan,0.0,0.35840225,0.0,0.0,nan,0.0,0.0,0.00643301,0.0,0.0,0.0,0.0,0.0,0.0,0.0,0.0
325687915,0.0,0.0,0.0,-0.021060122,-0.0038982437,0.0,0.0,0.0,0.0,-0.0007811431,-0.0017638272,-0.072253466,nan,nan,nan,nan,nan,nan,0.0,0.35840225,0.0,0.0,nan,0.0,0.0,0.0025960207,0.0,0.0,0.0,0.0,0.0,0.0,0.0,0.0
325890881,0.0,0.0,0.0,-0.021060122,-0.0038982437,0.0,0.0,0.0,0.0,0.00067351013,-0.0033907883,-0.0697847,nan,nan,nan,nan,nan,nan,0.0,0.35840225,0.0,0.0,nan,0.0,0.0,-0.008442044,0.0,0.0,0.0,0.0,0.0,0.0,0.0,0.0
326083859,0.0,0.0,0.0,-0.021060122,-0.0038982437,0.0,0.0,0.0,0.0,0.002998544,-0.007363453,-0.06844777,nan,nan,nan,nan,nan,nan,0.0,0.35840225,0.0,0.0,nan,0.0,0.0,-0.021454692,0.0,0.0,0.0,0.0,0.0,0.0,0.0,0.0
326291759,0.0,0.0,0.0,-0.021060122,-0.0038982437,0.0,0.0,0.0,0.0,0.0036106016,-0.007540504,-0.067527115,nan,nan,nan,nan,nan,nan,0.0,0.35840225,0.0,0.0,nan,0.0,0.0,-0.010090232,0.0,0.0,0.0,0.0,0.0,0.0,0.0,0.0
326890523,0.0,0.0,0.0,-0.021060122,-0.0038982437,0.0,0.0,0.0,0.0,0.0037560537,0.0031796657,-0.068380296,nan,nan,nan,nan,nan,nan,0.0,0.35840225,0.0,0.0,nan,0.0,0.0,0.019284964,0.0,0.0,0.0,0.0,0.0,0.0,0.0,0.0
327088408,0.0,0.0,0.0,-0.021060122,-0.0038982437,0.0,0.0,0.0,0.0,0.0018105768,0.006712077,-0.06355041,nan,nan,nan,nan,nan,nan,0.0,0.35840225,0.0,0.0,nan,0.0,0.0,0.02146113,0.0,0.0,0.0,0.0,0.0,0.0,0.0,0.0
327291379,0.0,0.0,0.0,-0.021060122,-0.0038982437,0.0,0.0,0.0,0.0,0.0002798289,0.009294768,-0.06452209,nan,nan,nan,nan,nan,nan,0.0,0.35840225,0.0,0.0,nan,0.0,0.0,0.010135531,0.0,0.0,0.0,0.0,0.0,0.0,0.0,0.0
327692261,0.0,0.0,0.0,-0.021060122,-0.0038982437,0.0,0.0,0.0,0.0,-0.0041682944,0.007333925,-0.05651623,nan,nan,nan,nan,nan,nan,0.0,0.35840225,0.0,0.0,nan,0.0,0.0,-0.0075730085,0.0,0.0,0.0,0.0,0.0,0.0,0.0,0.0
327885185,0.0,0.0,0.0,-0.021060122,-0.0038982437,0.0,0.0,0.0,0.0,-0.005097963,0.009229463,-0.04883021,nan,nan,nan,nan,nan,nan,0.0,0.35840225,0.0,0.0,nan,0.0,0.0,-0.015764236,0.0,0.0,0.0,0.0,0.0,0.0,0.0,0.0
328093125,0.0,0.0,0.0,-0.021060122,-0.0038982437,0.0,0.0,0.0,0.0,-0.0030690106,0.004377365,-0.043800414,nan,nan,nan,nan,nan,nan,0.0,0.35840225,0.0,0.0,nan,0.0,0.0,-0.015288234,0.0,0.0,0.0,0.0,0.0,0.0,0.0,0.0
328286201,0.0,0.0,0.0,-0.021060122,-0.0038982437,0.0,0.0,0.0,0.0,-0.0018530058,0.0015618838,-0.040944517,nan,nan,nan,nan,nan,nan,0.0,0.35840225,0.0,0.0,nan,0.0,0.0,-0.005168915,0.0,0.0,0.0,0.0,0.0,0.0,0.0,0.0
328692174,0.0,0.0,0.0,-0.021060122,-0.0038982437,0.0,0.0,0.0,0.0,-0.0007625716,0.004833393,-0.042223275,nan,nan,nan,nan,nan,nan,0.0,0.35840225,0.0,0.0,nan,0.0,0.0,0.01593113,0.0,0.0,0.0,0.0,0.0,0.0,0.0,0.0
328884679,0.0,0.0,0.0,-0.021060122,-0.0038982437,0.0,0.0,0.0,0.0,-0.0016259933,0.0058290213,-0.042803407,nan,nan,nan,nan,nan,nan,0.0,0.35840225,0.0,0.0,nan,0.0,0.0,0.008779287,0.0,0.0,0.0,0.0,0.0,0.0,0.0,0.0
329092716,0.0,0.0,0.0,-0.021060122,-0.0038982437,0.0,0.0,0.0,0.0,-0.0021719867,0.009703264,-0.042020023,nan,nan,nan,nan,nan,nan,0.0,0.35840225,0.0,0.0,nan,0.0,0.0,-0.0010155439,0.0,0.0,0.0,0.0,0.0,0.0,0.0,0.0
329285555,0.0,0.0,0.0,-0.021060122,-0.0038982437,0.0,0.0,0.0,0.0,-0.0038848259,0.01112875,-0.040665746,nan,nan,nan,nan,nan,nan,0.0,0.35840225,0.0,0.0,nan,0.0,0.0,-0.0018441677,0.0,0.0,0.0,0.0,0.0,0.0,0.0,0.0
329488504,0.0,0.0,0.0,-0.021060122,-0.0038982437,0.0,0.0,0.0,0.0,-0.008364495,0.010680269,-0.041015387,nan,nan,nan,nan,nan,nan,0.0,0.35840225,0.0,0.0,nan,0.0,0.0,-0.00032126904,0.0,0.0,0.0,0.0,0.0,0.0,0.0,0.0
329691471,0.0,0.0,0.0,-0.021060122,-0.0038982437,0.0,0.0,0.0,0.0,-0.011109051,0.00998028,-0.041020155,nan,nan,nan,nan,nan,nan,0.0,0.35840225,0.0,0.0,nan,0.0,0.0,-0.0052849054,0.0,0.0,0.0,0.0,0.0,0.0,0.0,0.0
329889380,0.0,0.0,0.0,-0.021060122,-0.0038982437,0.0,0.0,0.0,0.0,-0.011964019,0.0064626783,-0.039620697,nan,nan,nan,nan,nan,nan,0.0,0.35840225,0.0,0.0,nan,0.0,0.0,-0.011548281,0.0,0.0,0.0,0.0,0.0,0.0,0.0,0.0
330092407,0.0,0.0,0.0,-0.021060122,-0.0038982437,0.0,0.0,0.0,0.0,-0.013366954,0.001976978,-0.039364874,nan,nan,nan,nan,nan,nan,0.0,0.35840225,0.0,0.0,nan,0.0,0.0,-0.007674575,0.0,0.0,0.0,0.0,0.0,0.0,0.0,0.0
330285139,0.0,0.0,0.0,-0.021060122,-0.0038982437,0.0,0.0,0.0,0.0,-0.012745668,-0.0018613823,-0.038555086,nan,nan,nan,nan,nan,nan,0.0,0.35840225,0.0,0.0,nan,0.0,0.0,-0.00085675716,0.0,0.0,0.0,0.0,0.0,0.0,0.0,0.0
330691109,0.0,0.0,0.0,-0.021060122,-0.0038982437,0.0,0.0,0.0,0.0,-0.006225707,0.0006271899,-0.038492024,nan,nan,nan,nan,nan,nan,0.0,0.35840225,0.0,0.0,nan,0.0,0.0,0.0018182993,0.0,0.0,0.0,0.0,0.0,0.0,0.0,0.0
330888950,0.0,0.0,0.0,-0.021060122,-0.0038982437,0.0,0.0,0.0,0.0,-0.0023721904,0.0051258393,-0.039806724,nan,nan,nan,nan,nan,nan,0.0,0.35840225,0.0,0.0,nan,0.0,0.0,0.0043735504,0.0,0.0,0.0,0.0,0.0,0.0,0.0,0.0
331091918,0.0,0.0,0.0,-0.021060122,-0.0038982437,0.0,0.0,0.0,0.0,-2.3975968e-05,0.008466721,-0.040534735,nan,nan,nan,nan,nan,nan,0.0,0.35840225,0.0,0.0,nan,0.0,0.0,0.008046269,0.0,0.0,0.0,0.0,0.0,0.0,0.0,0.0
331482716,0.0,0.0,0.0,-0.021060122,-0.0038982437,0.0,0.0,0.0,0.0,0.0018235091,0.009487867,-0.04143095,nan,nan,nan,nan,nan,nan,0.0,0.35840225,0.0,0.0,nan,0.0,0.0,0.003725171,0.0,0.0,0.0,0.0,0.0,0.0,0.0,0.0
331685584,0.0,0.0,0.0,-0.021060122,-0.0038982437,0.0,0.0,0.0,0.0,0.00032468978,0.0072196517,-0.041781664,nan,nan,nan,nan,nan,nan,0.0,0.35840225,0.0,0.0,nan,0.0,0.0,0.0034806728,0.0,0.0,0.0,0.0,0.0,0.0,0.0,0.0
331888668,0.0,0.0,0.0,-0.021060122,-0.0038982437,0.0,0.0,0.0,0.0,-0.0019567362,0.004753612,-0.041556954,nan,nan,nan,nan,nan,nan,0.0,0.35840225,0.0,0.0,nan,0.0,0.0,0.0017256737,0.0,0.0,0.0,0.0,0.0,0.0,0.0,0.0
332086411,0.0,0.0,0.0,-0.021060122,-0.0038982437,0.0,0.0,0.0,0.0,-0.0022071137,0.0033730473,-0.040827632,nan,nan,nan,nan,nan,nan,0.0,0.35840225,0.0,0.0,nan,0.0,0.0,0.00038039684,0.0,0.0,0.0,0.0,0.0,0.0,0.0,0.0
332289635,0.0,0.0,0.0,-0.021060122,-0.0038982437,0.0,0.0,0.0,0.0,-0.0015014305,0.0021495847,-0.038612008,nan,nan,nan,nan,nan,nan,0.0,0.35840225,0.0,0.0,nan,0.0,0.0,0.0001784563,0.0,0.0,0.0,0.0,0.0,0.0,0.0,0.0
332492359,0.0,0.0,0.0,-0.021060122,-0.0038982437,0.0,0.0,0.0,0.0,-0.0013771981,0.00047617313,-0.03915018,nan,nan,nan,nan,nan,nan,0.0,0.35840225,0.0,0.0,nan,0.0,0.0,-0.004016757,0.0,0.0,0.0,0.0,0.0,0.0,0.0,0.0
332685156,0.0,0.0,0.0,-0.021060122,-0.0038982437,0.0,0.0,0.0,0.0,-0.0006335883,-0.0010096263,-0.038542688,nan,nan,nan,nan,nan,nan,0.0,0.35840225,0.0,0.0,nan,0.0,0.0,-0.004647732,0.0,0.0,0.0,0.0,0.0,0.0,0.0,0.0
332883033,0.0,0.0,0.0,-0.021060122,-0.0038982437,0.0,0.0,0.0,0.0,0.0007805703,-0.0016200943,-0.038289845,nan,nan,nan,nan,nan,nan,0.0,0.35840225,0.0,0.0,nan,0.0,0.0,0.00079643726,0.0,0.0,0.0,0.0,0.0,0.0,0.0,0.0
333085983,0.0,0.0,0.0,-0.021060122,-0.0038982437,0.0,0.0,0.0,0.0,0.0019579502,0.0013591778,-0.036902487,nan,nan,nan,nan,nan,nan,0.0,0.35840225,0.0,0.0,nan,0.0,0.0,0.0005450249,0.0,0.0,0.0,0.0,0.0,0.0,0.0,0.0
333288937,0.0,0.0,0.0,-0.021060122,-0.0038982437,0.0,0.0,0.0,0.0,0.0022084014,0.0022265837,-0.036309898,nan,nan,nan,nan,nan,nan,0.0,0.35840225,0.0,0.0,nan,0.0,0.0,0.0005021095,0.0,0.0,0.0,0.0,0.0,0.0,0.0,0.0
333486828,0.0,0.0,0.0,-0.021060122,-0.0038982437,0.0,0.0,0.0,0.0,0.0026711118,0.0037902612,-0.03399211,nan,nan,nan,nan,nan,nan,0.0,0.35840225,0.0,0.0,nan,0.0,0.0,-0.0033185482,0.0,0.0,0.0,0.0,0.0,0.0,0.0,0.0
333689941,0.0,0.0,0.0,-0.021060122,-0.0038982437,0.0,0.0,0.0,0.0,0.0019479189,0.004580969,-0.034238756,nan,nan,nan,nan,nan,nan,0.0,0.35840225,0.0,0.0,nan,0.0,0.0,-0.0020843744,0.0,0.0,0.0,0.0,0.0,0.0,0.0,0.0
334085720,0.0,0.0,0.0,-0.021060122,-0.0038982437,0.0,0.0,0.0,0.0,0.0027022045,0.005678324,-0.03015703,nan,nan,nan,nan,nan,nan,0.0,0.35840225,0.0,0.0,nan,0.0,0.0,0.00094628334,0.0,0.0,0.0,0.0,0.0,0.0,0.0,0.0
334689332,0.0,0.0,0.0,-0.021060122,-0.0038982437,0.0,0.0,0.0,0.0,0.0001501143,0.002233822,-0.031808138,nan,nan,nan,nan,nan,nan,0.0,0.35840225,0.0,0.0,nan,0.0,0.0,-0.0022215843,0.0,0.0,0.0,0.0,0.0,0.0,0.0,0.0
334892313,0.0,0.0,0.0,-0.021060122,-0.0038982437,0.0,0.0,0.0,0.0,-4.486274e-05,0.0018518325,-0.031361163,nan,nan,nan,nan,nan,nan,0.0,0.35840225,0.0,0.0,nan,0.0,0.0,-0.003993392,0.0,0.0,0.0,0.0,0.0,0.0,0.0,0.0
335090172,0.0,0.0,0.0,-0.021060122,-0.0038982437,0.0,0.0,0.0,0.0,-0.00026244577,0.0004958473,-0.030905783,nan,nan,nan,nan,nan,nan,0.0,0.35840225,0.0,0.0,nan,0.0,0.0,-0.00253582,0.0,0.0,0.0,0.0,0.0,0.0,0.0,0.0
336292854,0.0,0.0,0.0,-0.021060122,-0.0038982437,0.0,0.0,0.0,0.0,0.0014436217,0.004196793,-0.022449791,nan,nan,nan,nan,nan,nan,0.0,0.35840225,0.0,0.0,nan,0.0,0.0,0.00044584274,0.0,0.0,0.0,0.0,0.0,0.0,0.0,0.0
336490532,0.0,0.0,0.0,-0.021060122,-0.0038982437,0.0,0.0,0.0,0.0,0.0020301947,0.0052167214,-0.020919144,nan,nan,nan,nan,nan,nan,0.0,0.35840225,0.0,0.0,nan,0.0,0.0,0.000118374825,0.0,0.0,0.0,0.0,0.0,0.0,0.0,0.0
336683344,0.0,0.0,0.0,-0.021060122,-0.0038982437,0.0,0.0,0.0,0.0,0.0013578273,0.003394154,-0.021800041,nan,nan,nan,nan,nan,nan,0.0,0.35840225,0.0,0.0,nan,0.0,0.0,0.0018777847,0.0,0.0,0.0,0.0,0.0,0.0,0.0,0.0
336886296,0.0,0.0,0.0,-0.021060122,-0.0038982437,0.0,0.0,0.0,0.0,0.00048006978,0.00474569,-0.020993829,nan,nan,nan,nan,nan,nan,0.0,0.35840225,0.0,0.0,nan,0.0,0.0,0.0019315481,0.0,0.0,0.0,0.0,0.0,0.0,0.0,0.0
337089248,0.0,0.0,0.0,-0.021060122,-0.0038982437,0.0,0.0,0.0,0.0,0.0010303538,0.0037429929,-0.019328892,nan,nan,nan,nan,nan,nan,0.0,0.35840225,0.0,0.0,nan,0.0,0.0,5.1021576e-05,0.0,0.0,0.0,0.0,0.0,0.0,0.0,0.0
337490062,0.0,0.0,0.0,-0.021060122,-0.0038982437,0.0,0.0,0.0,0.0,0.0012370213,0.0016581621,-0.013099492,nan,nan,nan,nan,nan,nan,0.0,0.35840225,0.0,0.0,nan,0.0,0.0,-0.0008225441,0.0,0.0,0.0,0.0,0.0,0.0,0.0,0.0
337890907,0.0,0.0,0.0,-0.021060122,-0.0038982437,0.0,0.0,0.0,0.0,8.299525e-05,0.0027768165,-0.015642524,nan,nan,nan,nan,nan,nan,0.0,0.35840225,0.0,0.0,nan,0.0,0.0,-0.0017677546,0.0,0.0,0.0,0.0,0.0,0.0,0.0,0.0
338083693,0.0,0.0,0.0,-0.021060122,-0.0038982437,0.0,0.0,0.0,0.0,-0.00019553839,0.003522084,-0.014885128,nan,nan,nan,nan,nan,nan,0.0,0.35840225,0.0,0.0,nan,0.0,0.0,-0.0018002987,0.0,0.0,0.0,0.0,0.0,0.0,0.0,0.0
338286641,0.0,0.0,0.0,-0.021060122,-0.0038982437,0.0,0.0,0.0,0.0,-5.993899e-05,0.004350723,-0.014398396,nan,nan,nan,nan,nan,nan,0.0,0.35840225,0.0,0.0,nan,0.0,0.0,-0.0036860704,0.0,0.0,0.0,0.0,0.0,0.0,0.0,0.0
338489591,0.0,0.0,0.0,-0.021060122,-0.0038982437,0.0,0.0,0.0,0.0,0.0011032312,0.005123038,-0.011916816,nan,nan,nan,nan,nan,nan,0.0,0.35840225,0.0,0.0,nan,0.0,0.0,-0.0045411587,0.0,0.0,0.0,0.0,0.0,0.0,0.0,0.0
338687464,0.0,0.0,0.0,-0.021060122,-0.0038982437,0.0,0.0,0.0,0.0,0.0017918446,0.0047720885,-0.01131773,nan,nan,nan,nan,nan,nan,0.0,0.35840225,0.0,0.0,nan,0.0,0.0,-0.0035978556,0.0,0.0,0.0,0.0,0.0,0.0,0.0,0.0
338890408,0.0,0.0,0.0,-0.021060122,-0.0038982437,0.0,0.0,0.0,0.0,0.0017716615,0.0048613343,-0.010672748,nan,nan,nan,nan,nan,nan,0.0,0.35840225,0.0,0.0,nan,0.0,0.0,-0.0051317215,0.0,0.0,0.0,0.0,0.0,0.0,0.0,0.0
339093351,0.0,0.0,0.0,-0.021060122,-0.0038982437,0.0,0.0,0.0,0.0,0.0013147295,0.004193304,-0.010309279,nan,nan,nan,nan,nan,nan,0.0,0.35840225,0.0,0.0,nan,0.0,0.0,-0.006100416,0.0,0.0,0.0,0.0,0.0,0.0,0.0,0.0
339286171,0.0,0.0,0.0,-0.021060122,-0.0038982437,0.0,0.0,0.0,0.0,0.0014183531,0.004597474,-0.009571433,nan,nan,nan,nan,nan,nan,0.0,0.35840225,0.0,0.0,nan,0.0,0.0,-0.0040197372,0.0,0.0,0.0,0.0,0.0,0.0,0.0,0.0
339484274,0.0,0.0,0.0,-0.021060122,-0.0038982437,0.0,0.0,0.0,0.0,0.001737996,0.0059332456,-0.010173559,nan,nan,nan,nan,nan,nan,0.0,0.35840225,0.0,0.0,nan,0.0,0.0,-0.00315094,0.0,0.0,0.0,0.0,0.0,0.0,0.0,0.0
339686971,0.0,0.0,0.0,-0.021060122,-0.0038982437,0.0,0.0,0.0,0.0,0.0031219246,0.007225029,-0.010340571,nan,nan,nan,nan,nan,nan,0.0,0.35840225,0.0,0.0,nan,0.0,0.0,-0.001295805,0.0,0.0,0.0,0.0,0.0,0.0,0.0,0.0
340082729,0.0,0.0,0.0,-0.021060122,-0.0038982437,0.0,0.0,0.0,0.0,0.0036827521,0.0063035823,-0.008619428,nan,nan,nan,nan,nan,nan,0.0,0.35840225,0.0,0.0,nan,0.0,0.0,-0.00022530556,0.0,0.0,0.0,0.0,0.0,0.0,0.0,0.0
340290730,0.0,0.0,0.0,-0.021060122,-0.0038982437,0.0,0.0,0.0,0.0,0.0029590586,0.0035947617,-0.007404506,nan,nan,nan,nan,nan,nan,0.0,0.35840225,0.0,0.0,nan,0.0,0.0,-0.0028253794,0.0,0.0,0.0,0.0,0.0,0.0,0.0,0.0
340493675,0.0,0.0,0.0,-0.021060122,-0.0038982437,0.0,0.0,0.0,0.0,0.0030783946,0.0031919144,-0.006147146,nan,nan,nan,nan,nan,nan,0.0,0.35840225,0.0,0.0,nan,0.0,0.0,-0.00085890293,0.0,0.0,0.0,0.0,0.0,0.0,0.0,0.0
340686474,0.0,0.0,0.0,-0.021060122,-0.0038982437,0.0,0.0,0.0,0.0,0.0029372647,0.0036128648,-0.0065033436,nan,nan,nan,nan,nan,nan,0.0,0.35840225,0.0,0.0,nan,0.0,0.0,-0.0012423992,0.0,0.0,0.0,0.0,0.0,0.0,0.0,0.0
341290302,0.0,0.0,0.0,-0.021060122,-0.0038982437,0.0,0.0,0.0,0.0,0.005432439,0.0071301367,-0.0034191012,nan,nan,nan,nan,nan,nan,0.0,0.35840225,0.0,0.0,nan,0.0,0.0,-0.0076025724,0.0,0.0,0.0,0.0,0.0,0.0,0.0,0.0
341493181,0.0,0.0,0.0,-0.021060122,-0.0038982437,0.0,0.0,0.0,0.0,0.005530048,0.004935881,-0.0019863248,nan,nan,nan,nan,nan,nan,0.0,0.35840225,0.0,0.0,nan,0.0,0.0,-0.0059570074,0.0,0.0,0.0,0.0,0.0,0.0,0.0,0.0
341691287,0.0,0.0,0.0,-0.021060122,-0.0038982437,0.0,0.0,0.0,0.0,0.004152091,0.00500424,-0.0026869774,nan,nan,nan,nan,nan,nan,0.0,0.35840225,0.0,0.0,nan,0.0,0.0,-0.006914139,0.0,0.0,0.0,0.0,0.0,0.0,0.0,0.0
342086779,0.0,0.0,0.0,-0.021060122,-0.0038982437,0.0,0.0,0.0,0.0,0.002471677,0.0059155906,-0.0020671487,nan,nan,nan,nan,nan,nan,0.0,0.35840225,0.0,0.0,nan,0.0,0.0,-0.003907442,0.0,0.0,0.0,0.0,0.0,0.0,0.0,0.0
342690544,0.0,0.0,0.0,-0.021060122,-0.0038982437,0.0,0.0,0.0,0.0,0.002974377,0.0032576118,-0.003078699,nan,nan,nan,nan,nan,nan,0.0,0.35840225,0.0,0.0,nan,0.0,0.0,0.0002554655,0.0,0.0,0.0,0.0,0.0,0.0,0.0,0.0
342893474,0.0,0.0,0.0,-0.021060122,-0.0038982437,0.0,0.0,0.0,0.0,0.0030301576,0.0049808044,-0.00076436996,nan,nan,nan,nan,nan,nan,0.0,0.35840225,0.0,0.0,nan,0.0,0.0,-0.000818491,0.0,0.0,0.0,0.0,0.0,0.0,0.0,0.0
343086368,0.0,0.0,0.0,-0.021060122,-0.0038982437,0.0,0.0,0.0,0.0,0.0029937709,0.0045634815,-0.0019122362,nan,nan,nan,nan,nan,nan,0.0,0.35840225,0.0,0.0,nan,0.0,0.0,-0.0024248362,0.0,0.0,0.0,0.0,0.0,0.0,0.0,0.0
343294285,0.0,0.0,0.0,-0.021060122,-0.0038982437,0.0,0.0,0.0,0.0,0.002593982,0.006386988,0.00011777878,nan,nan,nan,nan,nan,nan,0.0,0.35840225,0.0,0.0,nan,0.0,0.0,-0.0036326647,0.0,0.0,0.0,0.0,0.0,0.0,0.0,0.0
343487381,0.0,0.0,0.0,-0.021060122,-0.0038982437,0.0,0.0,0.0,0.0,0.0020991554,0.006791128,-0.000702858,nan,nan,nan,nan,nan,nan,0.0,0.35840225,0.0,0.0,nan,0.0,0.0,-0.0040938854,0.0,0.0,0.0,0.0,0.0,0.0,0.0,0.0
343684939,0.0,0.0,0.0,-0.021060122,-0.0038982437,0.0,0.0,0.0,0.0,0.002258975,0.0070576333,-3.33786e-06,nan,nan,nan,nan,nan,nan,0.0,0.35840225,0.0,0.0,nan,0.0,0.0,-0.0045713186,0.0,0.0,0.0,0.0,0.0,0.0,0.0,0.0
343882816,0.0,0.0,0.0,-0.021060122,-0.0038982437,0.0,0.0,0.0,0.0,0.003523685,0.0073233414,0.00029063225,nan,nan,nan,nan,nan,nan,0.0,0.35840225,0.0,0.0,nan,0.0,0.0,-0.004670024,0.0,0.0,0.0,0.0,0.0,0.0,0.0,0.0
344090824,0.0,0.0,0.0,-0.021060122,-0.0038982437,0.0,0.0,0.0,0.0,0.0028109606,0.006237766,0.0008369684,nan,nan,nan,nan,nan,nan,0.0,0.35840225,0.0,0.0,nan,0.0,0.0,-0.0043998957,0.0,0.0,0.0,0.0,0.0,0.0,0.0,0.0
344684414,0.0,0.0,0.0,-0.021060122,-0.0038982437,0.0,0.0,0.0,0.0,0.0045340806,0.0033306032,0.00054228306,nan,nan,nan,nan,nan,nan,0.0,0.35840225,0.0,0.0,nan,0.0,0.0,-0.0049227476,0.0,0.0,0.0,0.0,0.0,0.0,0.0,0.0
344887417,0.0,0.0,0.0,-0.021060122,-0.0038982437,0.0,0.0,0.0,0.0,0.0050407974,0.0033185987,0.0004787445,nan,nan,nan,nan,nan,nan,0.0,0.35840225,0.0,0.0,nan,0.0,0.0,-0.005483389,0.0,0.0,0.0,0.0,0.0,0.0,0.0,0.0
345085217,0.0,0.0,0.0,-0.021060122,-0.0038982437,0.0,0.0,0.0,0.0,0.0062507372,0.0032312945,0.0021814108,nan,nan,nan,nan,nan,nan,0.0,0.35840225,0.0,0.0,nan,0.0,0.0,-0.004395485,0.0,0.0,0.0,0.0,0.0,0.0,0.0,0.0
345283341,0.0,0.0,0.0,-0.021060122,-0.0038982437,0.0,0.0,0.0,0.0,0.005675137,0.002250309,0.0015707016,nan,nan,nan,nan,nan,nan,0.0,0.35840225,0.0,0.0,nan,0.0,0.0,-0.0026928186,0.0,0.0,0.0,0.0,0.0,0.0,0.0,0.0
345491100,0.0,0.0,0.0,-0.021060122,-0.0038982437,0.0,0.0,0.0,0.0,0.004262233,0.0035675736,0.0011219978,nan,nan,nan,nan,nan,nan,0.0,0.35840225,0.0,0.0,nan,0.0,0.0,-0.0011088848,0.0,0.0,0.0,0.0,0.0,0.0,0.0,0.0
345683884,0.0,0.0,0.0,-0.021060122,-0.0038982437,0.0,0.0,0.0,0.0,0.0035090987,0.004291783,0.00043654442,nan,nan,nan,nan,nan,nan,0.0,0.35840225,0.0,0.0,nan,0.0,0.0,5.3286552e-05,0.0,0.0,0.0,0.0,0.0,0.0,0.0,0.0
345886830,0.0,0.0,0.0,-0.021060122,-0.0038982437,0.0,0.0,0.0,0.0,0.0036651231,0.008056854,-0.025250375,nan,nan,nan,nan,nan,nan,0.0,0.35840225,0.0,0.0,nan,0.0,0.0,-0.0011970997,0.0,0.0,0.0,0.0,0.0,0.0,0.0,0.0
346089766,0.0,0.0,0.0,-0.021060122,-0.0038982437,0.0,0.0,0.0,0.0,0.002763506,0.0065837894,-0.038045943,nan,nan,nan,nan,nan,nan,0.0,0.35840225,0.0,0.0,nan,0.0,0.0,0.010795474,0.0,0.0,0.0,0.0,0.0,0.0,0.0,0.0
346287629,0.0,0.0,0.0,-0.021060122,-0.0038982437,0.0,0.0,0.0,0.0,0.0028385073,0.005323611,-0.013691783,nan,nan,nan,nan,nan,nan,0.0,0.35840225,0.0,0.0,nan,0.0,0.0,-0.005257964,0.0,0.0,0.0,0.0,0.0,0.0,0.0,0.0
346490564,0.0,0.0,0.0,-0.021060122,-0.0038982437,0.0,0.0,0.0,0.0,0.0030829627,0.0038390998,0.0033870935,nan,nan,nan,nan,nan,nan,0.0,0.35840225,0.0,0.0,nan,0.0,0.0,-0.004163027,0.0,0.0,0.0,0.0,0.0,0.0,0.0,0.0
346683438,0.0,0.0,0.0,-0.021060122,-0.0038982437,0.0,0.0,0.0,0.0,0.0034015346,0.0022638533,0.023034751,nan,nan,nan,nan,nan,nan,0.0,0.35840225,0.0,0.0,nan,0.0,0.0,-0.0041439533,0.0,0.0,0.0,0.0,0.0,0.0,0.0,0.0
346891359,0.0,0.0,0.0,-0.021060122,-0.0038982437,0.0,0.0,0.0,0.0,0.0035102013,0.002471611,0.030244976,nan,nan,nan,nan,nan,nan,0.0,0.35840225,0.0,0.0,nan,0.0,0.0,-0.002163887,0.0,0.0,0.0,0.0,0.0,0.0,0.0,0.0
347084379,0.0,0.0,0.0,-0.021060122,-0.0038982437,0.0,0.0,0.0,0.0,0.0025975313,0.0024485476,0.02351293,nan,nan,nan,nan,nan,nan,0.0,0.35840225,0.0,0.0,nan,0.0,0.0,0.0010466576,0.0,0.0,0.0,0.0,0.0,0.0,0.0,0.0
347287098,0.0,0.0,0.0,-0.021060122,-0.0038982437,0.0,0.0,0.0,0.0,0.0029781666,0.0054672062,0.025721908,nan,nan,nan,nan,nan,nan,0.0,0.35840225,0.0,0.0,nan,0.0,0.0,0.0015747547,0.0,0.0,0.0,0.0,0.0,0.0,0.0,0.0
347490328,0.0,0.0,0.0,-0.021060122,-0.0038982437,0.0,0.0,0.0,0.0,0.0046359757,0.0067845136,0.030000724,nan,nan,nan,nan,nan,nan,0.0,0.35840225,0.0,0.0,nan,0.0,0.0,-0.003264308,0.0,0.0,0.0,0.0,0.0,0.0,0.0,0.0
347687889,0.0,0.0,0.0,-0.021060122,-0.0038982437,0.0,0.0,0.0,0.0,0.005162144,0.0042332644,0.06699567,nan,nan,nan,nan,nan,nan,0.0,0.35840225,0.0,0.0,nan,0.0,0.0,-0.0031471252,0.0,0.0,0.0,0.0,0.0,0.0,0.0,0.0
347890848,0.0,0.0,0.0,-0.021060122,-0.0038982437,0.0,0.0,0.0,0.0,0.005188681,-0.0012521483,0.06971151,nan,nan,nan,nan,nan,nan,0.0,0.35840225,0.0,0.0,nan,0.0,0.0,-0.017214894,0.0,0.0,0.0,0.0,0.0,0.0,0.0,0.0
348890437,0.0,0.0,0.0,-0.021060122,-0.0038982437,0.0,0.0,0.0,0.0,-0.0028744023,0.0035070376,0.023929343,nan,nan,nan,nan,nan,nan,0.0,0.35840225,0.0,0.0,nan,0.0,0.0,-0.004748583,0.0,0.0,0.0,0.0,0.0,0.0,0.0,0.0
349291291,0.0,0.0,0.0,-0.021060122,-0.0038982437,0.0,0.0,0.0,0.0,-0.0034541385,0.0036572367,0.02914836,nan,nan,nan,nan,nan,nan,0.0,0.35840225,0.0,0.0,nan,0.0,0.0,-0.004671216,0.0,0.0,0.0,0.0,0.0,0.0,0.0,0.0
349483870,0.0,0.0,0.0,-0.021060122,-0.0038982437,0.0,0.0,0.0,0.0,-0.0033211084,0.0035357438,0.03126775,nan,nan,nan,nan,nan,nan,0.0,0.35840225,0.0,0.0,nan,0.0,0.0,-0.004472971,0.0,0.0,0.0,0.0,0.0,0.0,0.0,0.0
349691871,0.0,0.0,0.0,-0.021060122,-0.0038982437,0.0,0.0,0.0,0.0,-0.0030741403,0.0032767528,0.03327024,nan,nan,nan,nan,nan,nan,0.0,0.35840225,0.0,0.0,nan,0.0,0.0,-0.0044220686,0.0,0.0,0.0,0.0,0.0,0.0,0.0,0.0
349894807,0.0,0.0,0.0,-0.021060122,-0.0038982437,0.0,0.0,0.0,0.0,-0.0027649906,0.003010171,0.033599198,nan,nan,nan,nan,nan,nan,0.0,0.35840225,0.0,0.0,nan,0.0,0.0,-0.004237652,0.0,0.0,0.0,0.0,0.0,0.0,0.0,0.0
350290533,0.0,0.0,0.0,-0.021060122,-0.0038982437,0.0,0.0,0.0,0.0,-0.0022240756,0.0026780996,0.034841962,nan,nan,nan,nan,nan,nan,0.0,0.35840225,0.0,0.0,nan,0.0,0.0,-0.0041712523,0.0,0.0,0.0,0.0,0.0,0.0,0.0,0.0
350493469,0.0,0.0,0.0,-0.021060122,-0.0038982437,0.0,0.0,0.0,0.0,-0.0017011687,0.002211446,0.035027646,nan,nan,nan,nan,nan,nan,0.0,0.35840225,0.0,0.0,nan,0.0,0.0,-0.0041145086,0.0,0.0,0.0,0.0,0.0,0.0,0.0,0.0
350691406,0.0,0.0,0.0,-0.021060122,-0.0038982437,0.0,0.0,0.0,0.0,-0.0012678038,0.002035535,0.03515706,nan,nan,nan,nan,nan,nan,0.0,0.35840225,0.0,0.0,nan,0.0,0.0,-0.0039407015,0.0,0.0,0.0,0.0,0.0,0.0,0.0,0.0
350884125,0.0,0.0,0.0,-0.021060122,-0.0038982437,0.0,0.0,0.0,0.0,-0.0008227788,0.0017928532,0.03574752,nan,nan,nan,nan,nan,nan,0.0,0.35840225,0.0,0.0,nan,0.0,0.0,-0.0038003922,0.0,0.0,0.0,0.0,0.0,0.0,0.0,0.0
351087283,0.0,0.0,0.0,-0.021060122,-0.0038982437,0.0,0.0,0.0,0.0,-0.0004643947,0.0016679214,0.037768822,nan,nan,nan,nan,nan,nan,0.0,0.35840225,0.0,0.0,nan,0.0,0.0,-0.003978133,0.0,0.0,0.0,0.0,0.0,0.0,0.0,0.0
351487873,0.0,0.0,0.0,-0.021060122,-0.0038982437,0.0,0.0,0.0,0.0,0.00030095968,0.0016585421,0.041773707,nan,nan,nan,nan,nan,nan,0.0,0.35840225,0.0,0.0,nan,0.0,0.0,-0.003664732,0.0,0.0,0.0,0.0,0.0,0.0,0.0,0.0
351690826,0.0,0.0,0.0,-0.021060122,-0.0038982437,0.0,0.0,0.0,0.0,0.00062264595,0.0014492334,0.043730922,nan,nan,nan,nan,nan,nan,0.0,0.35840225,0.0,0.0,nan,0.0,0.0,-0.0037218332,0.0,0.0,0.0,0.0,0.0,0.0,0.0,0.0
