timestamp,timestamp_sample,baro_device_id,baro_alt_meter,baro_temp_celcius,baro_pressure_pa,rho
317885355,317854680,3997714,40.15797,43.329998,100843.59,1.1981887
318047630,318024654,3997714,40.24781,43.329998,100842.49,1.1981757
318099529,318077948,3997714,40.26895,43.329998,100842.24,1.1981727
318169518,318138930,3997714,40.07342,43.329998,100844.6,1.1982007
318221730,318199752,3997714,40.144764,43.34,100843.75,1.1981906
318272078,318253095,3997714,40.165897,43.34,100843.49,1.1981875
318331764,318308904,3997714,40.060207,43.34,100844.74,1.1982024
318382658,318362202,3997714,40.08135,43.34,100844.49,1.1981994
318433315,318415485,3997714,40.165897,43.34,100843.49,1.1981875
318494125,318471232,3997714,39.954514,43.35,100846.0,1.1982173
318545040,318524651,3997714,40.144764,43.34,100843.75,1.1981906
318595664,318577806,3997714,40.08135,43.35,100844.5,1.1981995
318656654,318633693,3997714,40.24781,43.34,100842.5,1.1981757
318707314,318686892,3997714,39.978294,43.35,100845.74,1.1982143
318758081,318740249,3997714,40.26895,43.35,100842.25,1.1981727
318818882,318796018,3997714,40.102486,43.35,100844.24,1.1981964
318920674,318902647,3997714,40.08135,43.35,100844.49,1.1981994
319032071,319011706,3997714,40.102486,43.35,100844.25,1.1981965
319083954,319064976,3997714,40.102486,43.35,100844.24,1.1981964
319144537,319120735,3997714,40.102486,43.36,100844.24,1.1981964
319195242,319174038,3997714,40.187042,43.35,100843.24,1.1981845
319245351,319227346,3997714,40.102486,43.35,100844.24,1.1981964
319306180,319283112,3997714,39.914883,43.36,100846.5,1.1982232
319358441,319336468,3997714,40.08135,43.36,100844.49,1.1981994
319479499,319458178,3997714,39.893738,43.36,100846.75,1.1982262
319591170,319567425,3997714,40.144764,43.36,100843.74,1.1981905
319642218,319620702,3997714,40.226673,43.36,100842.75,1.1981786
319692857,319673883,3997714,40.229313,43.36,100842.74,1.1981786
319752664,319729709,3997714,40.03907,43.36,100844.99,1.1982054
319803389,319782995,3997714,39.99943,43.36,100845.49,1.1982113
319854169,319836309,3997714,40.165897,43.36,100843.49,1.1981875
319915009,319892178,3997714,39.936016,43.36,100846.25,1.1982203
319965811,319945495,3997714,39.80919,43.36,100847.75,1.1982381
320016520,319998697,3997714,40.226673,43.36,100842.75,1.1981786
320077419,320054554,3997714,39.893738,43.36,100846.75,1.1982262
320128511,320107791,3997714,40.165897,43.36,100843.5,1.1981876
320179705,320161079,3997714,39.954514,43.36,100846.0,1.1982173
320239877,320216900,3997714,40.123623,43.36,100844.0,1.1981936
320290708,320270261,3997714,40.29009,43.36,100842.0,1.1981698
320341439,320323519,3997714,40.03907,43.36,100844.99,1.1982054
320402669,320379259,3997714,39.978294,43.36,100845.74,1.1982143
320454216,320432544,3997714,40.060207,43.36,100844.74,1.1982024
320504879,320485880,3997714,40.144764,43.36,100843.75,1.1981906
320564727,320541650,3997714,39.99943,43.36,100845.49,1.1982113
320616162,320594915,3997714,40.060207,43.36,100844.74,1.1982024
320738653,320716733,3997714,40.144764,43.36,100843.75,1.1981906
320789133,320769979,3997714,40.165897,43.36,100843.49,1.1981875
321842241,321824389,3997714,40.060207,43.36,100844.74,1.1982024
321903351,321880177,3997714,40.060207,43.36,100844.74,1.1982024
322116570,322095765,3997714,40.020573,43.36,100845.24,1.1982083
322166991,322149122,3997714,40.123623,43.36,100843.99,1.1981934
322329529,322311431,3997714,39.80919,43.36,100847.75,1.1982381
322390687,322367288,3997714,39.309788,43.35,100853.75,1.1983094
322552823,322529714,3997714,39.76955,43.32,100848.24,1.198244
322603576,322583056,3997714,40.477695,43.309998,100839.75,1.198143
322715222,322692062,3997714,41.1462,43.28,100831.75,1.198048
322765755,322745407,3997714,41.481777,43.27,100827.75,1.1980004
322877451,322854421,3997714,41.9204,43.239998,100822.5,1.1979381
323039853,323016833,3997714,42.129143,43.19,100819.99,1.1979083
323141710,323123532,3997714,42.27447,43.16,100818.25,1.1978875
323253329,323232664,3997714,42.06837,43.12,100820.74,1.1979172
323415621,323394965,3997714,42.337887,43.059998,100817.49,1.1978786
323527042,323503935,3997714,42.65232,43.02,100813.74,1.197834
323628608,323610623,3997714,43.112087,43.0,100808.24,1.1977687
323740070,323719607,3997714,43.133224,42.96,100807.99,1.1977657
323852162,323828749,3997714,43.02753,42.92,100809.25,1.1977806
323953255,323935206,3997714,43.133224,42.89,100807.99,1.1977657
324064874,324044421,3997714,43.112087,42.84,100808.25,1.1977688
324227589,324206686,3997714,43.592987,42.77,100802.5,1.1977005
324389652,324369249,3997714,43.090946,42.719997,100808.5,1.1977718
324552168,324531531,3997714,43.278553,42.649998,100806.25,1.197745
324602931,324584944,3997714,43.278553,42.64,100806.25,1.197745
324664001,324640641,3997714,43.29969,42.61,100806.0,1.197742
324765161,324747178,3997714,43.487293,42.579998,100803.75,1.1977153
324826153,324803070,3997714,43.236275,42.55,100806.75,1.1977509
324876744,324856288,3997714,43.487293,42.54,100803.75,1.1977153
324927582,324909570,3997714,43.133224,42.52,100807.99,1.1977657
324988488,324965392,3997714,43.29969,42.489998,100806.0,1.197742
325039111,325018654,3997714,43.80173,42.489998,100800.0,1.1976707
325089868,325071925,3997714,43.55071,42.469997,100803.0,1.1977063
325201502,325181029,3997714,43.61413,42.44,100802.25,1.1976975
325252693,325234317,3997714,43.52957,42.42,100803.25,1.1977093
325313174,325290204,3997714,43.466156,42.399998,100804.0,1.1977183
325363805,325343354,3997714,43.61413,42.379997,100802.25,1.1976975
325414648,325396684,3997714,43.717175,42.37,100801.0,1.1976826
325475609,325452483,3997714,43.592987,42.35,100802.5,1.1977005
325526284,325505820,3997714,43.257412,42.34,100806.5,1.197748
325577115,325559013,3997714,43.133224,42.32,100807.99,1.1977657
325637934,325614860,3997714,43.508434,42.3,100803.5,1.1977123
325688870,325668209,3997714,43.405384,42.29,100804.75,1.1977272
325739554,325721461,3997714,43.02753,42.27,100809.24,1.1977806
325800639,325777420,3997714,43.381603,42.25,100805.0,1.1977302
325851390,325830637,3997714,43.34197,42.239998,100805.5,1.1977361
325902071,325883985,3997714,43.677544,42.23,100801.49,1.1976885
325962705,325939739,3997714,43.445015,42.2,100804.25,1.1977212
326064451,326046201,3997714,43.635265,42.19,100802.0,1.1976945
326125317,326102166,3997714,43.677544,42.16,100801.49,1.1976885
326226536,326208616,3997714,43.57185,42.129997,100802.75,1.1977035
326287563,326264396,3997714,43.381603,42.11,100805.0,1.1977302
326338139,326317677,3997714,43.090946,42.09,100808.5,1.1977718
326389230,326370929,3997714,43.402744,42.079998,100804.76,1.1977273
326450136,326426794,3997714,43.048668,42.059998,100809.0,1.1977776
326500595,326480145,3997714,43.048668,42.05,100809.0,1.1977776
326551317,326533339,3997714,43.15436,42.03,100807.75,1.1977628
326612328,326589181,3997714,42.942974,42.01,100810.25,1.1977925
326663035,326642441,3997714,43.320827,41.989998,100805.75,1.1977391
326713688,326695708,3997714,43.29969,41.989998,100806.0,1.197742
326774657,326751516,3997714,43.487293,41.96,100803.75,1.1977153
326825528,326804959,3997714,43.55071,41.95,100803.0,1.1977063
326876020,326858080,3997714,43.466156,41.94,100804.0,1.1977183
326936926,326913964,3997714,43.133224,41.92,100807.99,1.1977657
326987799,326967121,3997714,42.92448,41.91,100810.5,1.1977955
327038578,327020465,3997714,42.75537,41.899998,100812.5,1.1978192
327099310,327076429,3997714,43.048668,41.879997,100809.0,1.1977776
327150101,327129520,3997714,43.048668,41.86,100809.0,1.1977776
327200940,327182819,3997714,43.133224,41.85,100807.99,1.1977657
327261927,327238609,3997714,42.964115,41.82,100810.0,1.1977895
327312507,327292131,3997714,43.048668,41.809998,100809.0,1.1977776
327363152,327345187,3997714,42.942974,41.8,100810.25,1.1977925
327424061,327401038,3997714,43.236275,41.78,100806.75,1.1977509
327525563,327507617,3997714,43.19664,41.75,100807.25,1.1977569
327586502,327563480,3997714,43.15436,41.73,100807.75,1.1977628
327637229,327616740,3997714,43.006393,41.719997,100809.5,1.1977836
327687929,327669949,3997714,43.133224,41.71,100808.0,1.1977658
327748881,327725862,3997714,42.964115,41.68,100810.0,1.1977895
327799653,327779078,3997714,43.15436,41.67,100807.75,1.1977628
327850606,327832343,3997714,43.236275,41.66,100806.75,1.1977509
327962083,327941418,3997714,43.048668,41.629997,100809.0,1.1977776
328073534,328050440,3997714,43.381603,41.6,100805.0,1.1977302
328124391,328103845,3997714,43.508434,41.59,100803.5,1.1977123
328175120,328157107,3997714,43.82287,41.579998,100799.74,1.1976677
328235946,328212936,3997714,44.031612,41.57,100797.25,1.197638
328286853,328266119,3997714,43.674896,41.559998,100801.5,1.1976886
328337429,328319479,3997714,43.738316,41.55,100800.74,1.1976795
328398231,328375321,3997714,43.508434,41.52,100803.5,1.1977123
328449196,328428552,3997714,43.445015,41.51,100804.25,1.1977212
328499794,328481934,3997714,43.423878,41.5,100804.51,1.1977243
328560594,328537588,3997714,43.55071,41.46,100803.0,1.1977063
328611647,328591030,3997714,43.82287,41.45,100799.75,1.1976677
328662230,328644196,3997714,43.80173,41.43,100800.0,1.1976707
328723010,328700014,3997714,43.738316,41.399998,100800.75,1.1976796
328774162,328753373,3997714,43.52957,41.379997,100803.25,1.1977093
328824878,328806688,3997714,43.487293,41.36,100803.75,1.1977153
328885518,328862384,3997714,43.381603,41.329998,100805.0,1.1977302
328936404,328915736,3997714,43.42652,41.309998,100804.5,1.1977242
328986936,328968957,3997714,43.487293,41.3,100803.75,1.1977153
329047788,329024872,3997714,43.34197,41.26,100805.5,1.1977361
329098563,329077998,3997714,43.15436,41.25,100807.74,1.1977627
329149544,329131318,3997714,43.175503,41.239998,100807.49,1.1977597
329210118,329187189,3997714,43.278553,41.21,100806.24,1.197745
329261318,329240452,3997714,43.006393,41.19,100809.5,1.1977836
329311703,329293795,3997714,42.964115,41.18,100810.0,1.1977895
329372539,329349528,3997714,43.133224,41.149998,100808.0,1.1977658
329423296,329402788,3997714,43.06981,41.14,100808.75,1.1977748
329474071,329456005,3997714,42.985252,41.129997,100809.75,1.1977866
329534878,329511837,3997714,43.06981,41.11,100808.75,1.1977748
329586090,329565172,3997714,43.34197,41.1,100805.5,1.1977361
329636528,329618519,3997714,43.278553,41.079998,100806.25,1.197745
329697206,329674198,3997714,43.29969,41.059998,100806.0,1.197742
329748046,329727577,3997714,43.06981,41.05,100808.75,1.1977748
329798744,329780859,3997714,43.405384,41.04,100804.75,1.1977272
329859693,329836595,3997714,43.048668,41.02,100809.0,1.1977776
329910446,329889910,3997714,43.57185,41.0,100802.75,1.1977035
329961164,329943102,3997714,43.42652,41.0,100804.5,1.1977242
330021992,329999085,3997714,43.29969,40.969997,100806.0,1.197742
330072814,330052286,3997714,43.487293,40.96,100803.75,1.1977153
330123487,330105592,3997714,43.92592,40.95,100798.49,1.1976528
330184334,330161424,3997714,44.031612,40.93,100797.25,1.197638
330235184,330214602,3997714,43.78059,40.92,100800.25,1.1976737
330286146,330267912,3997714,43.904785,40.91,100798.75,1.1976559
330346850,330323884,3997714,43.80173,40.879997,100800.0,1.1976707
330397562,330376985,3997714,43.82287,40.87,100799.75,1.1976677
330448262,330430244,3997714,43.84401,40.86,100799.5,1.1976649
330509041,330486108,3997714,44.010475,40.829998,100797.5,1.197641
330671509,330648503,3997714,43.445015,40.78,100804.25,1.1977212
330773030,330755110,3997714,43.674896,40.75,100801.5,1.1976886
330884893,330864149,3997714,43.947056,40.71,100798.25,1.19765
330935450,330917428,3997714,43.592987,40.7,100802.5,1.1977005
330996601,330973289,3997714,43.883644,40.67,100799.0,1.1976589
331047108,331026542,3997714,43.635265,40.649998,100802.0,1.1976945
331097644,331079789,3997714,43.635265,40.64,100802.0,1.1976945
331158970,331135635,3997714,43.52957,40.6,100803.25,1.1977093
331209427,331188867,3997714,43.674896,40.59,100801.5,1.1976886
331260104,331242115,3997714,43.57185,40.579998,100802.75,1.1977035
331321108,331297995,3997714,43.92592,40.55,100798.5,1.1976529
331371715,331351221,3997714,43.466156,40.53,100804.0,1.1977183
331422585,331404523,3997714,43.508434,40.51,100803.5,1.1977123
331483590,331460387,3997714,43.29969,40.48,100805.99,1.197742
331534101,331513580,3997714,43.677544,40.469997,100801.49,1.1976885
331584742,331566937,3997714,43.635265,40.45,100802.0,1.1976945
331645750,331622764,3997714,43.80173,40.42,100800.0,1.1976707
331696547,331675998,3997714,43.82287,40.41,100799.75,1.1976677
331747102,331729197,3997714,43.445015,40.399998,100804.25,1.1977212
331859061,331838391,3997714,43.635265,40.36,100801.99,1.1976944
331909577,331891690,3997714,43.656403,40.34,100801.74,1.1976914
331970640,331947452,3997714,43.738316,40.32,100800.75,1.1976796
332021318,332000733,3997714,44.031612,40.3,100797.25,1.197638
332071950,332054081,3997714,43.883644,40.29,100799.0,1.1976589
332132815,332109766,3997714,43.78059,40.26,100800.25,1.1976737
332183811,332163092,3997714,43.92592,40.25,100798.5,1.1976529
332234291,332216428,3997714,43.759453,40.239998,100800.49,1.1976765
332295365,332272199,3997714,43.677544,40.21,100801.49,1.1976885
332345982,332325526,3997714,43.78059,40.2,100800.25,1.1976737
332396592,332378774,3997714,43.759453,40.19,100800.5,1.1976767
332457626,332434643,3997714,43.865147,40.16,100799.25,1.1976619
332508328,332487820,3997714,43.82287,40.14,100799.75,1.1976677
332559018,332541183,3997714,43.635265,40.129997,100802.0,1.1976945
332620046,332596890,3997714,43.696037,40.11,100801.25,1.1976856
332721378,332703538,3997714,43.738316,40.079998,100800.74,1.1976795
332782574,332759262,3997714,43.696037,40.05,100801.25,1.1976856
332833097,332812525,3997714,43.78059,40.03,100800.25,1.1976737
332884050,332865809,3997714,43.717175,40.02,100801.0,1.1976826
332944648,332921594,3997714,43.592987,39.98,100802.5,1.1977005
332995455,332974880,3997714,44.031612,39.98,100797.25,1.197638
333046355,333028351,3997714,43.904785,39.96,100798.75,1.1976559
333106788,333083922,3997714,43.696037,39.94,100801.25,1.1976856
333157819,333137232,3997714,43.487293,39.93,100803.75,1.1977153
333208619,333190448,3997714,43.696037,39.92,100801.25,1.1976856
333269578,333246388,3997714,43.947056,39.899998,100798.25,1.19765
333320192,333299662,3997714,43.904785,39.89,100798.75,1.1976559
333370981,333353090,3997714,43.592987,39.87,100802.5,1.1977005
333431861,333408814,3997714,43.738316,39.85,100800.75,1.1976796
333482590,333462072,3997714,43.80173,39.84,100800.0,1.1976707
333533169,333515261,3997714,43.696037,39.829998,100801.25,1.1976856
333594507,333571141,3997714,43.84401,39.8,100799.5,1.1976649
333644945,333624438,3997714,43.80173,39.79,100800.0,1.1976707
333695671,333677746,3997714,43.759453,39.78,100800.5,1.1976767
333756682,333733467,3997714,43.80173,39.76,100800.0,1.1976707
333807188,333786718,3997714,43.904785,39.739998,100798.75,1.1976559
333858095,333840090,3997714,43.968197,39.739998,100798.0,1.197647
333919111,333895830,3997714,43.904785,39.71,100798.75,1.1976559
333969661,333949141,3997714,43.738316,39.7,100800.75,1.1976796
334020322,334002436,3997714,43.653763,39.69,100801.75,1.1976916
334081552,334058293,3997714,43.904785,39.67,100798.75,1.1976559
334131953,334111558,3997714,43.80173,39.66,100800.0,1.1976707
334182911,334164761,3997714,43.92592,39.649998,100798.5,1.1976529
334243609,334220502,3997714,43.82287,39.629997,100799.75,1.1976677
334345060,334327148,3997714,43.968197,39.61,100798.0,1.197647
334405975,334382851,3997714,43.82287,39.59,100799.75,1.1976677
334456691,334436103,3997714,43.968197,39.579998,100798.0,1.197647
334507603,334489616,3997714,43.738316,39.57,100800.75,1.1976796
334568323,334545324,3997714,43.968197,39.55,100798.0,1.197647
334618981,334598470,3997714,43.92592,39.54,100798.5,1.1976529
334672125,334652038,3997714,43.82287,39.52,100799.75,1.1976677
334730719,334707722,3997714,43.883644,39.51,100799.0,1.1976589
334781608,334760995,3997714,43.968197,39.489998,100798.0,1.197647
334832184,334814250,3997714,43.674896,39.48,100801.5,1.1976886
334893063,334869982,3997714,43.947056,39.46,100798.25,1.19765
334994597,334976592,3997714,44.176937,39.44,100795.49,1.1976172
335055496,335032447,3997714,43.989334,39.42,100797.75,1.197644
335106165,335085655,3997714,44.176937,39.41,100795.49,1.1976172
335156927,335138953,3997714,44.158443,39.41,100795.74,1.1976202
335542450,335519434,3997714,43.82287,39.3,100799.75,1.1976677
336028169,336005201,3997714,44.303772,39.17,100793.99,1.1975994
336129644,336111790,3997714,44.031612,39.149998,100797.25,1.197638
336190680,336167663,3997714,43.92592,39.129997,100798.5,1.1976529
336241282,336220925,3997714,43.653763,39.12,100801.75,1.1976916
336292182,336274220,3997714,43.904785,39.11,100798.75,1.1976559
336352884,336330027,3997714,43.84401,39.09,100799.5,1.1976649
336403641,336383285,3997714,43.865147,39.079998,100799.25,1.1976619
336454357,336436519,3997714,44.010475,39.07,100797.5,1.197641
336515204,336492359,3997714,44.158443,39.05,100795.74,1.1976202
336565998,336545619,3997714,44.031612,39.03,100797.25,1.197638
336616677,336598838,3997714,44.240356,39.02,100794.74,1.1976082
336677799,336654762,3997714,44.219215,39.01,100794.99,1.1976112
336728409,336708027,3997714,43.904785,38.989998,100798.75,1.1976559
336779114,336761306,3997714,43.674896,38.98,100801.5,1.1976886
336839932,336817057,3997714,43.80173,38.96,100800.0,1.1976707
336890793,336870477,3997714,44.219215,38.95,100794.99,1.1976112
336941453,336923662,3997714,44.261494,38.95,100794.5,1.1976054
337002341,336979418,3997714,44.303772,38.92,100793.99,1.1975994
337053015,337032600,3997714,44.34605,38.92,100793.49,1.1975935
337103955,337086023,3997714,44.158443,38.91,100795.74,1.1976202
337164688,337141947,3997714,44.28263,38.89,100794.24,1.1976024
337215539,337195086,3997714,44.32491,38.879997,100793.74,1.1975964
337266128,337248337,3997714,44.388325,38.87,100792.99,1.1975875
337327158,337304054,3997714,44.05275,38.85,100797.0,1.197635
337377754,337357427,3997714,44.158443,38.84,100795.74,1.1976202
337428533,337410669,3997714,44.240356,38.829998,100794.74,1.1976082
337489576,337466502,3997714,44.113525,38.809998,100796.25,1.1976262
337540206,337519642,3997714,44.219215,38.8,100794.99,1.1976112
337591094,337573143,3997714,44.010475,38.8,100797.5,1.197641
337651960,337628887,3997714,44.113525,38.77,100796.25,1.1976262
337814331,337791289,3997714,43.968197,38.739998,100798.0,1.197647
337864859,337844564,3997714,44.07389,38.719997,100796.75,1.1976321
337915568,337897730,3997714,44.388325,38.71,100792.99,1.1975875
337976595,337953583,3997714,44.240356,38.69,100794.74,1.1976082
338027374,338006837,3997714,44.34605,38.68,100793.5,1.1975936
338077901,338060121,3997714,44.134666,38.67,100796.0,1.1976233
338139033,338116018,3997714,44.095028,38.649998,100796.5,1.1976292
338189606,338169294,3997714,44.134666,38.64,100796.0,1.1976233
338240516,338222529,3997714,44.07389,38.629997,100796.75,1.1976321
338301406,338278524,3997714,44.240356,38.62,100794.74,1.1976082
338352121,338331598,3997714,44.134666,38.61,100796.0,1.1976233
338402834,338384919,3997714,44.32491,38.59,100793.75,1.1975964
338463758,338440718,3997714,44.19808,38.579998,100795.24,1.1976142
338514292,338493894,3997714,44.38568,38.57,100793.0,1.1975876
338564978,338547182,3997714,44.219215,38.559998,100794.99,1.1976112
338626067,338602908,3997714,44.05275,38.54,100797.0,1.197635
338676698,338656349,3997714,44.34605,38.53,100793.5,1.1975936
338727363,338709529,3997714,44.113525,38.52,100796.25,1.1976262
338788506,338765348,3997714,44.07389,38.51,100796.75,1.1976321
338889774,338871845,3997714,44.219215,38.489998,100794.99,1.1976112
338950823,338927882,3997714,44.113525,38.469997,100796.25,1.1976262
339001482,338981118,3997714,44.240356,38.46,100794.75,1.1976084
339052132,339034259,3997714,44.240356,38.45,100794.74,1.1976082
339112926,339090038,3997714,44.32491,38.43,100793.74,1.1975964
339163741,339143264,3997714,44.134666,38.41,100796.0,1.1976233
339275318,339252439,3997714,44.158443,38.39,100795.74,1.1976202
339326164,339305794,3997714,44.38568,38.379997,100793.0,1.1975876
339376883,339358963,3997714,44.07389,38.37,100796.75,1.1976321
339437906,339414896,3997714,44.42796,38.35,100792.5,1.1975816
339488561,339468197,3997714,44.28263,38.34,100794.24,1.1976024
339539365,339521406,3997714,44.158443,38.329998,100795.74,1.1976202
339600046,339577169,3997714,44.261494,38.309998,100794.49,1.1976053
339650932,339630502,3997714,44.34605,38.3,100793.49,1.1975935
339701547,339683717,3997714,44.095028,38.29,100796.5,1.1976292
339762442,339739600,3997714,44.158443,38.27,100795.74,1.1976202
339864035,339846078,3997714,44.05275,38.26,100797.0,1.197635
339924696,339901904,3997714,44.240356,38.23,100794.74,1.1976082
339975735,339955184,3997714,44.261494,38.23,100794.49,1.1976053
340026315,340008416,3997714,44.491375,38.219997,100791.74,1.1975726
340087053,340064268,3997714,44.38568,38.2,100793.0,1.1975876
340138037,340117526,3997714,44.28263,38.19,100794.24,1.1976024
340188655,340170859,3997714,44.34605,38.18,100793.49,1.1975935
340249686,340226658,3997714,44.134666,38.16,100796.0,1.1976233
340300498,340279975,3997714,44.176937,38.16,100795.49,1.1976172
340351382,340333269,3997714,44.406826,38.14,100792.75,1.1975846
340412023,340389152,3997714,44.158443,38.12,100795.74,1.1976202
340462749,340442290,3997714,44.19808,38.12,100795.24,1.1976142
340513311,340495479,3997714,44.031612,38.11,100797.25,1.197638
340574146,340551173,3997714,44.42796,38.09,100792.5,1.1975816
340624953,340604601,3997714,44.261494,38.079998,100794.49,1.1976053
340675647,340657817,3997714,44.19808,38.07,100795.24,1.1976142
340736597,340713589,3997714,44.470238,38.059998,100792.0,1.1975757
340787237,340766916,3997714,44.367188,38.04,100793.25,1.1975906
340838251,340820335,3997714,44.449097,38.04,100792.25,1.1975787
340898845,340876080,3997714,44.491375,38.02,100791.75,1.1975727
340949726,340929266,3997714,44.031612,38.01,100797.25,1.197638
341000555,340982617,3997714,44.449097,38.0,100792.25,1.1975787
341061374,341038423,3997714,44.678978,37.989998,100789.5,1.197546
341112002,341091687,3997714,44.491375,37.98,100791.75,1.1975727
341162738,341144900,3997714,44.406826,37.969997,100792.74,1.1975845
341223566,341200653,3997714,44.491375,37.95,100791.75,1.1975727
341274483,341254046,3997714,44.34605,37.95,100793.49,1.1975935
341325173,341307258,3997714,44.261494,37.94,100794.49,1.1976053
341386035,341363028,3997714,44.261494,37.92,100794.49,1.1976053
341436833,341416312,3997714,44.219215,37.91,100794.99,1.1976112
341487460,341469610,3997714,44.32491,37.899998,100793.74,1.1975964
341548506,341525518,3997714,44.367188,37.89,100793.25,1.1975906
341599008,341578676,3997714,44.19808,37.879997,100795.24,1.1976142
341649946,341631934,3997714,44.34605,37.87,100793.5,1.1975936
341710924,341687960,3997714,44.219215,37.85,100794.99,1.1976112
341761510,341741172,3997714,44.113525,37.84,100796.25,1.1976262
341812098,341794380,3997714,44.470238,37.829998,100792.0,1.1975757
341872985,341850082,3997714,44.367188,37.809998,100793.25,1.1975906
341923801,341903401,3997714,44.406826,37.8,100792.75,1.1975846
342035480,342012511,3997714,44.512516,37.78,100791.5,1.1975697
342086259,342065771,3997714,44.388325,37.76,100792.99,1.1975875
342136796,342119034,3997714,44.28263,37.75,100794.24,1.1976024
342197708,342174779,3997714,44.219215,37.739998,100794.99,1.1976112
342248645,342228163,3997714,44.65784,37.73,100789.75,1.197549
342299207,342281401,3997714,44.19808,37.719997,100795.24,1.1976142
342360320,342337188,3997714,44.388325,37.7,100792.99,1.1975875
342411034,342390531,3997714,44.261494,37.69,100794.49,1.1976053
342461692,342443861,3997714,44.219215,37.68,100794.99,1.1976112
342522636,342499579,3997714,44.38568,37.67,100793.0,1.1975876
342573177,342552798,3997714,44.219215,37.649998,100794.99,1.1976112
342623847,342606036,3997714,44.05275,37.649998,100797.0,1.197635
342684772,342661857,3997714,44.388325,37.629997,100792.99,1.1975875
342735573,342715179,3997714,44.449097,37.62,100792.25,1.1975787
342786438,342768446,3997714,44.406826,37.61,100792.75,1.1975846
342897930,342877566,3997714,44.38568,37.59,100793.0,1.1975876
343009585,342986647,3997714,44.38568,37.559998,100793.01,1.1975877
343060336,343039896,3997714,44.42796,37.55,100792.5,1.1975816
343111029,343093269,3997714,44.32491,37.54,100793.74,1.1975964
343171926,343149022,3997714,44.32491,37.53,100793.74,1.1975964
343222702,343202305,3997714,44.491375,37.52,100791.75,1.1975727
343273254,343255409,3997714,44.261494,37.51,100794.49,1.1976053
343334313,343311282,3997714,44.470238,37.489998,100792.0,1.1975757
343384902,343364601,3997714,44.615566,37.48,100790.25,1.197555
343435621,343417744,3997714,44.55215,37.469997,100791.0,1.1975638
343496571,343473562,3997714,44.134666,37.46,100796.0,1.1976233
343547543,343526966,3997714,44.28263,37.44,100794.24,1.1976024
343598017,343580258,3997714,44.158443,37.44,100795.74,1.1976202
343659033,343636075,3997714,44.32491,37.42,100793.75,1.1975964
343709772,343689316,3997714,44.32491,37.42,100793.74,1.1975964
343760644,343742618,3997714,44.367188,37.41,100793.25,1.1975906
343821419,343798451,3997714,44.134666,37.39,100796.0,1.1976233
343872026,343851667,3997714,44.261494,37.38,100794.49,1.1976053
343983688,343960755,3997714,44.34605,37.35,100793.49,1.1975935
344034485,344013991,3997714,44.34605,37.35,100793.5,1.1975936
344085104,344067276,3997714,44.32491,37.34,100793.75,1.1975964
344146024,344123052,3997714,44.113525,37.32,100796.25,1.1976262
344196709,344176310,3997714,44.240356,37.309998,100794.75,1.1976084
344247459,344229676,3997714,44.261494,37.309998,100794.49,1.1976053
344308422,344285383,3997714,44.261494,37.29,100794.5,1.1976054
344359104,344338765,3997714,44.303772,37.28,100793.99,1.1975994
344409883,344391989,3997714,44.367188,37.27,100793.24,1.1975905
344470876,344447829,3997714,44.05275,37.25,100797.0,1.197635
344521617,344501168,3997714,44.28263,37.239998,100794.24,1.1976024
344572371,344554429,3997714,44.219215,37.23,100794.99,1.1976112
344633128,344610096,3997714,44.095028,37.219997,100796.5,1.1976292
344683786,344663397,3997714,44.34605,37.21,100793.49,1.1975935
344734534,344716564,3997714,44.240356,37.21,100794.74,1.1976082
344846214,344825704,3997714,44.05275,37.18,100797.0,1.197635
344896846,344879030,3997714,44.32491,37.17,100793.75,1.1975964
345008435,344988108,3997714,44.367188,37.14,100793.25,1.1975906
345059369,345041462,3997714,44.28263,37.14,100794.24,1.1976024
345120287,345097248,3997714,44.367188,37.12,100793.25,1.1975906
345171013,345150551,3997714,44.491375,37.11,100791.74,1.1975726
345221577,345203786,3997714,44.261494,37.1,100794.5,1.1976054
345282707,345259562,3997714,44.42796,37.09,100792.5,1.1975816
345333169,345312842,3997714,43.989334,37.079998,100797.75,1.197644
345444789,345421824,3997714,44.491375,37.05,100791.75,1.1975727
345495488,345475104,3997714,44.636707,37.04,100790.0,1.197552
345546363,345528447,3997714,44.28263,37.04,100794.24,1.1976024
345607106,345584206,3997714,44.240356,37.03,100794.74,1.1976082
345657850,345637433,3997714,44.32491,37.02,100793.74,1.1975964
345708660,345690803,3997714,44.095028,37.01,100796.5,1.1976292
345769621,345746609,3997714,43.80173,36.989998,100800.0,1.1976707
345820255,345799927,3997714,43.78059,36.989998,100800.25,1.1976737
345871114,345853253,3997714,43.61413,36.98,100802.25,1.1976975
346195725,346177840,3997714,43.989334,36.93,100797.75,1.197644
346256486,346233590,3997714,43.738316,36.92,100800.75,1.1976796
346307175,346286757,3997714,44.010475,36.91,100797.5,1.197641
346358252,346340346,3997714,43.947056,36.91,100798.25,1.19765
346419025,346396049,3997714,44.031612,36.899998,100797.25,1.197638
346469716,346449351,3997714,43.989334,36.89,100797.75,1.197644
346520389,346502514,3997714,44.07389,36.89,100796.75,1.1976321
346581357,346558368,3997714,43.968197,36.87,100798.0,1.197647
346632012,346611745,3997714,44.031612,36.87,100797.25,1.197638
346682744,346664839,3997714,43.635265,36.86,100801.99,1.1976944
346743518,346720633,3997714,44.134666,36.85,100796.0,1.1976233
346794284,346773937,3997714,43.82287,36.85,100799.75,1.1976677
346845117,346827157,3997714,43.738316,36.84,100800.75,1.1976796
346905877,346882991,3997714,43.466156,36.829998,100804.0,1.1977183
346956591,346936199,3997714,43.592987,36.829998,100802.5,1.1977005
347068227,347045357,3997714,43.112087,36.82,100808.25,1.1977688
347118959,347098626,3997714,43.278553,36.82,100806.24,1.197745
347169920,347151987,3997714,43.257412,36.809998,100806.5,1.197748
347332388,347314425,3997714,42.964115,36.8,100810.0,1.1977895
347393104,347370121,3997714,42.44358,36.8,100816.25,1.1978638
347443723,347423326,3997714,42.298252,36.79,100817.99,1.1978846
347494587,347476619,3997714,42.316746,36.79,100817.74,1.1978816
347555317,347532375,3997714,42.06837,36.78,100820.74,1.1979172
347606029,347585638,3997714,40.707577,36.77,100836.99,1.1981102
347656929,347639016,3997714,40.226673,36.77,100842.75,1.1981786
347717785,347694774,3997714,40.916317,36.76,100834.5,1.1980807
347768401,347748016,3997714,40.498833,36.75,100839.5,1.19814
347819257,347801241,3997714,40.74985,36.739998,100836.5,1.1981044
347880163,347857120,3997714,40.79213,36.73,100836.0,1.1980985
347930809,347910476,3997714,40.498833,36.719997,100839.49,1.19814
347981876,347963653,3997714,40.435417,36.719997,100840.25,1.198149
348144032,348126084,3997714,40.414276,36.69,100840.5,1.198152
348204692,348181804,3997714,40.187042,36.67,100843.25,1.1981846
348742461,348722149,3997714,40.060207,36.52,100844.74,1.1982024
348793389,348775425,3997714,40.477695,36.51,100839.75,1.198143
348854077,348831168,3997714,40.498833,36.48,100839.5,1.19814
348904918,348884566,3997714,40.604527,36.469997,100838.25,1.1981252
348955536,348937743,3997714,40.66794,36.46,100837.49,1.1981162
349016431,348993436,3997714,40.89518,36.45,100834.75,1.1980836
349067130,349046819,3997714,40.89518,36.44,100834.75,1.1980836
349178961,349155957,3997714,40.937458,36.43,100834.25,1.1980777
349229585,349209112,3997714,40.81327,36.44,100835.74,1.1980954
349280488,349262527,3997714,41.000874,36.43,100833.5,1.1980687
349341357,349318403,3997714,41.04315,36.44,100832.99,1.1980628
349392082,349371620,3997714,41.08543,36.44,100832.49,1.1980568
349604936,349587117,3997714,41.273033,36.45,100830.25,1.1980301
349665838,349642779,3997714,41.08543,36.46,100832.5,1.1980569
349716712,349696230,3997714,41.000874,36.46,100833.5,1.1980687
349767275,349749496,3997714,41.209618,36.469997,100831.0,1.198039
349828248,349805292,3997714,40.874043,36.469997,100835.0,1.1980866
349878924,349858605,3997714,41.000874,36.48,100833.5,1.1980687
349929808,349911900,3997714,41.02201,36.48,100833.24,1.1980658
349990696,349967728,3997714,40.979736,36.489998,100833.75,1.1980717
350041456,350021035,3997714,41.000874,36.489998,100833.5,1.1980687
350203694,350183329,3997714,41.02201,36.5,100833.25,1.1980658
350254541,350236594,3997714,40.916317,36.51,100834.5,1.1980807
350315390,350292407,3997714,40.81327,36.52,100835.74,1.1980954
350365941,350345563,3997714,41.08543,36.52,100832.5,1.1980569
350477580,350454729,3997714,40.79213,36.53,100836.0,1.1980985
350528530,350508098,3997714,40.916317,36.53,100834.5,1.1980807
350579041,350561300,3997714,40.874043,36.53,100835.0,1.1980866
350640135,350617125,3997714,40.937458,36.54,100834.25,1.1980777
350690897,350670488,3997714,40.85554,36.54,100835.24,1.1980895
350802371,350779508,3997714,40.958595,36.55,100834.0,1.1980747
350853106,350832631,3997714,41.1462,36.55,100831.75,1.198048
350903774,350885941,3997714,40.979736,36.55,100833.75,1.1980717
350964679,350941820,3997714,40.770992,36.559998,100836.24,1.1981014
351017503,350995149,3997714,40.8529,36.559998,100835.25,1.1980896
351071871,351048924,3997714,40.847622,36.559998,100835.33,1.1980906
351122530,351101583,3997714,40.763065,36.55,100836.33,1.1981024
351246161,351219842,3997714,40.958595,36.559998,100834.0,1.1980747
351413843,351390848,3997714,41.08543,36.57,100832.49,1.1980568
351464383,351444015,3997714,40.89518,36.579998,100834.75,1.1980836
351515222,351497374,3997714,40.979736,36.579998,100833.75,1.1980717
351576083,351553128,3997714,41.000874,36.579998,100833.5,1.1980687
351626788,351606377,3997714,40.874043,36.59,100835.0,1.1980866
351677447,351659612,3997714,41.04315,36.59,100832.99,1.1980628
