timestamp,roll,pitch,yaw,thrust_body[0],thrust_body[1],thrust_body[2]
317889298,0.010345894,-0.06716477,0.0004683642,0.0,0.0,-0.0
317894462,0.010160551,-0.06725308,-0.0004959045,0.0,0.0,-0.0
318011042,0.010274533,-0.06716982,2.2597042e-05,0.0,0.0,-0.0
318016205,0.010162419,-0.06758964,1.7503413e-05,0.0,0.0,-0.0
318021317,0.010298179,-0.06743188,-0.00013110618,0.0,0.0,-0.0
318026411,0.010322852,-0.06693489,-5.5296165e-05,0.0,0.0,-0.0
318031443,0.010141322,-0.06708758,3.5194746e-05,0.0,0.0,-0.0
318036432,0.010067884,-0.06770455,4.0709015e-06,0.0,0.0,-0.0
318041596,0.0102478685,-0.06753025,-0.000121895835,0.0,0.0,-0.0
318046566,0.010329852,-0.06696022,-2.3230004e-05,0.0,0.0,-0.0
318051692,0.010327823,-0.067155026,5.3959157e-05,0.0,0.0,-0.0
318057061,0.0102483295,-0.06774365,-3.1686544e-05,0.0,0.0,-0.0
318061899,0.010330773,-0.06756435,-0.00010561379,0.0,0.0,-0.0
318066946,0.010283669,-0.06712223,-5.289294e-06,0.0,0.0,-0.0
318071904,0.010228882,-0.0672326,9.135925e-06,0.0,0.0,-0.0
318076911,0.010269213,-0.06758925,-2.4805875e-05,0.0,0.0,-0.0
318082003,0.010252153,-0.067479394,-0.00013524543,0.0,0.0,-0.0
318087522,0.010143277,-0.06716963,-1.6412112e-05,0.0,0.0,-0.0
318092441,0.01007217,-0.06719436,0.00012135474,0.0,0.0,-0.0
318097397,0.010124969,-0.06748263,-4.6631438e-05,0.0,0.0,-0.0
318102590,0.010116104,-0.06753942,-0.0002271647,0.0,0.0,-0.0
318107522,0.0100064315,-0.06737396,2.48413e-05,0.0,0.0,-0.0
318112697,0.009989943,-0.06721653,0.0001262735,0.0,0.0,-0.0
318117743,0.010102174,-0.06734957,-6.030404e-05,0.0,0.0,-0.0
318122844,0.010118735,-0.06749083,-0.00020196552,0.0,0.0,-0.0
318128154,0.009934912,-0.06738573,2.7678725e-05,0.0,0.0,-0.0
318132937,0.009958687,-0.06721192,0.00019990234,0.0,0.0,-0.0
318138055,0.0101558715,-0.06732718,-9.856372e-05,0.0,0.0,-0.0
318143129,0.01011655,-0.06756958,-0.00024790084,0.0,0.0,-0.0
318148064,0.009934309,-0.0673925,6.7103945e-05,0.0,0.0,-0.0
318153080,0.009884303,-0.06713597,0.00015298727,0.0,0.0,-0.0
318158456,0.010094314,-0.06724562,-8.901754e-05,0.0,0.0,-0.0
318163174,0.0101758465,-0.06755698,-0.00020704487,0.0,0.0,-0.0
318168389,0.009888059,-0.06731085,1.9732217e-05,0.0,0.0,-0.0
318173572,0.00976723,-0.06702086,0.0001923421,0.0,0.0,-0.0
318178458,0.0100377025,-0.06726836,-0.00010502461,0.0,0.0,-0.0
318183627,0.010098564,-0.0675303,-0.00025065866,0.0,0.0,-0.0
318188962,0.009887537,-0.06712788,4.008542e-05,0.0,0.0,-0.0
318193781,0.009810886,-0.06694027,0.0001683621,0.0,0.0,-0.0
318198810,0.010045653,-0.06732044,-0.000102183214,0.0,0.0,-0.0
318204050,0.010121946,-0.067330256,-0.00022108821,0.0,0.0,-0.0
318208958,0.009905952,-0.066967025,2.4339706e-05,0.0,0.0,-0.0
318214034,0.009798915,-0.067005575,0.00017836245,0.0,0.0,-0.0
318219594,0.010034299,-0.06735191,-5.321538e-05,0.0,0.0,-0.0
318224329,0.010231573,-0.067169495,-0.00020435805,0.0,0.0,-0.0
318229313,0.009982222,-0.066902824,-4.2387546e-05,0.0,0.0,-0.0
318234303,0.009840501,-0.067128554,0.00013356115,0.0,0.0,-0.0
318239309,0.01010101,-0.06733991,-1.4666046e-05,0.0,0.0,-0.0
318245128,0.010206787,-0.0669191,-0.00017156676,0.0,0.0,-0.0
318249553,0.010058272,-0.06678176,-8.190523e-05,0.0,0.0,-0.0
318254623,0.009902984,-0.06718396,0.00016995597,0.0,0.0,-0.0
318260070,0.00996849,-0.067190945,-2.3153027e-05,0.0,0.0,-0.0
318264855,0.010070279,-0.066724524,-0.00024444563,0.0,0.0,-0.0
318269942,0.010006446,-0.06682423,1.7349998e-05,0.0,0.0,-0.0
318274981,0.009888503,-0.067263804,0.00016370838,0.0,0.0,-0.0
318280067,0.009898315,-0.06707663,-5.905921e-05,0.0,0.0,-0.0
318285168,0.010000549,-0.06666971,-0.00015872522,0.0,0.0,-0.0
318290469,0.009978859,-0.066911995,2.7495938e-05,0.0,0.0,-0.0
318295242,0.00989321,-0.0672219,9.163599e-05,0.0,0.0,-0.0
318300649,0.009864005,-0.066967614,-6.4192296e-05,0.0,0.0,-0.0
318305463,0.009977492,-0.06660146,-0.00013322535,0.0,0.0,-0.0
318310565,0.009952371,-0.06686287,3.274231e-05,0.0,0.0,-0.0
318315495,0.00978136,-0.0670612,-2.7192277e-06,0.0,0.0,-0.0
318320612,0.009644997,-0.066875204,-0.000115104034,0.0,0.0,-0.0
318326062,0.009829087,-0.06676455,-2.9976707e-05,0.0,0.0,-0.0
318330679,0.009895049,-0.066969015,6.847199e-05,0.0,0.0,-0.0
318335845,0.009648212,-0.067151114,-7.077184e-05,0.0,0.0,-0.0
318340885,0.009547498,-0.06702241,-0.00011764434,0.0,0.0,-0.0
318346071,0.009650535,-0.06679311,5.630333e-05,0.0,0.0,-0.0
318351098,0.009642978,-0.06682077,0.00010442437,0.0,0.0,-0.0
318356340,0.009473066,-0.06694421,-0.00011751022,0.0,0.0,-0.0
318361438,0.009480174,-0.0669831,-0.00013338636,0.0,0.0,-0.0
318366462,0.009562658,-0.066778444,0.00013750287,0.0,0.0,-0.0
318371467,0.009471378,-0.06657496,3.855828e-05,0.0,0.0,-0.0
318376427,0.009464747,-0.06678487,-0.0002377337,0.0,0.0,-0.0
318381585,0.009514063,-0.066968806,-3.1590517e-08,0.0,0.0,-0.0
318386669,0.009542817,-0.066667415,0.000168329,0.0,0.0,-0.0
318392332,0.009480097,-0.066446334,-6.961757e-06,0.0,0.0,-0.0
318396725,0.00953586,-0.06676857,-0.00013435168,0.0,0.0,-0.0
318401750,0.009600098,-0.066989854,-2.9441533e-05,0.0,0.0,-0.0
318427189,0.009369377,-0.06661991,6.653622e-05,0.0,0.0,-0.0
318432398,0.009352101,-0.06662474,3.098032e-05,0.0,0.0,-0.0
318437408,0.009675158,-0.06704717,-4.4691118e-05,0.0,0.0,-0.0
318442542,0.009598013,-0.066996105,-0.00017067144,0.0,0.0,-0.0
318447574,0.009204063,-0.06663731,4.3641016e-05,0.0,0.0,-0.0
318452747,0.009327972,-0.066709004,0.000100825,0.0,0.0,-0.0
318458104,0.009637841,-0.067059465,-7.037634e-05,0.0,0.0,-0.0
318462792,0.009525354,-0.0669161,-0.00017582753,0.0,0.0,-0.0
318468244,0.009196245,-0.066696234,1.0635133e-05,0.0,0.0,-0.0
318472956,0.009287694,-0.06685289,0.00014843098,0.0,0.0,-0.0
318477859,0.009628515,-0.06693411,-7.259875e-05,0.0,0.0,-0.0
318483198,0.009449068,-0.06677984,-0.0002760851,0.0,0.0,-0.0
318487986,0.009249501,-0.06679388,4.0498882e-05,0.0,0.0,-0.0
318493075,0.009396322,-0.06704506,0.0002832533,0.0,0.0,-0.0
318498618,0.009569718,-0.06698523,-0.00012230716,0.0,0.0,-0.0
318503231,0.009496469,-0.06686026,-0.0003020104,0.0,0.0,-0.0
318508397,0.009424472,-0.06706504,0.00014687054,0.0,0.0,-0.0
318513599,0.009486971,-0.06729205,0.0002418762,0.0,0.0,-0.0
318518515,0.009515553,-0.066988066,-0.00018640392,0.0,0.0,-0.0
318523924,0.009489322,-0.066791646,-0.0002828782,0.0,0.0,-0.0
318528671,0.00941503,-0.06706585,0.0001930371,0.0,0.0,-0.0
318533990,0.009369928,-0.06721466,0.00014982316,0.0,0.0,-0.0
318538804,0.009305514,-0.066901505,-0.00022623938,0.0,0.0,-0.0
318543875,0.009443663,-0.066752896,-0.00010524837,0.0,0.0,-0.0
318549130,0.009460068,-0.06705048,0.00021591203,0.0,0.0,-0.0
318554064,0.009272185,-0.06713214,5.813549e-06,0.0,0.0,-0.0
318559457,0.009180671,-0.06694819,-0.00026176087,0.0,0.0,-0.0
318564091,0.009472993,-0.06680127,1.976302e-05,0.0,0.0,-0.0
318569176,0.0095307715,-0.06705503,0.00012220675,0.0,0.0,-0.0
318574711,0.0093661705,-0.06717559,-0.00014042342,0.0,0.0,-0.0
318579360,0.009351962,-0.06701578,-0.00014080528,0.0,0.0,-0.0
318584478,0.00952937,-0.06685807,0.00011304601,0.0,0.0,-0.0
318590047,0.009463709,-0.06691186,3.441058e-05,0.0,0.0,-0.0
318594697,0.009222338,-0.06708985,-0.00021174355,0.0,0.0,-0.0
318599813,0.009292906,-0.06701279,-1.0059468e-05,0.0,0.0,-0.0
318605101,0.009482608,-0.06678494,0.0001970004,0.0,0.0,-0.0
318630356,0.009225276,-0.066712916,-0.00014001077,0.0,0.0,-0.0
318635311,0.009284072,-0.067024894,-0.00021198911,0.0,0.0,-0.0
318640649,0.009390223,-0.066928245,0.00013405072,0.0,0.0,-0.0
318645300,0.009270876,-0.06655215,0.00011091829,0.0,0.0,-0.0
318650461,0.009274094,-0.06674178,-0.0001600931,0.0,0.0,-0.0
318655436,0.0095359525,-0.06717387,-0.00012526105,0.0,0.0,-0.0
318660913,0.009478808,-0.067006044,0.00010785516,0.0,0.0,-0.0
318665944,0.00917002,-0.06660604,5.8933932e-05,0.0,0.0,-0.0
318670806,0.0092791915,-0.066769436,-6.733295e-05,0.0,0.0,-0.0
318675910,0.0096443435,-0.0670118,-0.00010537853,0.0,0.0,-0.0
318681118,0.00943193,-0.06680609,4.9815615e-05,0.0,0.0,-0.0
318685953,0.00906375,-0.066553235,2.7640282e-05,0.0,0.0,-0.0
318691148,0.00935528,-0.06681256,3.0898213e-05,0.0,0.0,-0.0
318696151,0.009537025,-0.066959865,-6.232054e-05,0.0,0.0,-0.0
318701307,0.009201566,-0.06673153,-0.0001207299,0.0,0.0,-0.0
318706257,0.008831827,-0.066628836,7.508403e-05,0.0,0.0,-0.0
318711478,0.009270167,-0.06682674,0.00011644392,0.0,0.0,-0.0
318716482,0.009398199,-0.06694237,-0.00012736602,0.0,0.0,-0.0
318721828,0.009062446,-0.06672314,-0.0002160411,0.0,0.0,-0.0
318726530,0.008890323,-0.06678978,0.00011793339,0.0,0.0,-0.0
318731578,0.009262559,-0.06698501,0.00015336048,0.0,0.0,-0.0
318736620,0.00939592,-0.06698543,-0.00024203467,0.0,0.0,-0.0
318742079,0.009123096,-0.06684707,-0.0002481193,0.0,0.0,-0.0
318746796,0.009125709,-0.06699858,0.00025127857,0.0,0.0,-0.0
318752015,0.009429511,-0.06711659,0.00012797114,0.0,0.0,-0.0
318757174,0.009290773,-0.06695838,-0.00036434305,0.0,0.0,-0.0
318762590,0.0091791935,-0.066927694,-0.00010955565,0.0,0.0,-0.0
318767253,0.009143436,-0.0670865,0.00031801465,0.0,0.0,-0.0
318772343,0.009202264,-0.067134365,3.598823e-05,0.0,0.0,-0.0
318777449,0.0091360165,-0.06685566,-0.00031752768,0.0,0.0,-0.0
318782529,0.009129258,-0.06680728,-6.2452775e-05,0.0,0.0,-0.0
318787531,0.0091279615,-0.06696379,0.0002595815,0.0,0.0,-0.0
318793099,0.009045703,-0.06694495,-6.709601e-05,0.0,0.0,-0.0
318797967,0.0090753045,-0.06674887,-0.00027327362,0.0,0.0,-0.0
318802799,0.009328627,-0.06675891,7.802816e-05,0.0,0.0,-0.0
318807692,0.009218523,-0.067039914,0.00019029168,0.0,0.0,-0.0
318812780,0.008997154,-0.067068204,-0.00021784908,0.0,0.0,-0.0
318817819,0.009166551,-0.066805996,-0.00011958124,0.0,0.0,-0.0
318823340,0.009401724,-0.06676964,0.00018190412,0.0,0.0,-0.0
318828055,0.009166165,-0.067001306,4.3577813e-05,0.0,0.0,-0.0
318833228,0.008919227,-0.06699515,-0.00022293886,0.0,0.0,-0.0
318843290,0.009361117,-0.06663273,0.00013817716,0.0,0.0,-0.0
318848369,0.009033122,-0.06691435,-0.00014927937,0.0,0.0,-0.0
318853664,0.008923499,-0.0670093,-0.00017704314,0.0,0.0,-0.0
318858506,0.009201781,-0.06668581,0.00017606776,0.0,0.0,-0.0
318863860,0.009291865,-0.06653638,8.844928e-05,0.0,0.0,-0.0
318909213,0.009219687,-0.06685301,-0.0001949886,0.0,0.0,-0.0
318914289,0.009382501,-0.06692005,3.4402357e-05,0.0,0.0,-0.0
318919755,0.009255888,-0.06654916,0.0001423051,0.0,0.0,-0.0
318924546,0.009016767,-0.06647644,-4.2265474e-05,0.0,0.0,-0.0
318930124,0.009200815,-0.066820115,-8.1634345e-05,0.0,0.0,-0.0
318949863,0.009398486,-0.06679126,-8.387424e-06,0.0,0.0,-0.0
318955159,0.009532358,-0.06679404,-0.0001325341,0.0,0.0,-0.0
318960496,0.009044545,-0.066548824,-4.6516165e-05,0.0,0.0,-0.0
318965235,0.009084627,-0.06652772,0.00017387935,0.0,0.0,-0.0
318970223,0.009557683,-0.06662634,-8.449962e-06,0.0,0.0,-0.0
318975113,0.009470051,-0.066664346,-0.0002902081,0.0,0.0,-0.0
319026299,0.009039804,-0.06639546,0.0002901743,0.0,0.0,-0.0
319031141,0.009103918,-0.066408664,-0.00022772934,0.0,0.0,-0.0
319036131,0.009155501,-0.066282965,-0.0002447557,0.0,0.0,-0.0
319041365,0.009179446,-0.066258304,0.00019889759,0.0,0.0,-0.0
319046435,0.0090673715,-0.06636671,0.00015607906,0.0,0.0,-0.0
319051334,0.009106847,-0.066373095,-0.00022418042,0.0,0.0,-0.0
319056918,0.00930696,-0.066168964,-0.00013551294,0.0,0.0,-0.0
319061994,0.009355354,-0.066050485,0.0002023937,0.0,0.0,-0.0
319066457,0.00916376,-0.06629742,6.552431e-05,0.0,0.0,-0.0
319071687,0.00916323,-0.066286795,-0.0002455994,0.0,0.0,-0.0
319076896,0.009395291,-0.065990925,-2.6823145e-05,0.0,0.0,-0.0
319081970,0.009362068,-0.06604552,0.00016693011,0.0,0.0,-0.0
319086867,0.009073215,-0.06638303,-0.00011481373,0.0,0.0,-0.0
319092192,0.009142715,-0.06630072,-0.00016025944,0.0,0.0,-0.0
319097067,0.009387249,-0.0659453,0.00014573391,0.0,0.0,-0.0
319102156,0.009222325,-0.06609534,4.155712e-05,0.0,0.0,-0.0
319107198,0.008982263,-0.066479936,-0.00017692517,0.0,0.0,-0.0
319112383,0.009158205,-0.06632299,-1.5906644e-05,0.0,0.0,-0.0
319127898,0.009117411,-0.0665597,-0.00016207909,0.0,0.0,-0.0
319132637,0.009258613,-0.06627783,5.418051e-05,0.0,0.0,-0.0
319137809,0.009422574,-0.065881126,0.00011731856,0.0,0.0,-0.0
319142601,0.00926124,-0.06613199,-0.00015920165,0.0,0.0,-0.0
319147662,0.009349819,-0.06646111,-4.6254154e-05,0.0,0.0,-0.0
319152836,0.009476459,-0.06616617,5.7194662e-05,0.0,0.0,-0.0
319157905,0.009285191,-0.065853946,6.987453e-05,0.0,0.0,-0.0
319163005,0.009239211,-0.06611394,-6.225376e-05,0.0,0.0,-0.0
319168034,0.00935247,-0.06638829,-8.117754e-05,0.0,0.0,-0.0
319173162,0.009306343,-0.06612768,4.350084e-06,0.0,0.0,-0.0
319178194,0.009166721,-0.065984264,6.926857e-05,0.0,0.0,-0.0
319183348,0.009221408,-0.06619277,-4.3058513e-05,0.0,0.0,-0.0
319188354,0.009402252,-0.06627026,-6.1042e-05,0.0,0.0,-0.0
319193425,0.009199446,-0.06604015,-3.9424995e-05,0.0,0.0,-0.0
319198489,0.008988485,-0.06598375,3.3605804e-05,0.0,0.0,-0.0
319203825,0.009268489,-0.06601585,9.50143e-05,0.0,0.0,-0.0
319208739,0.009505897,-0.06615784,-0.00012053644,0.0,0.0,-0.0
319213673,0.009284998,-0.066091895,-0.00015573569,0.0,0.0,-0.0
319228869,0.009536136,-0.06596536,-0.0002014189,0.0,0.0,-0.0
319234049,0.009319529,-0.06609692,-0.00013401195,0.0,0.0,-0.0
319239452,0.009287507,-0.06596731,0.00024140294,0.0,0.0,-0.0
319244239,0.009553087,-0.06589263,7.99111e-05,0.0,0.0,-0.0
319249574,0.009697356,-0.066077806,-0.00026395277,0.0,0.0,-0.0
319254491,0.009416953,-0.0661099,-0.00014903345,0.0,0.0,-0.0
319259965,0.009270529,-0.06594222,0.000219341,0.0,0.0,-0.0
319264551,0.009431849,-0.06582891,8.546357e-05,0.0,0.0,-0.0
319269588,0.009541974,-0.065947026,-0.0002890678,0.0,0.0,-0.0
319274701,0.009476535,-0.06595771,-0.00010708081,0.0,0.0,-0.0
319279912,0.009320374,-0.06574352,0.0002639869,0.0,0.0,-0.0
319284948,0.009347281,-0.06582703,5.0698272e-05,0.0,0.0,-0.0
319290511,0.009453704,-0.06595975,-0.00024864753,0.0,0.0,-0.0
319294905,0.009449905,-0.065831654,-8.148042e-05,0.0,0.0,-0.0
319299934,0.009320959,-0.06575229,0.0002455894,0.0,0.0,-0.0
319305030,0.009273492,-0.06596613,-2.2610398e-05,0.0,0.0,-0.0
319320273,0.009355372,-0.065823205,0.00013250492,0.0,0.0,-0.0
319325768,0.0092943795,-0.06610813,-2.3796701e-05,0.0,0.0,-0.0
319330530,0.009588899,-0.06595898,-0.000108170425,0.0,0.0,-0.0
319335600,0.009701182,-0.0656558,-1.7525013e-05,0.0,0.0,-0.0
319341003,0.009460485,-0.06584152,2.2689817e-05,0.0,0.0,-0.0
319345652,0.009338592,-0.066184625,3.1042646e-06,0.0,0.0,-0.0
319350795,0.009556715,-0.065833546,-7.1989736e-05,0.0,0.0,-0.0
319356121,0.009545462,-0.065501735,-2.4562454e-05,0.0,0.0,-0.0
319361433,0.009227316,-0.06588813,9.891041e-06,0.0,0.0,-0.0
319386242,0.00944741,-0.066041425,-3.610678e-05,0.0,0.0,-0.0
319391703,0.009506368,-0.065625004,4.7995136e-06,0.0,0.0,-0.0
319396708,0.009498018,-0.06562238,1.6365695e-05,0.0,0.0,-0.0
319401490,0.009440565,-0.0660472,-3.7728565e-05,0.0,0.0,-0.0
319406512,0.009429382,-0.06606311,-4.573394e-05,0.0,0.0,-0.0
319411776,0.009477555,-0.0657397,3.1697925e-06,0.0,0.0,-0.0
319417007,0.009532577,-0.06576465,-3.799598e-05,0.0,0.0,-0.0
319421861,0.009574576,-0.06608222,-8.404746e-06,0.0,0.0,-0.0
319432003,0.009478452,-0.065824986,-4.2837994e-05,0.0,0.0,-0.0
319437130,0.009501547,-0.06588438,8.927398e-05,0.0,0.0,-0.0
319442417,0.009562347,-0.06605657,-2.6080601e-05,0.0,0.0,-0.0
319447335,0.009544458,-0.066175334,-0.00017963813,0.0,0.0,-0.0
319452387,0.009434845,-0.06607318,3.4315024e-05,0.0,0.0,-0.0
319457364,0.009412134,-0.065895736,0.00016463404,0.0,0.0,-0.0
319462744,0.009490037,-0.065998115,-9.4352445e-06,0.0,0.0,-0.0
319467339,0.009515969,-0.066235155,-0.00015768273,0.0,0.0,-0.0
319472449,0.009316203,-0.066194706,1.19830565e-05,0.0,0.0,-0.0
319477569,0.009273791,-0.06586174,0.00014242664,0.0,0.0,-0.0
319483054,0.0093872165,-0.06586232,-7.170467e-05,0.0,0.0,-0.0
319487856,0.009452779,-0.06617799,-0.0002515547,0.0,0.0,-0.0
319493358,0.009298679,-0.06611563,3.9817452e-05,0.0,0.0,-0.0
319498241,0.009186805,-0.06571758,0.00021708361,0.0,0.0,-0.0
319502965,0.009328027,-0.06582522,-9.560638e-05,0.0,0.0,-0.0
319508058,0.00936676,-0.066187315,-0.0002362206,0.0,0.0,-0.0
319538570,0.009091401,-0.06595318,0.0001584012,0.0,0.0,-0.0
319543668,0.009365327,-0.06632021,-6.772115e-05,0.0,0.0,-0.0
319548553,0.009531147,-0.06636672,-0.00018062397,0.0,0.0,-0.0
319553639,0.009301169,-0.065997586,-1.2834916e-05,0.0,0.0,-0.0
319559185,0.009148807,-0.06613764,0.00018473003,0.0,0.0,-0.0
319563905,0.00933122,-0.06642799,-2.7828817e-05,0.0,0.0,-0.0
319568906,0.009477854,-0.06629449,-0.00023391008,0.0,0.0,-0.0
319574124,0.009282868,-0.066048674,-5.2540694e-05,0.0,0.0,-0.0
319579160,0.009171058,-0.066305034,0.00016577308,0.0,0.0,-0.0
319584227,0.009432877,-0.06651067,2.3516795e-05,0.0,0.0,-0.0
319589803,0.009574874,-0.06614407,-0.00017810262,0.0,0.0,-0.0
319594382,0.009414161,-0.065999836,9.096006e-08,0.0,0.0,-0.0
319599407,0.009328358,-0.06640644,0.00016767297,0.0,0.0,-0.0
319604512,0.009541662,-0.06647816,-1.0266694e-05,0.0,0.0,-0.0
319609715,0.009648319,-0.065985315,-0.0001806677,0.0,0.0,-0.0
319614828,0.009522154,-0.06601718,-4.7070793e-05,0.0,0.0,-0.0
319619740,0.009481268,-0.06642569,0.0001797785,0.0,0.0,-0.0
319625148,0.009440701,-0.06642606,-6.015563e-05,0.0,0.0,-0.0
319629772,0.009564735,-0.06605622,-0.00018664618,0.0,0.0,-0.0
319634856,0.009650627,-0.06624561,3.7281956e-05,0.0,0.0,-0.0
319640035,0.009586446,-0.06661384,9.379618e-05,0.0,0.0,-0.0
319645094,0.009542763,-0.06640641,-7.514441e-05,0.0,0.0,-0.0
319650099,0.00969661,-0.066096984,-0.00013307341,0.0,0.0,-0.0
319655539,0.009777185,-0.066312455,9.243439e-05,0.0,0.0,-0.0
319660446,0.0096899215,-0.06654414,7.5269245e-06,0.0,0.0,-0.0
319665431,0.00962033,-0.06637344,-0.00010293258,0.0,0.0,-0.0
319670417,0.009723474,-0.06625886,-1.0064249e-05,0.0,0.0,-0.0
319675488,0.00983587,-0.06642246,6.6714005e-05,0.0,0.0,-0.0
319680661,0.0097058285,-0.06659182,-8.843144e-05,0.0,0.0,-0.0
319685665,0.009680881,-0.06649203,-9.145839e-05,0.0,0.0,-0.0
319691256,0.009830869,-0.06633491,8.6859145e-05,0.0,0.0,-0.0
319695878,0.0097754225,-0.06628195,5.917219e-05,0.0,0.0,-0.0
319700997,0.009659025,-0.06647677,-0.00015374683,0.0,0.0,-0.0
319705935,0.009634696,-0.06663905,-9.628764e-05,0.0,0.0,-0.0
319711081,0.009638297,-0.066439494,0.0001161574,0.0,0.0,-0.0
319716080,0.009603667,-0.066242576,5.4208816e-05,0.0,0.0,-0.0
319721234,0.009617537,-0.06657838,-0.00015773503,0.0,0.0,-0.0
319726572,0.009607324,-0.066822164,-6.4538996e-05,0.0,0.0,-0.0
319731405,0.009483429,-0.06651845,0.00013832068,0.0,0.0,-0.0
319736442,0.009467449,-0.06628452,-1.876854e-05,0.0,0.0,-0.0
319741681,0.009581359,-0.06665572,-0.00014779263,0.0,0.0,-0.0
319746626,0.009613553,-0.06683995,-6.402487e-05,0.0,0.0,-0.0
319751784,0.009468402,-0.06640299,9.963088e-05,0.0,0.0,-0.0
319757215,0.00944628,-0.06622694,1.4831667e-05,0.0,0.0,-0.0
319797204,0.009706524,-0.066361174,0.00013340841,0.0,0.0,-0.0
319802398,0.010058819,-0.066639185,-9.280189e-05,0.0,0.0,-0.0
319807403,0.0099128075,-0.06650933,-0.00017115394,0.0,0.0,-0.0
319812504,0.009560408,-0.06624452,1.533107e-05,0.0,0.0,-0.0
319817657,0.009756674,-0.06645577,0.00020993076,0.0,0.0,-0.0
319822952,0.010012747,-0.06658569,-9.566087e-05,0.0,0.0,-0.0
319827725,0.0098224,-0.06640676,-0.0002900104,0.0,0.0,-0.0
319832842,0.009498037,-0.06630931,8.405774e-05,0.0,0.0,-0.0
319837875,0.009649262,-0.0664876,0.00027489013,0.0,0.0,-0.0
319843062,0.009804961,-0.06644389,-0.00016425978,0.0,0.0,-0.0
319848122,0.00970088,-0.066211335,-0.00033150043,0.0,0.0,-0.0
319853173,0.009563381,-0.066321366,0.0001877179,0.0,0.0,-0.0
319858725,0.0096613,-0.06646879,0.00022419408,0.0,0.0,-0.0
319863301,0.009732077,-0.06624738,-0.00023441148,0.0,0.0,-0.0
319868362,0.009850534,-0.066075,-0.00020806809,0.0,0.0,-0.0
319873318,0.009837494,-0.066288464,0.00019946531,0.0,0.0,-0.0
319878409,0.009765873,-0.0664027,0.00013752376,0.0,0.0,-0.0
319883481,0.009733103,-0.06614419,-0.00024976468,0.0,0.0,-0.0
319898823,0.009537937,-0.066244915,5.0369777e-05,0.0,0.0,-0.0
319903911,0.009587038,-0.066027924,-0.00026414136,0.0,0.0,-0.0
319909036,0.00983285,-0.06591337,2.9700583e-05,0.0,0.0,-0.0
319914048,0.009664618,-0.06604965,0.00016723611,0.0,0.0,-0.0
319919204,0.00930576,-0.066181704,-8.549212e-05,0.0,0.0,-0.0
319924547,0.009344996,-0.06612618,-0.00013419072,0.0,0.0,-0.0
319929309,0.009607104,-0.06603219,0.00015369491,0.0,0.0,-0.0
319934365,0.00941828,-0.066188544,-1.7909533e-05,0.0,0.0,-0.0
319939566,0.009284534,-0.06634235,-0.00014602087,0.0,0.0,-0.0
319944603,0.0094708735,-0.06622801,4.7719363e-06,0.0,0.0,-0.0
319949529,0.009571466,-0.06593234,0.00011299791,0.0,0.0,-0.0
319954876,0.009372682,-0.06601583,-7.150497e-05,0.0,0.0,-0.0
319959623,0.009239363,-0.06632619,-0.00015600404,0.0,0.0,-0.0
319964820,0.009316353,-0.0662212,9.49884e-05,0.0,0.0,-0.0
319969838,0.009292848,-0.065771066,0.00013417038,0.0,0.0,-0.0
319974861,0.009111737,-0.06592252,-0.00016447084,0.0,0.0,-0.0
319979909,0.009143677,-0.06630426,-0.00012817906,0.0,0.0,-0.0
319985100,0.009218569,-0.06606607,0.00010205535,0.0,0.0,-0.0
319990322,0.009013564,-0.06562672,7.0160124e-05,0.0,0.0,-0.0
319995280,0.008982746,-0.06577015,-0.00015112657,0.0,0.0,-0.0
320000291,0.009238155,-0.06618822,-6.4032545e-05,0.0,0.0,-0.0
320005332,0.0091470685,-0.06593089,6.4835505e-05,0.0,0.0,-0.0
320010447,0.008897659,-0.06558881,-1.5201154e-05,0.0,0.0,-0.0
320015496,0.009147925,-0.06583888,-8.334785e-05,0.0,0.0,-0.0
320020861,0.009485751,-0.0662651,-3.5108076e-06,0.0,0.0,-0.0
320026108,0.0092391,-0.066101395,-4.8833022e-05,0.0,0.0,-0.0
320030791,0.008999045,-0.065788895,-5.727972e-06,0.0,0.0,-0.0
320035695,0.009339464,-0.06601826,5.2958672e-05,0.0,0.0,-0.0
320040838,0.009575887,-0.06625565,-0.00010407434,0.0,0.0,-0.0
320045984,0.009198403,-0.06602147,-0.00014771994,0.0,0.0,-0.0
320051038,0.009058126,-0.06582336,0.0001275946,0.0,0.0,-0.0
320056053,0.009431268,-0.06608536,0.00013179625,0.0,0.0,-0.0
320061790,0.009502792,-0.06618882,-0.00019999832,0.0,0.0,-0.0
320066249,0.009030381,-0.065969005,-0.00020406273,0.0,0.0,-0.0
320071493,0.008922279,-0.06591448,0.0002107265,0.0,0.0,-0.0
320076502,0.009228266,-0.066086605,0.00019649521,0.0,0.0,-0.0
320081576,0.009245196,-0.06604268,-0.00029004324,0.0,0.0,-0.0
320086557,0.008939009,-0.06592728,-0.00019066792,0.0,0.0,-0.0
320091804,0.008884588,-0.06595835,0.00033135002,0.0,0.0,-0.0
320096881,0.009132967,-0.06597375,0.00011560106,0.0,0.0,-0.0
320101836,0.008967259,-0.065914825,-0.00043417607,0.0,0.0,-0.0
320106961,0.008828026,-0.06583835,-5.9088707e-05,0.0,0.0,-0.0
320111952,0.008897228,-0.06589321,0.00037001364,0.0,0.0,-0.0
320117304,0.008868705,-0.065970525,-2.8808947e-05,0.0,0.0,-0.0
320122054,0.008868654,-0.06586451,-0.00039657575,0.0,0.0,-0.0
320127357,0.009060157,-0.06593607,7.681633e-05,0.0,0.0,-0.0
320132240,0.008977633,-0.06603668,0.0002841133,0.0,0.0,-0.0
320137234,0.0088228015,-0.0660111,-0.00010990372,0.0,0.0,-0.0
320142535,0.009054739,-0.065910086,-0.00025208076,0.0,0.0,-0.0
320147508,0.009266096,-0.065882675,0.00016852043,0.0,0.0,-0.0
320152597,0.008982952,-0.065944955,0.00018977592,0.0,0.0,-0.0
320157871,0.008814573,-0.06591485,-0.00018786569,0.0,0.0,-0.0
320162681,0.009101397,-0.06575407,-0.000110405526,0.0,0.0,-0.0
320167712,0.009236144,-0.065683596,0.00016596685,0.0,0.0,-0.0
320172882,0.008887978,-0.06587465,1.7714656e-05,0.0,0.0,-0.0
320177881,0.0087981345,-0.06593462,-0.00016609978,0.0,0.0,-0.0
320183297,0.00921363,-0.06560442,9.997865e-06,0.0,0.0,-0.0
320203277,0.0092110885,-0.06550914,0.00013762781,0.0,0.0,-0.0
320208228,0.009130327,-0.0653476,7.673908e-06,0.0,0.0,-0.0
320213319,0.008935003,-0.0656671,-0.00018556346,0.0,0.0,-0.0
320218418,0.009185652,-0.06583444,4.418933e-05,0.0,0.0,-0.0
320224054,0.009297816,-0.06545005,0.00013431089,0.0,0.0,-0.0
320228694,0.009187506,-0.065329716,-7.068956e-05,0.0,0.0,-0.0
320233730,0.009172767,-0.06567612,-0.00016251256,0.0,0.0,-0.0
320238828,0.009435413,-0.06580439,6.4699125e-05,0.0,0.0,-0.0
320243920,0.009399024,-0.0654897,9.673282e-05,0.0,0.0,-0.0
320249016,0.0092171915,-0.065349534,-8.452304e-05,0.0,0.0,-0.0
320254184,0.009379835,-0.06576328,-0.00011497512,0.0,0.0,-0.0
320259154,0.009540645,-0.065818824,5.1608004e-05,0.0,0.0,-0.0
320264740,0.009167509,-0.06540577,4.9376767e-06,0.0,0.0,-0.0
320269407,0.0090388125,-0.06532525,-7.3398296e-05,0.0,0.0,-0.0
320274439,0.009371419,-0.0656237,3.306013e-05,0.0,0.0,-0.0
320279401,0.009301345,-0.06566148,-5.887112e-05,0.0,0.0,-0.0
320284392,0.008865237,-0.06541556,-3.4232966e-05,0.0,0.0,-0.0
320290051,0.008986296,-0.06530222,3.940524e-05,0.0,0.0,-0.0
320304726,0.008884041,-0.065514214,-7.069558e-05,0.0,0.0,-0.0
320309876,0.009125386,-0.06546917,0.00027078114,0.0,0.0,-0.0
320314920,0.009464796,-0.06573121,-1.0196967e-05,0.0,0.0,-0.0
320319963,0.009185977,-0.06572332,-0.0003295498,0.0,0.0,-0.0
320325560,0.008908619,-0.06555742,3.448464e-05,0.0,0.0,-0.0
320330227,0.00925068,-0.065497674,0.00033910398,0.0,0.0,-0.0
320335182,0.00933989,-0.06565709,-0.00013559397,0.0,0.0,-0.0
320340328,0.009149678,-0.06570771,-0.0003247979,0.0,0.0,-0.0
320345348,0.008998065,-0.06564289,0.00013158612,0.0,0.0,-0.0
320350592,0.009107709,-0.06553837,0.00031545162,0.0,0.0,-0.0
320355898,0.00912704,-0.06565353,-0.00021309557,0.0,0.0,-0.0
320360701,0.009043494,-0.06570851,-0.00034662997,0.0,0.0,-0.0
320365585,0.008957706,-0.065625414,0.0002142301,0.0,0.0,-0.0
320370885,0.008926294,-0.06560737,0.00028543064,0.0,0.0,-0.0
320375812,0.008841488,-0.06569703,-0.00025883215,0.0,0.0,-0.0
320380917,0.008931474,-0.06568594,-0.00024256036,0.0,0.0,-0.0
320385888,0.008949306,-0.06563605,0.0002665759,0.0,0.0,-0.0
320391118,0.008804335,-0.06575094,0.00015378973,0.0,0.0,-0.0
320396085,0.008800292,-0.06593139,-0.0002657834,0.0,0.0,-0.0
320401492,0.009151488,-0.06568329,-0.00010189502,0.0,0.0,-0.0
320406303,0.009056449,-0.065648936,0.00019985282,0.0,0.0,-0.0
320411396,0.008822557,-0.06588481,8.62626e-06,0.0,0.0,-0.0
320416469,0.008942763,-0.06584138,-0.0001958285,0.0,0.0,-0.0
320421803,0.009341349,-0.06557302,6.4808104e-05,0.0,0.0,-0.0
320427102,0.009120886,-0.06561988,4.985885e-05,0.0,0.0,-0.0
320431827,0.008854141,-0.06599237,-6.231468e-05,0.0,0.0,-0.0
320436722,0.009061076,-0.065885104,-2.0818561e-05,0.0,0.0,-0.0
320441795,0.009279892,-0.06549895,2.2988072e-05,0.0,0.0,-0.0
320446730,0.00901969,-0.065693274,-2.7545502e-05,0.0,0.0,-0.0
320451920,0.008869286,-0.066169895,-5.8054946e-05,0.0,0.0,-0.0
320456862,0.009111003,-0.065942615,4.2131254e-05,0.0,0.0,-0.0
320462387,0.009250156,-0.06555535,4.0744144e-05,0.0,0.0,-0.0
320467091,0.008909881,-0.065821774,-9.180593e-05,0.0,0.0,-0.0
320472242,0.008946219,-0.0662035,-1.0272061e-05,0.0,0.0,-0.0
320477390,0.009116149,-0.06591147,9.196761e-05,0.0,0.0,-0.0
320482363,0.009127869,-0.06553253,1.198404e-05,0.0,0.0,-0.0
320487448,0.008999146,-0.06580596,-0.00011196848,0.0,0.0,-0.0
320493067,0.0091098985,-0.06613802,1.6255508e-05,0.0,0.0,-0.0
320497860,0.009196584,-0.06587428,4.2729484e-05,0.0,0.0,-0.0
320502802,0.009102099,-0.06555251,-5.8980073e-05,0.0,0.0,-0.0
320507728,0.009102923,-0.06581259,-3.2128853e-05,0.0,0.0,-0.0
320512940,0.009316725,-0.06597961,5.146239e-05,0.0,0.0,-0.0
320517962,0.009258009,-0.06582311,-8.256671e-05,0.0,0.0,-0.0
320523296,0.009096945,-0.06565664,-3.71508e-05,0.0,0.0,-0.0
320527990,0.009274663,-0.06586529,9.6351854e-05,0.0,0.0,-0.0
320533116,0.009505182,-0.0660578,-5.1623378e-05,0.0,0.0,-0.0
320538549,0.009276893,-0.065979876,-0.00014589896,0.0,0.0,-0.0
320543204,0.009127025,-0.06584004,4.4436038e-05,0.0,0.0,-0.0
320548289,0.009375235,-0.0658849,0.0001283255,0.0,0.0,-0.0
320553537,0.009435198,-0.0661107,-0.00015666358,0.0,0.0,-0.0
320558811,0.009135885,-0.066141516,-0.00013347567,0.0,0.0,-0.0
320563588,0.009120367,-0.06588438,0.00015099245,0.0,0.0,-0.0
320583882,0.0091653215,-0.066006,0.00022953238,0.0,0.0,-0.0
320589080,0.009349415,-0.06599231,9.885244e-05,0.0,0.0,-0.0
320594485,0.009417091,-0.066326775,-0.00030852848,0.0,0.0,-0.0
320599586,0.009194879,-0.06627332,-0.0001279698,0.0,0.0,-0.0
320604212,0.009163369,-0.06595436,0.0003102541,0.0,0.0,-0.0
320609154,0.009188039,-0.06600145,4.5505512e-05,0.0,0.0,-0.0
320614239,0.009254606,-0.06622907,-0.0003665721,0.0,0.0,-0.0
320619542,0.009264707,-0.06613969,-1.1689571e-05,0.0,0.0,-0.0
320624954,0.009086783,-0.06588415,0.00026906456,0.0,0.0,-0.0
320629679,0.0090785315,-0.06602526,-2.2696127e-05,0.0,0.0,-0.0
320639971,0.009256156,-0.065943025,-1.6866183e-05,0.0,0.0,-0.0
320644769,0.009058414,-0.06592448,0.00020141246,0.0,0.0,-0.0
320649849,0.00897369,-0.06614639,-7.482015e-08,0.0,0.0,-0.0
320655285,0.009272958,-0.06611615,-0.00022789853,0.0,0.0,-0.0
320660336,0.009337482,-0.06587656,2.2678105e-05,0.0,0.0,-0.0
320665007,0.009103046,-0.06593709,0.0001312776,0.0,0.0,-0.0
320670124,0.009031824,-0.06627245,5.155783e-07,0.0,0.0,-0.0
320675339,0.009342096,-0.065968536,-0.00013251402,0.0,0.0,-0.0
320710701,0.009245792,-0.06636277,6.87707e-05,0.0,0.0,-0.0
320715741,0.009425538,-0.06592952,-6.405209e-05,0.0,0.0,-0.0
320721031,0.009380466,-0.06583856,-8.1768274e-05,0.0,0.0,-0.0
320726347,0.009273951,-0.066243984,1.5308782e-05,0.0,0.0,-0.0
320731148,0.009233076,-0.06623619,2.6253785e-05,0.0,0.0,-0.0
320736571,0.009262434,-0.065873794,-5.883092e-05,0.0,0.0,-0.0
320741230,0.009242778,-0.06592231,-2.2492542e-05,0.0,0.0,-0.0
320746334,0.009148031,-0.066268295,3.4597047e-05,0.0,0.0,-0.0
320751461,0.0091226315,-0.066263475,-1.3776778e-05,0.0,0.0,-0.0
320756947,0.009116781,-0.06589785,-3.7004233e-05,0.0,0.0,-0.0
320761632,0.00913233,-0.065862946,-8.654932e-06,0.0,0.0,-0.0
320766542,0.009177993,-0.06610037,-3.446202e-05,0.0,0.0,-0.0
320771657,0.0091411155,-0.066175915,-4.744112e-05,0.0,0.0,-0.0
320776916,0.009098893,-0.066061854,7.2787145e-08,0.0,0.0,-0.0
320781801,0.009137951,-0.06595979,8.9232235e-05,0.0,0.0,-0.0
320786700,0.009266947,-0.06613179,9.33713e-05,0.0,0.0,-0.0
320791842,0.009281982,-0.06630624,-0.000164478,0.0,0.0,-0.001
321812030,0.009841199,-0.064397134,-4.5503697e-05,0.0,0.0,-0.001
321816942,0.009818592,-0.06476268,8.6257845e-05,0.0,0.0,-0.001
321822347,0.010004948,-0.06460702,0.00027501342,0.0,0.0,-0.001
321827505,0.009840964,-0.06424294,0.00013019983,0.0,0.0,-0.001
321832360,0.009728367,-0.0643111,1.1963768e-05,0.0,0.0,-0.001
321837147,0.00983486,-0.064682655,0.00018094898,0.0,0.0,-0.001
321842350,0.009857031,-0.06467311,0.00018126825,0.0,0.0,-0.001
321847717,0.009700486,-0.064360335,-2.17306e-05,0.0,0.0,-0.001
321852547,0.009864153,-0.064389616,4.5943965e-05,0.0,0.0,-0.001
321857493,0.010017584,-0.064684056,0.00016051099,0.0,0.0,-0.001
321863156,0.0098775,-0.06471201,2.895276e-05,0.0,0.0,-0.001
321867701,0.009832134,-0.06444252,-9.331791e-05,0.0,0.0,-0.001
321872960,0.010066687,-0.064330414,8.5352935e-05,0.0,0.0,-0.001
321877849,0.010064628,-0.06464753,-2.691038e-05,0.0,0.0,-0.001
321882995,0.00987424,-0.064792514,-0.00021943146,0.0,0.0,-0.001
321887968,0.009950313,-0.064435,-0.00017786745,0.0,0.0,-0.001
321893459,0.0101846615,-0.06426102,3.962376e-05,0.0,0.0,-0.001
321898357,0.010172679,-0.06463865,-0.00015679716,0.0,0.0,-0.001
321903513,0.009891812,-0.06476561,-0.00040475858,0.0,0.0,-0.001
321908543,0.009960155,-0.06438219,-0.00021637182,0.0,0.0,-0.001
321913552,0.010062494,-0.06435706,1.714037e-05,0.0,0.0,-0.001
321918390,0.009954968,-0.064750925,-0.00027700645,0.0,0.0,-0.001
321924194,0.009903705,-0.06475219,-0.00046016613,0.0,0.0,-0.001
321928919,0.010024063,-0.06431278,-0.00018637153,0.0,0.0,-0.001
321933703,0.010006255,-0.064299084,-8.404343e-05,0.0,0.0,-0.001
321938746,-0.01154096,-0.059296336,-0.23040015,0.0,0.0,-0.0010000002
321943960,-0.011496406,-0.05918269,-0.23041306,0.0,0.0,-0.0010000002
322075905,-0.007761389,-0.06045186,-0.2296319,0.0,0.0,-0.030668644
322081138,-0.0077411067,-0.06012888,-0.2301588,0.0,0.0,-0.030668644
322085872,-0.007464746,-0.059925903,-0.22984874,0.0,0.0,-0.030668644
322091468,-0.0035428049,-0.056298904,-0.22973454,0.0,0.0,-0.043904055
322096029,-0.004293359,-0.056227773,-0.23011668,0.0,0.0,-0.043904055
322101673,-0.0037906142,-0.056197736,-0.22974092,0.0,0.0,-0.043904055
322106259,-0.0039494,-0.055948522,-0.2294218,0.0,0.0,-0.043904055
322111358,-0.0040904703,-0.059866615,-0.23003066,0.0,0.0,-0.05582482
322116876,-0.004579866,-0.059929907,-0.23018517,0.0,0.0,-0.05582482
322121804,-0.0047651227,-0.059337106,-0.22945109,0.0,0.0,-0.05582482
322126827,-0.0047684596,-0.059400912,-0.22986683,0.0,0.0,-0.05582482
322146974,-0.007972725,-0.061472632,-0.23016848,0.0,0.0,-0.06744872
322152733,-0.0020026823,-0.05857171,-0.2298863,0.0,0.0,-0.08025751
322157004,-0.0022399037,-0.058716945,-0.2300426,0.0,0.0,-0.08025751
322162416,-0.0024574052,-0.058514256,-0.2301389,0.0,0.0,-0.08025751
322167155,-0.002123922,-0.05837129,-0.22992271,0.0,0.0,-0.08025751
322172260,-0.002372116,-0.05892551,-0.23016083,0.0,0.0,-0.08025751
322289041,0.0012927196,-0.055790666,-0.22977836,0.0,0.0,-0.16128619
322294067,0.00033313266,-0.055910494,-0.22990493,0.0,0.0,-0.16128619
322299099,-0.0032629294,-0.064985506,-0.22987852,0.0,0.0,-0.17363633
322304172,-0.0035708265,-0.06478737,-0.2296702,0.0,0.0,-0.17363633
322309235,-0.003548714,-0.06455084,-0.23006566,0.0,0.0,-0.17363633
322314731,-0.0036291636,-0.06514158,-0.22976893,0.0,0.0,-0.17363633
322319695,-0.0029133107,-0.062562495,-0.229628,0.0,0.0,-0.1851129
322324418,-0.003951027,-0.062414363,-0.22971925,0.0,0.0,-0.1851129
322329676,-0.0036612216,-0.062387098,-0.22978723,0.0,0.0,-0.1851129
322334751,-0.004194035,-0.062480647,-0.22950065,0.0,0.0,-0.1851129
322339718,-0.0060769273,-0.062311538,-0.2294463,0.0,0.0,-0.19857186
322344665,-0.003232435,-0.06299895,-0.22976018,0.0,0.0,-0.19857186
322375145,0.0045902943,-0.056651507,-0.2297361,0.0,0.0,-0.21046805
322381317,0.0037063393,-0.06102801,-0.22967675,0.0,0.0,-0.22324315
322385381,0.0036497635,-0.06144459,-0.22949858,0.0,0.0,-0.22324315
322391522,0.0041644624,-0.06233118,-0.22981107,0.0,0.0,-0.22324315
322527353,-0.038722135,-0.11560904,-0.17871189,0.0,0.0,-0.24907759
322532701,-0.03665679,-0.10216716,-0.17429316,0.0,0.0,-0.2497686
322537518,-0.03437125,-0.101294994,-0.16972364,0.0,0.0,-0.2497686
322542794,-0.02984785,-0.0976194,-0.16498512,0.0,0.0,-0.2497686
322548019,-0.028765645,-0.095271,-0.16031885,0.0,0.0,-0.2497686
322552988,-0.04297168,-0.09584462,-0.15622592,0.0,0.0,-0.24765791
322558037,-0.04581378,-0.09179375,-0.15162238,0.0,0.0,-0.24765791
322563286,-0.040909983,-0.08919093,-0.14668433,0.0,0.0,-0.24765791
322567983,-0.038971886,-0.08642809,-0.14243132,0.0,0.0,-0.24765791
322573190,-0.03207546,-0.11736576,-0.13760059,0.0,0.0,-0.24882075
322578006,-0.029126566,-0.113748685,-0.13324074,0.0,0.0,-0.24882075
322583820,-0.02689137,-0.107883014,-0.12813035,0.0,0.0,-0.24882075
322588248,-0.025735404,-0.10074871,-0.12324534,0.0,0.0,-0.24882075
322593636,-0.031049944,-0.08588083,-0.11903946,0.0,0.0,-0.24855383
322598588,-0.033133984,-0.07738913,-0.1144985,0.0,0.0,-0.24855383
322603719,-0.031204581,-0.070019655,-0.10989767,0.0,0.0,-0.24855383
322608658,-0.028762618,-0.06476657,-0.10536513,0.0,0.0,-0.24855383
322613774,0.015854713,-0.09089307,-0.10086369,0.0,0.0,-0.25599965
322619012,0.015263936,-0.088125244,-0.09643578,0.0,0.0,-0.25599965
322680120,-0.04529353,0.017573062,-0.047412124,0.0,0.0,-0.28784716
322684883,-0.039279886,0.01927924,-0.043750063,0.0,0.0,-0.28784716
322690185,-0.03416411,0.019162357,-0.04023783,0.0,0.0,-0.28784716
322695080,-0.044050504,-0.019680945,-0.03726756,0.0,0.0,-0.2942028
322699983,-0.042074833,-0.020943107,-0.033884354,0.0,0.0,-0.2942028
322705094,-0.040244084,-0.021536546,-0.030801764,0.0,0.0,-0.2942028
322710178,-0.0384057,-0.022716342,-0.027829995,0.0,0.0,-0.2942028
322715456,0.00854949,0.012933642,-0.024771627,0.0,0.0,-0.2971379
322720421,0.0080494145,0.012891692,-0.021930093,0.0,0.0,-0.2971379
322725991,0.009780178,0.014285842,-0.019239496,0.0,0.0,-0.2971379
322745537,-0.010728979,-0.0143248215,-0.009882414,0.0,0.0,-0.298787
322750970,-0.011264915,-0.015895726,-0.0073383665,0.0,0.0,-0.298787
322755753,-0.009409419,-0.00093181035,-0.0050569912,0.0,0.0,-0.2953367
322761323,-0.012027528,-0.0022528816,-0.003072581,0.0,0.0,-0.2953367
322765964,-0.013737885,-0.003682792,-0.0011593896,0.0,0.0,-0.2953367
322771139,-0.016698882,-0.005545772,0.00088079006,0.0,0.0,-0.2953367
322776369,-0.039345834,-0.014528578,0.0027344096,0.0,0.0,-0.29902962
322781636,-0.040932816,-0.016694142,0.0045794053,0.0,0.0,-0.29902962
322786434,-0.042447582,-0.019962626,0.0063571343,0.0,0.0,-0.29902962
322791463,-0.041011766,-0.0230363,0.008662903,0.0,0.0,-0.29902962
322877618,0.009841867,-0.06944673,0.03471052,0.0,0.0,-0.31472248
322882872,0.010794182,-0.06887921,0.036147177,0.0,0.0,-0.31472248
322888476,0.009248483,-0.06897387,0.037781235,0.0,0.0,-0.31472248
322892857,0.0048796847,-0.061193112,0.038881958,0.0,0.0,-0.31799728
322897921,0.006255914,-0.059793696,0.040383354,0.0,0.0,-0.31799728
322902951,0.005851027,-0.058222692,0.041527007,0.0,0.0,-0.31799728
322907938,0.0049249954,-0.056761503,0.04242757,0.0,0.0,-0.31799728
323019926,-0.008942596,-0.07574672,0.058235116,0.0,0.0,-0.32975364
323024665,-0.007290303,-0.07692322,0.058436934,0.0,0.0,-0.32975364
323029974,-0.0062501943,-0.07773453,0.058948714,0.0,0.0,-0.32975364
323035226,-0.0042561684,-0.06590815,0.059156846,0.0,0.0,-0.3257637
323040110,-0.0044697192,-0.065705754,0.05947306,0.0,0.0,-0.3257637
323045040,-0.0049934974,-0.065202996,0.05968934,0.0,0.0,-0.3257637
323050338,-0.0048093856,-0.06469213,0.059914768,0.0,0.0,-0.3257637
323055332,0.013425069,-0.07415513,0.060170833,0.0,0.0,-0.32722837
323060589,0.011987223,-0.07502099,0.060164668,0.0,0.0,-0.32722837
323065229,0.010859593,-0.07554772,0.060456876,0.0,0.0,-0.32722837
323126134,-0.007854937,-0.12582077,0.06348939,0.0,0.0,-0.30855104
323131508,-0.008565234,-0.12345914,0.063342825,0.0,0.0,-0.30855104
323136550,-0.00466241,-0.100578606,0.06322409,0.0,0.0,-0.28699455
323141958,-0.0056847697,-0.09705692,0.06299655,0.0,0.0,-0.28699455
323146501,-0.008014886,-0.093141496,0.062752,0.0,0.0,-0.28699455
323152226,-0.008125403,-0.08926323,0.0625945,0.0,0.0,-0.28699455
323156672,0.011408003,-0.099891275,0.06256242,0.0,0.0,-0.27540112
323161768,0.009886631,-0.09634737,0.062408675,0.0,0.0,-0.27540112
323167004,0.0107281115,-0.091947794,0.062350772,0.0,0.0,-0.27540112
323171965,0.010061351,-0.08733558,0.061965346,0.0,0.0,-0.27540112
323177205,0.006522178,-0.07724289,0.062145688,0.0,0.0,-0.27637997
323248099,-0.028541468,-0.016044034,0.05619634,0.0,0.0,-0.28206798
323253661,-0.031195328,-0.016692003,0.05557926,0.0,0.0,-0.28206798
323258198,0.0132480515,0.0124371415,0.0554785,0.0,0.0,-0.28644875
323263591,0.013906146,0.010642372,0.054928884,0.0,0.0,-0.28644875
323268456,0.015569757,0.009206717,0.054745734,0.0,0.0,-0.28644875
323273424,0.016186731,0.006325635,0.054083377,0.0,0.0,-0.28644875
323278550,0.009832823,-0.016351266,0.05387473,0.0,0.0,-0.2901958
323283868,0.009858205,-0.019230496,0.053282022,0.0,0.0,-0.2901958
323288862,0.009613017,-0.020707889,0.052622415,0.0,0.0,-0.2901958
323379944,0.009849745,-0.046745908,0.042682014,0.0,0.0,-0.29083335
323385443,0.009676338,-0.044504974,0.041988228,0.0,0.0,-0.29083335
323390005,0.011282909,-0.041540895,0.041562,0.0,0.0,-0.29083335
323395644,0.00976528,-0.039087854,0.040953748,0.0,0.0,-0.29083335
323400132,0.0032318265,-0.0074650827,0.04046675,0.0,0.0,-0.28994375
323405363,0.0021263415,-0.004215652,0.039807096,0.0,0.0,-0.28994375
323410373,-0.00036188663,-0.00079369923,0.03943071,0.0,0.0,-0.28994375
323415909,0.0008256425,0.0027459867,0.03886945,0.0,0.0,-0.28994375
323517280,-0.001074488,0.080226436,0.029332556,0.0,0.0,-0.29439074
323522089,-0.0017441487,0.08252845,0.028725222,0.0,0.0,-0.29439074
323527137,-0.00027998196,0.08413745,0.028533908,0.0,0.0,-0.29439074
323532203,0.0148876235,0.09222953,0.027911782,0.0,0.0,-0.2931075
323537309,0.01617385,0.09512686,0.027553776,0.0,0.0,-0.2931075
323542509,0.015307452,0.09811926,0.02688171,0.0,0.0,-0.2931075
323547511,0.0139658395,0.10146993,0.026594931,0.0,0.0,-0.2931075
323552801,0.015083998,0.10485762,0.026190322,0.0,0.0,-0.2931075
323557445,0.0023802442,0.12951042,0.025489582,0.0,0.0,-0.29316333
323562527,0.0018091144,0.13296935,0.024908558,0.0,0.0,-0.29316333
323598246,0.0051904563,0.16106312,0.023042012,0.0,0.0,-0.30070388
323603272,0.0073543987,0.1602652,0.022704462,0.0,0.0,-0.30070388
323608440,0.00884738,0.1597067,0.022636391,0.0,0.0,-0.30070388
323613371,0.011259765,0.15939492,0.022662075,0.0,0.0,-0.30070388
323618971,0.016250353,0.1680995,0.022051636,0.0,0.0,-0.30043033
323623938,0.016481841,0.16787355,0.021851059,0.0,0.0,-0.30043033
323628753,0.017198024,0.16766548,0.021511368,0.0,0.0,-0.30043033
323633600,0.016981335,0.16797146,0.02119679,0.0,0.0,-0.30043033
323638743,-0.0058190837,0.19481525,0.021189952,0.0,0.0,-0.29953665
323643654,-0.007071754,0.19433104,0.02059758,0.0,0.0,-0.29953665
323729999,0.014088419,0.15232617,0.016454106,0.0,0.0,-0.3016512
323735092,0.013130581,0.14902936,0.016189555,0.0,0.0,-0.3016512
323740316,0.0045573716,0.17296702,0.016055053,0.0,0.0,-0.2994178
323745554,0.0016754132,0.16879585,0.015766317,0.0,0.0,-0.2994178
323750442,0.0012681816,0.16455375,0.015905157,0.0,0.0,-0.2994178
323755382,-0.00031870476,0.15972838,0.01604008,0.0,0.0,-0.2994178
323760557,0.012444658,0.15266114,0.016017878,0.0,0.0,-0.3017638
323765598,0.013847131,0.14781111,0.01607138,0.0,0.0,-0.3017638
323770773,0.013378798,0.1428084,0.015769906,0.0,0.0,-0.3017638
323775923,0.015456892,0.13748567,0.015767746,0.0,0.0,-0.3017638
323781033,0.010647302,0.14522319,0.015608916,0.0,0.0,-0.3033885
323826517,0.02558011,0.11914964,0.014177833,0.0,0.0,-0.30442926
323831698,-0.0075628753,0.1198048,0.014178067,0.0,0.0,-0.30504012
323836623,-0.008569577,0.11740457,0.014273132,0.0,0.0,-0.30504012
323841725,-0.010629307,0.11478024,0.014080364,0.0,0.0,-0.30504012
323846968,-0.01060934,0.11208535,0.014137766,0.0,0.0,-0.30504012
323852526,0.021883555,0.13117139,0.014015878,0.0,0.0,-0.3045799
323856860,0.022615258,0.12852834,0.014068793,0.0,0.0,-0.3045799
323862305,0.02369767,0.12504154,0.014325421,0.0,0.0,-0.3045799
323867301,0.025020288,0.12150008,0.014387049,0.0,0.0,-0.3045799
323933104,-0.008503887,0.111262135,0.014271505,0.0,0.0,-0.30870584
323938139,-0.007399228,0.10779779,0.014499681,0.0,0.0,-0.30870584
323943287,-0.0075799976,0.1040409,0.014677454,0.0,0.0,-0.30870584
323948723,-0.005585368,0.09993449,0.014886811,0.0,0.0,-0.30870584
323953582,0.010326572,0.09849872,0.014804082,0.0,0.0,-0.30686527
323958417,0.010302268,0.09581292,0.014868433,0.0,0.0,-0.30686527
323963464,0.012421253,0.093277276,0.0150216175,0.0,0.0,-0.30686527
323968456,0.012638555,0.09162218,0.014966996,0.0,0.0,-0.30686527
323973657,0.0045645614,0.08964555,0.015014894,0.0,0.0,-0.30717313
324024508,0.0053543206,0.096551925,0.0146721825,0.0,0.0,-0.30475557
324029728,0.0049208608,0.09340475,0.014848122,0.0,0.0,-0.30475557
324034643,0.005054766,0.06786126,0.015017559,0.0,0.0,-0.30977023
324039748,0.0054081576,0.064717956,0.015320675,0.0,0.0,-0.30977023
324044789,0.007047183,0.06144876,0.015490196,0.0,0.0,-0.30977023
324049927,0.006882185,0.058241263,0.015455132,0.0,0.0,-0.30977023
324054985,-0.016134812,0.08176849,0.015747564,0.0,0.0,-0.30885822
324059964,-0.015671758,0.07852658,0.015790142,0.0,0.0,-0.30885822
324064959,-0.016556524,0.07612202,0.015964901,0.0,0.0,-0.30885822
324070281,-0.014238471,0.07404365,0.015811756,0.0,0.0,-0.30885822
324075257,0.009327127,0.072406314,0.015884511,0.0,0.0,-0.3104062
324217160,0.0097883735,0.06385521,0.016761689,0.0,0.0,-0.3111
324222361,0.010069059,0.064099364,0.016630448,0.0,0.0,-0.3111
324227919,0.0070143784,0.06518784,0.016474653,0.0,0.0,-0.3111
324232574,-0.013041093,0.077707835,0.016349869,0.0,0.0,-0.31050855
324237609,-0.012298313,0.07797131,0.016021859,0.0,0.0,-0.31050855
324242719,-0.014277297,0.07849983,0.01568527,0.0,0.0,-0.31050855
324248176,-0.013749634,0.07744068,0.01566109,0.0,0.0,-0.31050855
324252714,-0.019719478,0.09121549,0.015624753,0.0,0.0,-0.30905762
324258078,-0.020235475,0.088936746,0.01583114,0.0,0.0,-0.30905762
324344009,0.0100962855,0.050640613,0.016324898,0.0,0.0,-0.31038126
324349713,0.008896021,0.05118578,0.016248778,0.0,0.0,-0.31038126
324354255,0.0012491461,0.042914823,0.015865697,0.0,0.0,-0.31056827
324359576,0.0010777191,0.042796165,0.01591122,0.0,0.0,-0.31056827
324364374,-0.001397689,0.042111695,0.015840132,0.0,0.0,-0.31056827
324369743,-0.0024282478,0.040939353,0.01564043,0.0,0.0,-0.31056827
324374388,-0.017135963,0.033285525,0.015763607,0.0,0.0,-0.31180653
324379512,-0.018365059,0.03193167,0.015590525,0.0,0.0,-0.31180653
324385029,-0.020179067,0.02995684,0.015682999,0.0,0.0,-0.31180653
324389743,-0.022425566,0.027480273,0.01602608,0.0,0.0,-0.31180653
324516537,-0.047329992,0.026447637,0.017871449,0.0,0.0,-0.31420767
324521822,-0.047566667,0.02354718,0.017874097,0.0,0.0,-0.31420767
324527163,-0.047463335,0.020376613,0.018227186,0.0,0.0,-0.31420767
324532380,-0.04570629,0.016864074,0.018660113,0.0,0.0,-0.31420767
324536965,-0.01470092,0.008559642,0.01891812,0.0,0.0,-0.3148603
324541999,-0.012734262,0.005862119,0.019436438,0.0,0.0,-0.3148603
324546871,-0.010541066,0.0035884476,0.019728301,0.0,0.0,-0.3148603
324552428,-0.008993626,0.0015655119,0.020274064,0.0,0.0,-0.3148603
324557085,-0.017085105,0.008722666,0.020725222,0.0,0.0,-0.31314513
324562626,-0.017230598,0.007639304,0.020968854,0.0,0.0,-0.31314513
324567372,-0.017577618,0.0067680497,0.02144602,0.0,0.0,-0.31314513
324572618,-0.017238963,0.006906528,0.021916369,0.0,0.0,-0.31314513
324587664,-0.010322568,-0.023942936,0.02259569,0.0,0.0,-0.31160778
324592866,-0.0122329425,-0.022764822,0.022883441,0.0,0.0,-0.31160778
324597793,-0.034920976,-0.0010520847,0.023218932,0.0,0.0,-0.31096599
324603109,-0.036905028,0.0011781132,0.023334231,0.0,0.0,-0.31096599
324608000,-0.03770717,0.0022319483,0.023560112,0.0,0.0,-0.31096599
324613111,-0.037643827,0.00334012,0.02381312,0.0,0.0,-0.31096599
324618171,-0.019421414,-0.021305304,0.023772994,0.0,0.0,-0.3079827
324623093,-0.019510873,-0.021644147,0.02404838,0.0,0.0,-0.3079827
324628092,-0.019848133,-0.022272112,0.024332315,0.0,0.0,-0.3079827
324633303,-0.019209696,-0.022539401,0.024869766,0.0,0.0,-0.3079827
324638511,-0.0195738,0.007962715,0.025155876,0.0,0.0,-0.30916122
324643775,-0.019329173,0.007540247,0.025494823,0.0,0.0,-0.30916122
324648514,-0.016592667,0.006309001,0.025908945,0.0,0.0,-0.30916122
324653844,-0.014605318,0.005511575,0.026253574,0.0,0.0,-0.30916122
324658638,-0.0074395067,-0.0022370995,0.026625127,0.0,0.0,-0.31056303
324664340,-0.0036545482,-0.0027090244,0.027100902,0.0,0.0,-0.31056303
324668759,-0.002767277,-0.0033818309,0.027306192,0.0,0.0,-0.31056303
324674014,-0.0023417657,-0.0037439459,0.027611393,0.0,0.0,-0.31056303
324678993,-0.018805547,-0.030464256,0.027798412,0.0,0.0,-0.31454894
324684508,-0.018514622,-0.030496083,0.028033173,0.0,0.0,-0.31454894
324689403,-0.016834706,-0.029932097,0.028118817,0.0,0.0,-0.31454894
324694199,-0.01689436,-0.028623307,0.028505333,0.0,0.0,-0.31454894
324699165,-0.006009916,-0.0053419983,0.028527636,0.0,0.0,-0.30957985
324704372,-0.005306556,-0.004127015,0.028499302,0.0,0.0,-0.30957985
324709252,-0.0051499116,-0.0025795489,0.028825859,0.0,0.0,-0.30957985
324724710,0.005990398,-0.014686034,0.028675668,0.0,0.0,-0.3102272
324729693,0.006376893,-0.014312925,0.028583312,0.0,0.0,-0.3102272
324734798,0.0026730306,-0.013616097,0.028505715,0.0,0.0,-0.3102272
324740178,-0.023379248,-0.022919806,0.028224632,0.0,0.0,-0.3091729
324745098,-0.024567341,-0.02350611,0.027880713,0.0,0.0,-0.3091729
324750233,-0.027550323,-0.024447301,0.027875083,0.0,0.0,-0.3091729
324755229,-0.02792012,-0.025284516,0.027690595,0.0,0.0,-0.3091729
324760154,-0.027790004,-0.01995936,0.027630592,0.0,0.0,-0.3089456
324765329,-0.028180448,-0.021021413,0.027666101,0.0,0.0,-0.3089456
324785529,-0.0063653374,-0.017936453,0.027549705,0.0,0.0,-0.31268778
324790942,-0.0034393047,-0.019536082,0.027684301,0.0,0.0,-0.31268778
324795911,-0.002752495,-0.042258956,0.027706854,0.0,0.0,-0.31372094
324800935,-0.0023041626,-0.043197837,0.027733747,0.0,0.0,-0.31372094
324806019,0.001432404,-0.04412023,0.027877865,0.0,0.0,-0.31372094
324810938,0.0030601749,-0.044190463,0.027970027,0.0,0.0,-0.31372094
324816470,-0.00011873034,-0.0434456,0.02794081,0.0,0.0,-0.3127943
324821162,0.0028306055,-0.042056445,0.028010227,0.0,0.0,-0.3127943
324826237,0.0023628622,-0.03986617,0.02812189,0.0,0.0,-0.3127943
324831226,0.0031636145,-0.036888234,0.028188344,0.0,0.0,-0.3127943
324836333,5.228245e-05,-0.032437343,0.028152004,0.0,0.0,-0.31219497
324841571,-0.0006220095,-0.02886086,0.028190196,0.0,0.0,-0.31219497
324846465,-0.00021902948,-0.024880266,0.028004749,0.0,0.0,-0.31219497
324851804,0.00038652786,-0.021116775,0.027941212,0.0,0.0,-0.31219497
324856746,0.023109252,-0.018624388,0.027697684,0.0,0.0,-0.30698475
324861663,0.022154337,-0.01646706,0.02742774,0.0,0.0,-0.30698475
324867180,0.02112991,-0.015563053,0.02738193,0.0,0.0,-0.30698475
324871706,0.019015476,-0.014664117,0.027169548,0.0,0.0,-0.30698475
324876895,0.004268757,-0.023103034,0.026781261,0.0,0.0,-0.30862835
324882324,0.0017170189,-0.023814134,0.026639733,0.0,0.0,-0.30862835
324887207,-0.0006809145,-0.02468855,0.026466224,0.0,0.0,-0.30862835
324892173,-0.004371293,-0.026230734,0.026409585,0.0,0.0,-0.30862835
324897242,-0.015065761,-0.030555481,0.026422637,0.0,0.0,-0.3108541
324902236,-0.016647335,-0.032883424,0.026319142,0.0,0.0,-0.3108541
324907408,-0.018505318,-0.03515067,0.026205162,0.0,0.0,-0.3108541
324912413,-0.01673514,-0.037040584,0.02614542,0.0,0.0,-0.3108541
324918044,-0.012431335,-0.05007018,0.026123762,0.0,0.0,-0.31060997
324922534,-0.011824856,-0.052603345,0.025994519,0.0,0.0,-0.31060997
324927726,-0.010937759,-0.054372687,0.026299383,0.0,0.0,-0.31060997
324932841,-0.009736173,-0.056308582,0.026393922,0.0,0.0,-0.31060997
324937870,-0.008152342,-0.07205216,0.026202653,0.0,0.0,-0.3134365
324942865,-0.005933603,-0.073571295,0.026515223,0.0,0.0,-0.3134365
324948429,-0.00520958,-0.07375921,0.02630787,0.0,0.0,-0.3134365
324952889,-0.004551316,-0.07446476,0.026210058,0.0,0.0,-0.3134365
324958107,-0.01446292,-0.07061607,0.0261097,0.0,0.0,-0.31063285
324963080,-0.014152937,-0.06942119,0.025967497,0.0,0.0,-0.31063285
324968339,-0.0143603645,-0.068387836,0.025841877,0.0,0.0,-0.31063285
324973177,-0.013326669,-0.06627602,0.025571283,0.0,0.0,-0.31063285
324978453,0.0050876616,-0.08115041,0.025323004,0.0,0.0,-0.30836475
324983899,0.004880857,-0.07842997,0.025144631,0.0,0.0,-0.30836475
324988697,0.004874625,-0.075429395,0.024840336,0.0,0.0,-0.30836475
324993669,0.0039953743,-0.072302215,0.024661237,0.0,0.0,-0.30836475
324998764,-0.020553863,-0.0774899,0.0241797,0.0,0.0,-0.30953723
325003854,-0.023234254,-0.0737637,0.023726663,0.0,0.0,-0.30953723
325008923,-0.02472216,-0.0699089,0.023519516,0.0,0.0,-0.30953723
325029028,-0.017969798,-0.052751467,0.021923343,0.0,0.0,-0.30999056
325034027,-0.017123148,-0.050213285,0.02147283,0.0,0.0,-0.30999056
325039250,-0.018733595,-0.06763986,0.021249179,0.0,0.0,-0.3146415
325044295,-0.019257339,-0.0654287,0.020925255,0.0,0.0,-0.3146415
325049927,-0.017628515,-0.06431843,0.020655192,0.0,0.0,-0.3146415
325054569,-0.017150613,-0.06325803,0.020443834,0.0,0.0,-0.3146415
325060011,-0.02637099,-0.054760996,0.020352542,0.0,0.0,-0.314804
325064580,-0.023403442,-0.053748917,0.020251997,0.0,0.0,-0.314804
325069797,-0.023583563,-0.05305262,0.020365408,0.0,0.0,-0.314804
325074736,-0.02039574,-0.052558593,0.020344919,0.0,0.0,-0.314804
325079880,-0.0048766346,-0.05823524,0.020351853,0.0,0.0,-0.31690976
325085068,-0.0037425268,-0.058190327,0.020539092,0.0,0.0,-0.31690976
325090013,4.6310164e-05,-0.05780179,0.020731982,0.0,0.0,-0.31690976
325095219,0.001963557,-0.056691613,0.020527165,0.0,0.0,-0.31690976
325100225,-0.00020148157,-0.048807353,0.020624895,0.0,0.0,-0.31519243
325105150,0.0028330404,-0.047328457,0.020885497,0.0,0.0,-0.31519243
325110284,0.0047257813,-0.045557946,0.021167824,0.0,0.0,-0.31519243
325166070,0.011805478,-0.06106049,0.023831349,0.0,0.0,-0.3096373
325171341,0.009473665,-0.0612195,0.023869555,0.0,0.0,-0.30476153
325176373,0.0075646183,-0.057343107,0.02446178,0.0,0.0,-0.30476153
325181431,0.006862265,-0.053676084,0.024732165,0.0,0.0,-0.30476153
325186363,0.005581569,-0.04975969,0.025223892,0.0,0.0,-0.30476153
325191537,0.011869467,-0.038815722,0.025777336,0.0,0.0,-0.30047968
325196510,0.010136446,-0.034560256,0.026139272,0.0,0.0,-0.30047968
325201710,0.009181738,-0.031497937,0.02663561,0.0,0.0,-0.30047968
325206578,0.009423525,-0.028175738,0.027199559,0.0,0.0,-0.30047968
325217143,0.017126841,-0.052729666,0.028046463,0.0,0.0,-0.30207154
325222042,0.015576059,-0.04964312,0.028299501,0.0,0.0,-0.30207154
325227120,0.0135058705,-0.04824022,0.028685031,0.0,0.0,-0.30207154
325232176,-0.002813833,-0.037684385,0.028893286,0.0,0.0,-0.3051137
325237426,-0.004257679,-0.03508716,0.029630732,0.0,0.0,-0.3051137
325242338,-0.004659037,-0.033644333,0.030014694,0.0,0.0,-0.3051137
325247609,-0.006505023,-0.03214496,0.030478355,0.0,0.0,-0.3051137
325253005,0.021264939,-0.015682273,0.031205572,0.0,0.0,-0.30737555
325277621,-0.00082502724,-0.027327891,0.03334655,0.0,0.0,-0.30955824
325282845,-0.0036008998,-0.026697122,0.03377644,0.0,0.0,-0.30955824
325287887,-0.0040421784,-0.0258816,0.034153104,0.0,0.0,-0.30955824
325293091,-0.014927948,-0.05394541,0.034608983,0.0,0.0,-0.3145934
325298107,-0.015403101,-0.053052455,0.035034258,0.0,0.0,-0.3145934
325303311,-0.016984843,-0.051947474,0.03546876,0.0,0.0,-0.3145934
325308178,-0.019711526,-0.051807158,0.036105987,0.0,0.0,-0.3145934
325313426,-0.021992162,-0.051503703,0.036329538,0.0,0.0,-0.3145934
325318706,0.00978803,-0.030395579,0.0370617,0.0,0.0,-0.3188908
325323599,0.009772831,-0.030208146,0.0375779,0.0,0.0,-0.3188908
325328541,0.007422298,-0.030188493,0.03795642,0.0,0.0,-0.3188908
325333672,0.0068207327,-0.029724251,0.038639516,0.0,0.0,-0.3188908
325338748,-0.020833649,-0.054432917,0.039275333,0.0,0.0,-0.3197899
325343787,-0.020756153,-0.054502845,0.04004909,0.0,0.0,-0.3197899
325348992,-0.021145852,-0.054576874,0.040715978,0.0,0.0,-0.3197899
325353859,-0.004629466,-0.04332601,0.04160024,0.0,0.0,-0.32080126
325358855,-0.0013512935,-0.043590095,0.042633373,0.0,0.0,-0.32080126
325363960,-0.00018675438,-0.043560665,0.04329698,0.0,0.0,-0.32080126
325379146,-0.012760004,-0.06859855,0.04595998,0.0,0.0,-0.32184148
325384669,-0.008822203,-0.06803369,0.04676297,0.0,0.0,-0.32184148
325389352,-0.007569463,-0.066795506,0.0478074,0.0,0.0,-0.32184148
325394559,-0.0059494227,-0.0678613,0.0487179,0.0,0.0,-0.32143125
325399834,-0.0041145016,-0.06549618,0.049738944,0.0,0.0,-0.32143125
325404628,-0.0015359826,-0.06308842,0.050828982,0.0,0.0,-0.32143125
325409658,0.0003802523,-0.05983266,0.05179684,0.0,0.0,-0.32143125
325414806,0.0065274914,-0.04935873,0.052920464,0.0,0.0,-0.3167886
325420140,0.008941908,-0.0441334,0.05386395,0.0,0.0,-0.3167886
325425011,0.010755917,-0.039581325,0.054929513,0.0,0.0,-0.3167886
325429945,0.011974306,-0.034316104,0.055869352,0.0,0.0,-0.3167886
325435107,0.010616749,-0.03406004,0.056738034,0.0,0.0,-0.31552887
325440427,0.011549968,-0.028147165,0.057545234,0.0,0.0,-0.31552887
325445137,0.012700942,-0.023134291,0.05837472,0.0,0.0,-0.31552887
325450635,0.012923819,-0.018186094,0.059341,0.0,0.0,-0.31552887
325455345,0.03619842,-0.0051205233,0.059903435,0.0,0.0,-0.3114148
325460335,0.03719461,-0.00033127354,0.060611892,0.0,0.0,-0.3114148
325465661,0.037008137,0.0034157282,0.06129479,0.0,0.0,-0.3114148
325470592,0.03819726,0.0071909823,0.061938733,0.0,0.0,-0.3114148
325475765,0.039885364,0.0016525633,0.062420286,0.0,0.0,-0.31080395
325481073,0.040617026,0.0038429324,0.06323614,0.0,0.0,-0.31080395
325485857,0.04118769,0.0058375383,0.0637647,0.0,0.0,-0.31080395
325491038,0.03930849,0.0058155293,0.06433358,0.0,0.0,-0.31080395
325496004,0.04268886,0.011382703,0.06496851,0.0,0.0,-0.31233862
325501081,0.041467253,0.011128773,0.0650955,0.0,0.0,-0.31233862
325506190,0.040896762,0.009903696,0.065762006,0.0,0.0,-0.31233862
325511218,0.04626187,0.014858865,0.06601461,0.0,0.0,-0.31366727
325516601,0.04583003,0.0128565915,0.06623789,0.0,0.0,-0.31366727
325521239,0.04518552,0.010811903,0.06653112,0.0,0.0,-0.31366727
325526492,0.04428758,0.007827611,0.066844165,0.0,0.0,-0.31366727
325531475,0.04612753,-0.006884242,0.06706138,0.0,0.0,-0.31850967
325536541,0.047490384,-0.010171993,0.067567,0.0,0.0,-0.31850967
325541544,0.04420115,-0.0139649,0.06775521,0.0,0.0,-0.31850967
325546765,0.04449157,-0.018067004,0.06803223,0.0,0.0,-0.31850967
325552327,0.0055993777,-0.043301903,0.0679147,0.0,0.0,-0.31940338
325556902,0.0053842533,-0.04846644,0.06833309,0.0,0.0,-0.31940338
325562178,0.006836814,-0.05316858,0.068532415,0.0,0.0,-0.31940338
325567060,0.0060772984,-0.058808967,0.068609804,0.0,0.0,-0.31940338
325572035,0.017867804,-0.054917727,0.0689368,0.0,0.0,-0.3218217
325577305,0.018605612,-0.059291523,0.06907493,0.0,0.0,-0.3218217
325582295,0.02026537,-0.06422263,0.069428414,0.0,0.0,-0.3218217
325587781,0.02156186,-0.06828626,0.069587596,0.0,0.0,-0.3218217
325592416,0.039757244,-0.06286096,0.06980335,0.0,0.0,-0.32012773
325597456,0.041042585,-0.065643236,0.06997442,0.0,0.0,-0.32012773
325602517,0.041651636,-0.06673903,0.07015567,0.0,0.0,-0.32012773
325618179,0.053076923,-0.087008044,0.07101596,0.0,0.0,-0.31714335
325622955,0.053263437,-0.08563566,0.07160321,0.0,0.0,-0.31714335
325628066,0.052338015,-0.08309784,0.071801774,0.0,0.0,-0.31714335
325632935,0.060100917,-0.090836816,0.071934596,0.0,0.0,-0.31428388
325638159,0.058598116,-0.087711535,0.072251104,0.0,0.0,-0.31428388
325643148,0.056923892,-0.08484614,0.07242577,0.0,0.0,-0.31428388
325648445,0.055312417,-0.08082668,0.07298206,0.0,0.0,-0.31428388
325653578,0.05077267,-0.08632048,0.073168635,0.0,0.0,-0.30906335
325658429,0.04873449,-0.08188524,0.073358245,0.0,0.0,-0.30906335
325663456,0.046446767,-0.07829456,0.07365856,0.0,0.0,-0.30906335
325668636,0.04272869,-0.07467052,0.07376359,0.0,0.0,-0.30906335
325673548,0.017582238,-0.076468356,0.07389216,0.0,0.0,-0.30856657
325678701,0.013746933,-0.073692076,0.07351024,0.0,0.0,-0.30856657
325683545,0.010960876,-0.07122676,0.07403288,0.0,0.0,-0.30856657
325689253,0.0062550018,-0.07059218,0.073732965,0.0,0.0,-0.30856657
325693705,0.029357167,-0.07913889,0.07369888,0.0,0.0,-0.3122849
325698887,0.0276172,-0.07983952,0.073856704,0.0,0.0,-0.3122849
325704120,0.023584401,-0.08043849,0.073404096,0.0,0.0,-0.3122849
325709157,0.021789158,-0.082195476,0.073580235,0.0,0.0,-0.3122849
325714139,0.008130215,-0.06235257,0.073042616,0.0,0.0,-0.30946252
325719502,0.0077139237,-0.0647277,0.07296323,0.0,0.0,-0.30946252
325724354,0.003631557,-0.06888147,0.07249764,0.0,0.0,-0.30946252
325729454,0.005760912,-0.07243081,0.07267555,0.0,0.0,-0.30946252
325734389,0.0022323253,-0.08164268,0.07229501,0.0,0.0,-0.31066298
325739705,0.0024921498,-0.08594578,0.071749434,0.0,0.0,-0.31066298
325744661,0.0022886647,-0.08939085,0.07135403,0.0,0.0,-0.31066298
325750411,0.0022469773,-0.09238016,0.07066944,0.0,0.0,-0.31066298
325754889,0.0017523242,-0.092393465,0.07012845,0.0,0.0,-0.3117028
325759869,0.0034554878,-0.09381069,0.06961322,0.0,0.0,-0.3117028
325764900,0.0046981135,-0.093357325,0.068892226,0.0,0.0,-0.3117028
325770181,0.006129195,-0.09286105,0.06785537,0.0,0.0,-0.3117028
325775184,0.024322562,-0.10410045,0.06695052,0.0,0.0,-0.31245303
325780685,0.024413992,-0.10136089,0.065675415,0.0,0.0,-0.31245303
325785070,0.02462247,-0.096748956,0.06437679,0.0,0.0,-0.31245303
325790293,0.024810646,-0.091304526,0.06288467,0.0,0.0,-0.31245303
325795313,0.009403303,-0.07953192,0.06146335,0.0,0.0,-0.30964953
325800854,0.009469316,-0.07240825,0.05958503,0.0,0.0,-0.30964953
325805480,0.00891732,-0.06550954,0.05792867,0.0,0.0,-0.30964953
325810612,0.008953427,-0.058956888,0.056141432,0.0,0.0,-0.30964953
325815887,0.019010292,-0.07501909,0.054375,0.0,0.0,-0.31171578
325820805,0.02129404,-0.06929395,0.052608706,0.0,0.0,-0.31171578
325826028,0.018429039,-0.06376001,0.050713126,0.0,0.0,-0.31171578
325831121,0.01717814,-0.05847831,0.048992127,0.0,0.0,-0.31171578
325835913,0.009225303,-0.026084797,0.047120508,0.0,0.0,-0.3113041
325841048,0.00882561,-0.021686956,0.045166366,0.0,0.0,-0.3113041
325845927,0.011519283,-0.016877897,0.04351933,0.0,0.0,-0.3113041
325851713,0.011675083,-0.012600676,0.04128173,0.0,0.0,-0.3113041
