timestamp,q[0],q[1],q[2],q[3],delta_q_reset[0],delta_q_reset[1],delta_q_reset[2],delta_q_reset[3],quat_reset_counter
317888430,0.6864052,-0.0034965985,0.0024111045,0.727207,0.9818129,4.5758765e-11,-3.2950273e-10,-0.1898514,3
317893716,0.68636197,-0.003492688,0.002423278,0.7272478,0.9818129,4.5758765e-11,-3.2950273e-10,-0.1898514,3
318010219,0.686353,-0.0034938853,0.002414392,0.7272561,0.9818129,4.5758765e-11,-3.2950273e-10,-0.1898514,3
318015309,0.68635654,-0.0035081457,0.0024375156,0.72725266,0.9818129,4.5758765e-11,-3.2950273e-10,-0.1898514,3
318020384,0.68634665,-0.003506814,0.0024245554,0.72726214,0.9818129,4.5758765e-11,-3.2950273e-10,-0.1898514,3
318025449,0.68634367,-0.0034853017,0.0024020865,0.7272651,0.9818129,4.5758765e-11,-3.2950273e-10,-0.1898514,3
318030524,0.6863489,-0.003484448,0.0024168969,0.7272602,0.9818129,4.5758765e-11,-3.2950273e-10,-0.1898514,3
318035600,0.686351,-0.0035093308,0.0024467178,0.7272579,0.9818129,4.5758765e-11,-3.2950273e-10,-0.1898514,3
318040679,0.6863419,-0.003509144,0.0024310371,0.7272666,0.9818129,4.5758765e-11,-3.2950273e-10,-0.1898514,3
318045738,0.6863418,-0.0034867637,0.0024028406,0.72726685,0.9818129,4.5758765e-11,-3.2950273e-10,-0.1898514,3
318050816,0.68634874,-0.0034955172,0.002411309,0.7272603,0.9818129,4.5758765e-11,-3.2950273e-10,-0.1898514,3
318056176,0.6863478,-0.0035188547,0.0024401832,0.727261,0.9818129,4.5758765e-11,-3.2950273e-10,-0.1898514,3
318061136,0.6863402,-0.0035142582,0.0024287212,0.72726816,0.9818129,4.5758765e-11,-3.2950273e-10,-0.1898514,3
318066149,0.6863418,-0.0034921477,0.0024118857,0.72726685,0.9818129,4.5758765e-11,-3.2950273e-10,-0.1898514,3
318071138,0.6863446,-0.003494807,0.002419122,0.7272641,0.9818129,4.5758765e-11,-3.2950273e-10,-0.1898514,3
318076186,0.68634427,-0.003512746,0.0024325931,0.72726434,0.9818129,4.5758765e-11,-3.2950273e-10,-0.1898514,3
318081280,0.68633395,-0.003507041,0.002428625,0.72727406,0.9818129,4.5758765e-11,-3.2950273e-10,-0.1898514,3
318086349,0.6863345,-0.0034883036,0.002420268,0.7272737,0.9818129,4.5758765e-11,-3.2950273e-10,-0.1898514,3
318091420,0.6863475,-0.0034863506,0.002424599,0.7272614,0.9818129,4.5758765e-11,-3.2950273e-10,-0.1898514,3
318096487,0.6863451,-0.0035017058,0.0024345834,0.7272635,0.9818129,4.5758765e-11,-3.2950273e-10,-0.1898514,3
318101614,0.6863263,-0.003503948,0.002437364,0.7272812,0.9818129,4.5758765e-11,-3.2950273e-10,-0.1898514,3
318106633,0.6863306,-0.003491739,0.0024352279,0.7272772,0.9818129,4.5758765e-11,-3.2950273e-10,-0.1898514,3
318111718,0.686344,-0.0034838433,0.0024292702,0.7272647,0.9818129,4.5758765e-11,-3.2950273e-10,-0.1898514,3
318116786,0.68634045,-0.0034946941,0.0024298914,0.727268,0.9818129,4.5758765e-11,-3.2950273e-10,-0.1898514,3
318121861,0.686324,-0.0035018632,0.0024351445,0.7272834,0.9818129,4.5758765e-11,-3.2950273e-10,-0.1898514,3
318126941,0.68632853,-0.0034892133,0.0024389732,0.7272792,0.9818129,4.5758765e-11,-3.2950273e-10,-0.1898514,3
318132006,0.6863486,-0.003482286,0.0024305026,0.7272603,0.9818129,4.5758765e-11,-3.2950273e-10,-0.1898514,3
318137323,0.6863416,-0.003495971,0.0024265025,0.7272669,0.9818129,4.5758765e-11,-3.2950273e-10,-0.1898514,3
318142361,0.6863209,-0.0035053538,0.0024386148,0.72728634,0.9818129,4.5758765e-11,-3.2950273e-10,-0.1898514,3
318147337,0.686329,-0.0034894983,0.0024392859,0.72727877,0.9818129,4.5758765e-11,-3.2950273e-10,-0.1898514,3
318152338,0.6863449,-0.0034756504,0.002430616,0.72726387,0.9818129,4.5758765e-11,-3.2950273e-10,-0.1898514,3
318157383,0.6863388,-0.0034896336,0.0024257863,0.7272696,0.9818129,4.5758765e-11,-3.2950273e-10,-0.1898514,3
318162457,0.6863218,-0.0035073261,0.0024353752,0.7272855,0.9818129,4.5758765e-11,-3.2950273e-10,-0.1898514,3
318167531,0.6863256,-0.0034838086,0.0024378775,0.72728205,0.9818129,4.5758765e-11,-3.2950273e-10,-0.1898514,3
318172606,0.686345,-0.0034654008,0.002430993,0.7272639,0.9818129,4.5758765e-11,-3.2950273e-10,-0.1898514,3
318177678,0.6863373,-0.003488242,0.0024293307,0.7272711,0.9818129,4.5758765e-11,-3.2950273e-10,-0.1898514,3
318182762,0.6863163,-0.003502812,0.0024377254,0.72729075,0.9818129,4.5758765e-11,-3.2950273e-10,-0.1898514,3
318187830,0.68632203,-0.0034754837,0.0024300325,0.72728544,0.9818129,4.5758765e-11,-3.2950273e-10,-0.1898514,3
318192903,0.68633926,-0.0034636261,0.0024255286,0.72726923,0.9818129,4.5758765e-11,-3.2950273e-10,-0.1898514,3
318197976,0.68633187,-0.0034909686,0.0024311773,0.7272761,0.9818129,4.5758765e-11,-3.2950273e-10,-0.1898514,3
318203098,0.6863137,-0.0034947344,0.002428064,0.72729325,0.9818129,4.5758765e-11,-3.2950273e-10,-0.1898514,3
318208130,0.686318,-0.0034689738,0.0024222787,0.7272893,0.9818129,4.5758765e-11,-3.2950273e-10,-0.1898514,3
318213200,0.6863361,-0.003466093,0.0024288576,0.7272722,0.9818129,4.5758765e-11,-3.2950273e-10,-0.1898514,3
318218558,0.6863331,-0.0034919141,0.0024330406,0.7272749,0.9818129,4.5758765e-11,-3.2950273e-10,-0.1898514,3
318223576,0.68631643,-0.0034921218,0.0024161946,0.7272907,0.9818129,4.5758765e-11,-3.2950273e-10,-0.1898514,3
318228585,0.68631464,-0.0034693305,0.0024160536,0.72729254,0.9818129,4.5758765e-11,-3.2950273e-10,-0.1898514,3
318233552,0.6863287,-0.003473486,0.0024322146,0.7272792,0.9818129,4.5758765e-11,-3.2950273e-10,-0.1898514,3
318238573,0.6863292,-0.0034942483,0.002429468,0.7272786,0.9818129,4.5758765e-11,-3.2950273e-10,-0.1898514,3
318243655,0.68631566,-0.003479684,0.0024065713,0.7272915,0.9818129,4.5758765e-11,-3.2950273e-10,-0.1898514,3
318248722,0.6863103,-0.0034670988,0.0024073892,0.7272967,0.9818129,4.5758765e-11,-3.2950273e-10,-0.1898514,3
318253799,0.68632764,-0.0034786917,0.0024317396,0.72728014,0.9818129,4.5758765e-11,-3.2950273e-10,-0.1898514,3
318258877,0.6863275,-0.003481797,0.002429095,0.72728026,0.9818129,4.5758765e-11,-3.2950273e-10,-0.1898514,3
318263948,0.68630725,-0.003465003,0.0024044022,0.7272996,0.9818129,4.5758765e-11,-3.2950273e-10,-0.1898514,3
318269020,0.68631077,-0.0034668173,0.0024115522,0.72729623,0.9818129,4.5758765e-11,-3.2950273e-10,-0.1898514,3
318274108,0.68632746,-0.0034817003,0.002435824,0.72728026,0.9818129,4.5758765e-11,-3.2950273e-10,-0.1898514,3
318279169,0.68632406,-0.0034735973,0.0024273708,0.72728354,0.9818129,4.5758765e-11,-3.2950273e-10,-0.1898514,3
318284271,0.6863116,-0.003459516,0.0024052267,0.7272954,0.9818129,4.5758765e-11,-3.2950273e-10,-0.1898514,3
318289327,0.686316,-0.0034696066,0.0024165944,0.72729117,0.9818129,4.5758765e-11,-3.2950273e-10,-0.1898514,3
318294402,0.68632627,-0.0034799925,0.0024338188,0.7272814,0.9818129,4.5758765e-11,-3.2950273e-10,-0.1898514,3
318299512,0.6863224,-0.003467176,0.0024242473,0.7272852,0.9818129,4.5758765e-11,-3.2950273e-10,-0.1898514,3
318304725,0.6863122,-0.0034554256,0.0024033452,0.7272949,0.9818129,4.5758765e-11,-3.2950273e-10,-0.1898514,3
318309736,0.686317,-0.0034662348,0.002415695,0.7272903,0.9818129,4.5758765e-11,-3.2950273e-10,-0.1898514,3
318314732,0.68631864,-0.0034679046,0.0024319892,0.7272887,0.9818129,4.5758765e-11,-3.2950273e-10,-0.1898514,3
318319794,0.6863101,-0.0034536154,0.0024301882,0.7272968,0.9818129,4.5758765e-11,-3.2950273e-10,-0.1898514,3
318324850,0.68630934,-0.0034564952,0.0024170552,0.7272976,0.9818129,4.5758765e-11,-3.2950273e-10,-0.1898514,3
318329918,0.6863173,-0.003468604,0.002422849,0.7272899,0.9818129,4.5758765e-11,-3.2950273e-10,-0.1898514,3
318335017,0.6863128,-0.0034662918,0.0024418829,0.7272942,0.9818129,4.5758765e-11,-3.2950273e-10,-0.1898514,3
318340067,0.68630403,-0.0034561444,0.0024409064,0.7273025,0.9818129,4.5758765e-11,-3.2950273e-10,-0.1898514,3
318345141,0.68631107,-0.0034501394,0.0024263903,0.727296,0.9818129,4.5758765e-11,-3.2950273e-10,-0.1898514,3
318350221,0.6863224,-0.0034510402,0.0024279656,0.72728527,0.9818129,4.5758765e-11,-3.2950273e-10,-0.1898514,3
318355327,0.68631345,-0.003449366,0.0024409804,0.72729367,0.9818129,4.5758765e-11,-3.2950273e-10,-0.1898514,3
318360372,0.68630314,-0.0034514712,0.0024422787,0.7273034,0.9818129,4.5758765e-11,-3.2950273e-10,-0.1898514,3
318365446,0.68631744,-0.0034456912,0.002429772,0.7272899,0.9818129,4.5758765e-11,-3.2950273e-10,-0.1898514,3
318370512,0.68632287,-0.0034324974,0.002425236,0.7272849,0.9818129,4.5758765e-11,-3.2950273e-10,-0.1898514,3
318375596,0.686303,-0.0034417862,0.002434495,0.7273035,0.9818129,4.5758765e-11,-3.2950273e-10,-0.1898514,3
318380669,0.6863048,-0.0034522861,0.0024401108,0.72730184,0.9818129,4.5758765e-11,-3.2950273e-10,-0.1898514,3
318385921,0.686322,-0.0034397824,0.0024259272,0.72728574,0.9818129,4.5758765e-11,-3.2950273e-10,-0.1898514,3
318390991,0.6863233,-0.0034270168,0.0024193306,0.7272846,0.9818129,4.5758765e-11,-3.2950273e-10,-0.1898514,3
318395924,0.6863128,-0.0034440758,0.002430591,0.7272944,0.9818129,4.5758765e-11,-3.2950273e-10,-0.1898514,3
318400962,0.6863119,-0.0034569055,0.002437141,0.7272951,0.9818129,4.5758765e-11,-3.2950273e-10,-0.1898514,3
318426342,0.6863205,-0.0034301765,0.0024317843,0.7272872,0.9818129,4.5758765e-11,-3.2950273e-10,-0.1898514,3
318431416,0.686325,-0.003429635,0.002432804,0.7272828,0.9818129,4.5758765e-11,-3.2950273e-10,-0.1898514,3
318436485,0.68632257,-0.0034626934,0.0024362414,0.727285,0.9818129,4.5758765e-11,-3.2950273e-10,-0.1898514,3
318441558,0.6863089,-0.0034570927,0.002437514,0.7272979,0.9818129,4.5758765e-11,-3.2950273e-10,-0.1898514,3
318446630,0.6863148,-0.0034238915,0.0024400216,0.7272925,0.9818129,4.5758765e-11,-3.2950273e-10,-0.1898514,3
318451716,0.6863257,-0.0034324361,0.0024375066,0.72728217,0.9818129,4.5758765e-11,-3.2950273e-10,-0.1898514,3
318456782,0.686321,-0.0034616536,0.002438462,0.7272865,0.9818129,4.5758765e-11,-3.2950273e-10,-0.1898514,3
318461862,0.68630695,-0.0034503462,0.0024373767,0.7272998,0.9818129,4.5758765e-11,-3.2950273e-10,-0.1898514,3
318467191,0.6863099,-0.003426247,0.002442887,0.7272971,0.9818129,4.5758765e-11,-3.2950273e-10,-0.1898514,3
318472151,0.68632513,-0.0034372571,0.002445499,0.7272827,0.9818129,4.5758765e-11,-3.2950273e-10,-0.1898514,3
318477131,0.6863203,-0.0034555574,0.0024335056,0.72728723,0.9818129,4.5758765e-11,-3.2950273e-10,-0.1898514,3
318482224,0.68629706,-0.0034409007,0.0024349694,0.7273092,0.9818129,4.5758765e-11,-3.2950273e-10,-0.1898514,3
318487235,0.6863025,-0.003432999,0.002444615,0.7273041,0.9818129,4.5758765e-11,-3.2950273e-10,-0.1898514,3
318492315,0.6863299,-0.0034506514,0.0024488033,0.72727805,0.9818129,4.5758765e-11,-3.2950273e-10,-0.1898514,3
318497386,0.6863206,-0.0034553516,0.002438381,0.7272869,0.9818129,4.5758765e-11,-3.2950273e-10,-0.1898514,3
318502461,0.68629503,-0.0034465936,0.0024362602,0.7273111,0.9818129,4.5758765e-11,-3.2950273e-10,-0.1898514,3
318507525,0.68631005,-0.0034528172,0.0024483104,0.72729677,0.9818129,4.5758765e-11,-3.2950273e-10,-0.1898514,3
318512609,0.6863339,-0.0034657484,0.002455304,0.72727424,0.9818129,4.5758765e-11,-3.2950273e-10,-0.1898514,3
318517674,0.6863189,-0.0034531557,0.0024409678,0.72728854,0.9818129,4.5758765e-11,-3.2950273e-10,-0.1898514,3
318522752,0.68629503,-0.0034431706,0.0024336386,0.7273111,0.9818129,4.5758765e-11,-3.2950273e-10,-0.1898514,3
318527826,0.68631434,-0.0034524403,0.0024487865,0.7272927,0.9818129,4.5758765e-11,-3.2950273e-10,-0.1898514,3
318532910,0.6863298,-0.003457212,0.0024573007,0.7272781,0.9818129,4.5758765e-11,-3.2950273e-10,-0.1898514,3
318537973,0.68631107,-0.0034402322,0.002446772,0.7272959,0.9818129,4.5758765e-11,-3.2950273e-10,-0.1898514,3
318543066,0.68630326,-0.0034394441,0.00243406,0.72730327,0.9818129,4.5758765e-11,-3.2950273e-10,-0.1898514,3
318548341,0.6863247,-0.003453642,0.0024461257,0.727283,0.9818129,4.5758765e-11,-3.2950273e-10,-0.1898514,3
318553354,0.686327,-0.0034492605,0.0024582152,0.72728086,0.9818129,4.5758765e-11,-3.2950273e-10,-0.1898514,3
318558384,0.68630505,-0.003437015,0.0024544266,0.7273016,0.9818129,4.5758765e-11,-3.2950273e-10,-0.1898514,3
318563352,0.6863086,-0.0034428986,0.0024348055,0.72729826,0.9818129,4.5758765e-11,-3.2950273e-10,-0.1898514,3
318568423,0.6863215,-0.0034568806,0.0024431075,0.727286,0.9818129,4.5758765e-11,-3.2950273e-10,-0.1898514,3
318573504,0.68631065,-0.0034553043,0.0024557547,0.7272963,0.9818129,4.5758765e-11,-3.2950273e-10,-0.1898514,3
318578569,0.68629956,-0.0034474682,0.0024494932,0.7273067,0.9818129,4.5758765e-11,-3.2950273e-10,-0.1898514,3
318583644,0.68631166,-0.0034478991,0.0024346777,0.72729534,0.9818129,4.5758765e-11,-3.2950273e-10,-0.1898514,3
318588721,0.68631655,-0.0034475017,0.0024400062,0.7272907,0.9818129,4.5758765e-11,-3.2950273e-10,-0.1898514,3
318593796,0.6862991,-0.0034452681,0.002458573,0.7273072,0.9818129,4.5758765e-11,-3.2950273e-10,-0.1898514,3
318598868,0.6862999,-0.0034448141,0.0024520287,0.7273064,0.9818129,4.5758765e-11,-3.2950273e-10,-0.1898514,3
318603973,0.68631965,-0.0034425529,0.0024336898,0.7272878,0.9818129,4.5758765e-11,-3.2950273e-10,-0.1898514,3
318629567,0.6863078,-0.0034282391,0.0024422985,0.72729915,0.9818129,4.5758765e-11,-3.2950273e-10,-0.1898514,3
318634573,0.68629026,-0.003444993,0.0024529386,0.7273155,0.9818129,4.5758765e-11,-3.2950273e-10,-0.1898514,3
318639596,0.6863043,-0.0034451487,0.0024439741,0.7273024,0.9818129,4.5758765e-11,-3.2950273e-10,-0.1898514,3
318644572,0.6863163,-0.0034228899,0.0024333273,0.7272911,0.9818129,4.5758765e-11,-3.2950273e-10,-0.1898514,3
318649636,0.68630344,-0.003431658,0.0024413012,0.7273032,0.9818129,4.5758765e-11,-3.2950273e-10,-0.1898514,3
318654692,0.6862938,-0.0034625677,0.0024478803,0.72731215,0.9818129,4.5758765e-11,-3.2950273e-10,-0.1898514,3
318659765,0.68630546,-0.003452477,0.002443295,0.7273012,0.9818129,4.5758765e-11,-3.2950273e-10,-0.1898514,3
318664846,0.6863127,-0.0034210184,0.002440215,0.7272945,0.9818129,4.5758765e-11,-3.2950273e-10,-0.1898514,3
318669911,0.6863082,-0.0034331286,0.002442262,0.7272987,0.9818129,4.5758765e-11,-3.2950273e-10,-0.1898514,3
318675008,0.68630034,-0.0034598312,0.00243603,0.727306,0.9818129,4.5758765e-11,-3.2950273e-10,-0.1898514,3
318680074,0.6863068,-0.0034413657,0.0024368647,0.72730005,0.9818129,4.5758765e-11,-3.2950273e-10,-0.1898514,3
318685141,0.68631124,-0.0034140619,0.0024427797,0.72729594,0.9818129,4.5758765e-11,-3.2950273e-10,-0.1898514,3
318690219,0.6863158,-0.0034383398,0.0024406726,0.7272915,0.9818129,4.5758765e-11,-3.2950273e-10,-0.1898514,3
318695340,0.68631184,-0.0034528328,0.002438727,0.72729516,0.9818129,4.5758765e-11,-3.2950273e-10,-0.1898514,3
318700375,0.6863028,-0.0034280876,0.0024441483,0.72730386,0.9818129,4.5758765e-11,-3.2950273e-10,-0.1898514,3
318705434,0.6863113,-0.0034075547,0.0024565565,0.7272958,0.9818129,4.5758765e-11,-3.2950273e-10,-0.1898514,3
318710741,0.68632346,-0.0034353174,0.0024451714,0.7272842,0.9818129,4.5758765e-11,-3.2950273e-10,-0.1898514,3
318715729,0.6863136,-0.0034460688,0.0024443069,0.7272935,0.9818129,4.5758765e-11,-3.2950273e-10,-0.1898514,3
318720754,0.6862959,-0.0034217504,0.0024500967,0.7273103,0.9818129,4.5758765e-11,-3.2950273e-10,-0.1898514,3
318725740,0.68630844,-0.0034173955,0.0024607813,0.72729844,0.9818129,4.5758765e-11,-3.2950273e-10,-0.1898514,3
318730806,0.686324,-0.0034421878,0.002452302,0.72728366,0.9818129,4.5758765e-11,-3.2950273e-10,-0.1898514,3
318735881,0.68630373,-0.0034479478,0.0024462303,0.7273028,0.9818129,4.5758765e-11,-3.2950273e-10,-0.1898514,3
318740962,0.6862831,-0.003430025,0.002452601,0.72732234,0.9818129,4.5758765e-11,-3.2950273e-10,-0.1898514,3
318746030,0.6863076,-0.0034370024,0.0024590108,0.7272992,0.9818129,4.5758765e-11,-3.2950273e-10,-0.1898514,3
318751104,0.68632096,-0.0034553376,0.002450347,0.7272866,0.9818129,4.5758765e-11,-3.2950273e-10,-0.1898514,3
318756195,0.68628967,-0.0034422404,0.0024498042,0.7273161,0.9818129,4.5758765e-11,-3.2950273e-10,-0.1898514,3
318761280,0.68628144,-0.0034361181,0.0024534774,0.72732383,0.9818129,4.5758765e-11,-3.2950273e-10,-0.1898514,3
318766331,0.68631214,-0.0034417522,0.0024619868,0.7272948,0.9818129,4.5758765e-11,-3.2950273e-10,-0.1898514,3
318771405,0.68631727,-0.0034463992,0.0024614378,0.72729003,0.9818129,4.5758765e-11,-3.2950273e-10,-0.1898514,3
318776502,0.68629026,-0.0034309374,0.0024524278,0.7273156,0.9818129,4.5758765e-11,-3.2950273e-10,-0.1898514,3
318781565,0.68628633,-0.0034284915,0.002450597,0.7273193,0.9818129,4.5758765e-11,-3.2950273e-10,-0.1898514,3
318786636,0.68631166,-0.0034355049,0.0024574336,0.72729534,0.9818129,4.5758765e-11,-3.2950273e-10,-0.1898514,3
318792009,0.6863074,-0.0034310946,0.0024604006,0.72729945,0.9818129,4.5758765e-11,-3.2950273e-10,-0.1898514,3
318796979,0.68628424,-0.0034235034,0.0024505705,0.72732127,0.9818129,4.5758765e-11,-3.2950273e-10,-0.1898514,3
318801966,0.6862931,-0.0034348394,0.0024394675,0.7273129,0.9818129,4.5758765e-11,-3.2950273e-10,-0.1898514,3
318806966,0.68631214,-0.0034428397,0.0024565966,0.72729486,0.9818129,4.5758765e-11,-3.2950273e-10,-0.1898514,3
318812020,0.6862941,-0.0034346413,0.0024678577,0.7273119,0.9818129,4.5758765e-11,-3.2950273e-10,-0.1898514,3
318817077,0.686285,-0.0034300305,0.0024488505,0.7273205,0.9818129,4.5758765e-11,-3.2950273e-10,-0.1898514,3
318822166,0.68630344,-0.0034384404,0.0024366358,0.7273032,0.9818129,4.5758765e-11,-3.2950273e-10,-0.1898514,3
318827225,0.68630916,-0.0034388306,0.0024573314,0.7272977,0.9818129,4.5758765e-11,-3.2950273e-10,-0.1898514,3
318832317,0.6862906,-0.0034279884,0.0024682505,0.7273152,0.9818129,4.5758765e-11,-3.2950273e-10,-0.1898514,3
318842449,0.6863088,-0.0034304517,0.002432642,0.7272981,0.9818129,4.5758765e-11,-3.2950273e-10,-0.1898514,3
318847521,0.686297,-0.0034291893,0.0024596252,0.7273092,0.9818129,4.5758765e-11,-3.2950273e-10,-0.1898514,3
318852598,0.68628263,-0.0034288478,0.0024686179,0.7273228,0.9818129,4.5758765e-11,-3.2950273e-10,-0.1898514,3
318857674,0.6863004,-0.003426063,0.0024421155,0.72730607,0.9818129,4.5758765e-11,-3.2950273e-10,-0.1898514,3
318862755,0.68631023,-0.0034230908,0.0024316718,0.7272969,0.9818129,4.5758765e-11,-3.2950273e-10,-0.1898514,3
318908420,0.68629175,-0.0034344152,0.0024484969,0.7273141,0.9818129,4.5758765e-11,-3.2950273e-10,-0.1898514,3
318913493,0.68629676,-0.0034444577,0.0024439553,0.72730947,0.9818129,4.5758765e-11,-3.2950273e-10,-0.1898514,3
318918576,0.68631154,-0.0034221308,0.0024338525,0.72729564,0.9818129,4.5758765e-11,-3.2950273e-10,-0.1898514,3
318923639,0.68630946,-0.0034085524,0.0024416244,0.7272976,0.9818129,4.5758765e-11,-3.2950273e-10,-0.1898514,3
318928725,0.68630373,-0.0034320834,0.0024479805,0.72730285,0.9818129,4.5758765e-11,-3.2950273e-10,-0.1898514,3
318949012,0.68631434,-0.003439225,0.0024377948,0.7272929,0.9818129,4.5758765e-11,-3.2950273e-10,-0.1898514,3
318954356,0.6863041,-0.0034451126,0.0024318015,0.72730255,0.9818129,4.5758765e-11,-3.2950273e-10,-0.1898514,3
318959351,0.68630177,-0.0034130604,0.0024434316,0.7273049,0.9818129,4.5758765e-11,-3.2950273e-10,-0.1898514,3
318964370,0.6863193,-0.0034137878,0.0024407487,0.7272883,0.9818129,4.5758765e-11,-3.2950273e-10,-0.1898514,3
318969351,0.6863202,-0.0034385377,0.0024235118,0.7272874,0.9818129,4.5758765e-11,-3.2950273e-10,-0.1898514,3
318974388,0.6862956,-0.0034365538,0.0024290576,0.7273106,0.9818129,4.5758765e-11,-3.2950273e-10,-0.1898514,3
318979480,0.6862951,-0.003414822,0.0024429767,0.72731113,0.9818129,4.5758765e-11,-3.2950273e-10,-0.1898514,3
319025139,0.6863266,-0.0034058422,0.002437127,0.7272814,0.9818129,4.5758765e-11,-3.2950273e-10,-0.1898514,3
319030208,0.6863076,-0.0034091936,0.0024347785,0.72729933,0.9818129,4.5758765e-11,-3.2950273e-10,-0.1898514,3
319035304,0.68628716,-0.0034057584,0.0024269486,0.7273187,0.9818129,4.5758765e-11,-3.2950273e-10,-0.1898514,3
319040573,0.68630695,-0.0034056522,0.0024248199,0.7273,0.9818129,4.5758765e-11,-3.2950273e-10,-0.1898514,3
319045591,0.68632287,-0.0034057142,0.0024346462,0.72728497,0.9818129,4.5758765e-11,-3.2950273e-10,-0.1898514,3
319050550,0.6863043,-0.0034077142,0.002433103,0.72730255,0.9818129,4.5758765e-11,-3.2950273e-10,-0.1898514,3
319055616,0.68629366,-0.0034070646,0.0024151858,0.72731256,0.9818129,4.5758765e-11,-3.2950273e-10,-0.1898514,3
319060672,0.68631387,-0.0034037286,0.002407941,0.72729355,0.9818129,4.5758765e-11,-3.2950273e-10,-0.1898514,3
319065729,0.6863216,-0.003406693,0.0024273023,0.7272862,0.9818129,4.5758765e-11,-3.2950273e-10,-0.1898514,3
319070813,0.6863011,-0.0034062178,0.002426827,0.7273056,0.9818129,4.5758765e-11,-3.2950273e-10,-0.1898514,3
319075890,0.68630046,-0.0034027516,0.002403547,0.7273063,0.9818129,4.5758765e-11,-3.2950273e-10,-0.1898514,3
319080957,0.68631744,-0.0034037756,0.0024074456,0.7272903,0.9818129,4.5758765e-11,-3.2950273e-10,-0.1898514,3
319086025,0.6863087,-0.003406721,0.00243506,0.7272984,0.9818129,4.5758765e-11,-3.2950273e-10,-0.1898514,3
319091112,0.6862958,-0.0034059987,0.0024283177,0.72731054,0.9818129,4.5758765e-11,-3.2950273e-10,-0.1898514,3
319096176,0.68631095,-0.0034003183,0.002401975,0.72729635,0.9818129,4.5758765e-11,-3.2950273e-10,-0.1898514,3
319101258,0.68631643,-0.0034000338,0.0024159513,0.72729117,0.9818129,4.5758765e-11,-3.2950273e-10,-0.1898514,3
319106332,0.68630207,-0.0034072401,0.0024433313,0.72730464,0.9818129,4.5758765e-11,-3.2950273e-10,-0.1898514,3
319111412,0.68630236,-0.0034076709,0.002428575,0.72730434,0.9818129,4.5758765e-11,-3.2950273e-10,-0.1898514,3
319126811,0.6863018,-0.0034166658,0.002440606,0.72730476,0.9818129,4.5758765e-11,-3.2950273e-10,-0.1898514,3
319131748,0.68630856,-0.0034099137,0.0024220909,0.72729856,0.9818129,4.5758765e-11,-3.2950273e-10,-0.1898514,3
319136802,0.68632114,-0.00339888,0.0023976692,0.7272868,0.9818129,4.5758765e-11,-3.2950273e-10,-0.1898514,3
319141857,0.68630844,-0.003403372,0.0024157516,0.72729874,0.9818129,4.5758765e-11,-3.2950273e-10,-0.1898514,3
319146920,0.6863058,-0.003422154,0.0024258115,0.72730106,0.9818129,4.5758765e-11,-3.2950273e-10,-0.1898514,3
319152011,0.6863128,-0.003414169,0.0024074183,0.72729456,0.9818129,4.5758765e-11,-3.2950273e-10,-0.1898514,3
319157079,0.68632096,-0.003391746,0.0024027554,0.72728693,0.9818129,4.5758765e-11,-3.2950273e-10,-0.1898514,3
319162157,0.686317,-0.0034015896,0.0024160026,0.72729063,0.9818129,4.5758765e-11,-3.2950273e-10,-0.1898514,3
319167218,0.68631136,-0.0034189345,0.0024225987,0.7272959,0.9818129,4.5758765e-11,-3.2950273e-10,-0.1898514,3
319172321,0.6863136,-0.003405113,0.0024135131,0.72729385,0.9818129,4.5758765e-11,-3.2950273e-10,-0.1898514,3
319177371,0.68632174,-0.0033925858,0.0024137346,0.7272862,0.9818129,4.5758765e-11,-3.2950273e-10,-0.1898514,3
319182453,0.6863195,-0.003404403,0.0024202012,0.72728825,0.9818129,4.5758765e-11,-3.2950273e-10,-0.1898514,3
319187516,0.6863156,-0.003415693,0.0024152896,0.7272919,0.9818129,4.5758765e-11,-3.2950273e-10,-0.1898514,3
319192602,0.6863138,-0.003396543,0.0024146258,0.72729367,0.9818129,4.5758765e-11,-3.2950273e-10,-0.1898514,3
319197665,0.6863186,-0.0033849226,0.0024218059,0.72728914,0.9818129,4.5758765e-11,-3.2950273e-10,-0.1898514,3
319203003,0.68632895,-0.0033983653,0.0024104929,0.7272793,0.9818129,4.5758765e-11,-3.2950273e-10,-0.1898514,3
319207946,0.6863197,-0.0034150083,0.0024057857,0.727288,0.9818129,4.5758765e-11,-3.2950273e-10,-0.1898514,3
319212951,0.6863073,-0.0034025728,0.002412946,0.7272998,0.9818129,4.5758765e-11,-3.2950273e-10,-0.1898514,3
319228112,0.68631864,-0.00340755,0.0023961628,0.72728914,0.9818129,4.5758765e-11,-3.2950273e-10,-0.1898514,3
319233190,0.6863082,-0.0034042816,0.0024115923,0.727299,0.9818129,4.5758765e-11,-3.2950273e-10,-0.1898514,3
319238280,0.686332,-0.0033969826,0.0024075357,0.7272765,0.9818129,4.5758765e-11,-3.2950273e-10,-0.1898514,3
319243336,0.68634105,-0.0034049312,0.0023923295,0.727268,0.9818129,4.5758765e-11,-3.2950273e-10,-0.1898514,3
319248413,0.68631876,-0.003419569,0.0023936697,0.7272889,0.9818129,4.5758765e-11,-3.2950273e-10,-0.1898514,3
319253488,0.6863071,-0.0034090518,0.0024077175,0.7272999,0.9818129,4.5758765e-11,-3.2950273e-10,-0.1898514,3
319258564,0.6863288,-0.003395122,0.0024072197,0.72727954,0.9818129,4.5758765e-11,-3.2950273e-10,-0.1898514,3
319263647,0.6863383,-0.0033968438,0.0023950937,0.72727054,0.9818129,4.5758765e-11,-3.2950273e-10,-0.1898514,3
319268709,0.68631387,-0.0034069726,0.002395104,0.72729367,0.9818129,4.5758765e-11,-3.2950273e-10,-0.1898514,3
319273788,0.68630594,-0.0034046988,0.0023984686,0.72730106,0.9818129,4.5758765e-11,-3.2950273e-10,-0.1898514,3
319278874,0.6863318,-0.0033882237,0.0023964366,0.7272768,0.9818129,4.5758765e-11,-3.2950273e-10,-0.1898514,3
319284156,0.6863382,-0.003393127,0.0023988616,0.7272708,0.9818129,4.5758765e-11,-3.2950273e-10,-0.1898514,3
319289198,0.68631727,-0.0034037577,0.0023996711,0.7272904,0.9818129,4.5758765e-11,-3.2950273e-10,-0.1898514,3
319294160,0.68631166,-0.003397811,0.0023942946,0.7272957,0.9818129,4.5758765e-11,-3.2950273e-10,-0.1898514,3
319299195,0.68633574,-0.0033886319,0.0023968082,0.727273,0.9818129,4.5758765e-11,-3.2950273e-10,-0.1898514,3
319304291,0.6863354,-0.0033962848,0.0024081825,0.72727334,0.9818129,4.5758765e-11,-3.2950273e-10,-0.1898514,3
319319463,0.68632925,-0.0033933395,0.0023982741,0.72727925,0.9818129,4.5758765e-11,-3.2950273e-10,-0.1898514,3
319324537,0.68632877,-0.003403657,0.0024132936,0.7272795,0.9818129,4.5758765e-11,-3.2950273e-10,-0.1898514,3
319329615,0.6863208,-0.0034095272,0.0023934848,0.7272871,0.9818129,4.5758765e-11,-3.2950273e-10,-0.1898514,3
319334694,0.68632096,-0.0034005726,0.0023753613,0.727287,0.9818129,4.5758765e-11,-3.2950273e-10,-0.1898514,3
319339755,0.6863249,-0.0033986815,0.0023942804,0.72728324,0.9818129,4.5758765e-11,-3.2950273e-10,-0.1898514,3
319344827,0.686327,-0.0034090397,0.002414552,0.72728115,0.9818129,4.5758765e-11,-3.2950273e-10,-0.1898514,3
319349905,0.68632233,-0.003402445,0.0023895684,0.7272857,0.9818129,4.5758765e-11,-3.2950273e-10,-0.1898514,3
319354983,0.6863219,-0.0033868863,0.0023758365,0.72728616,0.9818129,4.5758765e-11,-3.2950273e-10,-0.1898514,3
319360053,0.68632454,-0.003390798,0.0024068793,0.72728354,0.9818129,4.5758765e-11,-3.2950273e-10,-0.1898514,3
319385427,0.686324,-0.0034072036,0.002403456,0.72728395,0.9818129,4.5758765e-11,-3.2950273e-10,-0.1898514,3
319390507,0.6863263,-0.0033908011,0.0023829169,0.7272819,0.9818129,4.5758765e-11,-3.2950273e-10,-0.1898514,3
319395581,0.68632954,-0.003390315,0.0023831972,0.7272789,0.9818129,4.5758765e-11,-3.2950273e-10,-0.1898514,3
319400657,0.6863278,-0.00340716,0.002404033,0.72728044,0.9818129,4.5758765e-11,-3.2950273e-10,-0.1898514,3
319405721,0.6863255,-0.00340741,0.0024052144,0.72728264,0.9818129,4.5758765e-11,-3.2950273e-10,-0.1898514,3
319410799,0.6863276,-0.003394775,0.0023891528,0.7272808,0.9818129,4.5758765e-11,-3.2950273e-10,-0.1898514,3
319415882,0.68632585,-0.0033982706,0.0023877209,0.7272824,0.9818129,4.5758765e-11,-3.2950273e-10,-0.1898514,3
319420948,0.6863268,-0.0034145075,0.002399434,0.7272814,0.9818129,4.5758765e-11,-3.2950273e-10,-0.1898514,3
319431101,0.68632275,-0.0033987006,0.0023927558,0.7272853,0.9818129,4.5758765e-11,-3.2950273e-10,-0.1898514,3
319436174,0.68633264,-0.003402374,0.0023942776,0.72727597,0.9818129,4.5758765e-11,-3.2950273e-10,-0.1898514,3
319441307,0.68633205,-0.0034127976,0.0023989177,0.72727644,0.9818129,4.5758765e-11,-3.2950273e-10,-0.1898514,3
319446588,0.6863175,-0.0034174582,0.002404783,0.72729015,0.9818129,4.5758765e-11,-3.2950273e-10,-0.1898514,3
319451587,0.6863225,-0.0034081212,0.00240537,0.72728544,0.9818129,4.5758765e-11,-3.2950273e-10,-0.1898514,3
319456615,0.6863393,-0.0033990422,0.0023988476,0.72726965,0.9818129,4.5758765e-11,-3.2950273e-10,-0.1898514,3
319461612,0.6863402,-0.0034070138,0.0023997324,0.72726876,0.9818129,4.5758765e-11,-3.2950273e-10,-0.1898514,3
319466618,0.68632764,-0.0034189236,0.0024086877,0.7272805,0.9818129,4.5758765e-11,-3.2950273e-10,-0.1898514,3
319471693,0.68633056,-0.003408527,0.002416018,0.72727776,0.9818129,4.5758765e-11,-3.2950273e-10,-0.1898514,3
319476768,0.68634534,-0.0033915394,0.002403709,0.7272639,0.9818129,4.5758765e-11,-3.2950273e-10,-0.1898514,3
319481850,0.6863406,-0.0033964214,0.002398593,0.7272684,0.9818129,4.5758765e-11,-3.2950273e-10,-0.1898514,3
319486914,0.68631935,-0.0034136304,0.0024090847,0.7272883,0.9818129,4.5758765e-11,-3.2950273e-10,-0.1898514,3
319492013,0.6863247,-0.0034042036,0.0024133907,0.7272833,0.9818129,4.5758765e-11,-3.2950273e-10,-0.1898514,3
319497075,0.68634623,-0.0033812614,0.002401471,0.7272631,0.9818129,4.5758765e-11,-3.2950273e-10,-0.1898514,3
319502140,0.68633926,-0.0033921977,0.0023996893,0.7272697,0.9818129,4.5758765e-11,-3.2950273e-10,-0.1898514,3
319507233,0.6863194,-0.0034103673,0.0024133928,0.72728837,0.9818129,4.5758765e-11,-3.2950273e-10,-0.1898514,3
319537769,0.68634737,-0.0033878672,0.002415929,0.727262,0.9818129,4.5758765e-11,-3.2950273e-10,-0.1898514,3
319542778,0.68634295,-0.0034162882,0.0024192403,0.7272661,0.9818129,4.5758765e-11,-3.2950273e-10,-0.1898514,3
319547809,0.68632835,-0.0034255493,0.0024136484,0.7272798,0.9818129,4.5758765e-11,-3.2950273e-10,-0.1898514,3
319552890,0.68632907,-0.0033989237,0.0024082423,0.72727925,0.9818129,4.5758765e-11,-3.2950273e-10,-0.1898514,3
319557964,0.6863476,-0.003398717,0.0024212294,0.7272617,0.9818129,4.5758765e-11,-3.2950273e-10,-0.1898514,3
319563035,0.68634677,-0.0034197164,0.0024254255,0.72726244,0.9818129,4.5758765e-11,-3.2950273e-10,-0.1898514,3
319568111,0.6863273,-0.0034199776,0.002412977,0.7272808,0.9818129,4.5758765e-11,-3.2950273e-10,-0.1898514,3
319573184,0.68632436,-0.003400472,0.0024112505,0.7272837,0.9818129,4.5758765e-11,-3.2950273e-10,-0.1898514,3
319578257,0.68634117,-0.003407299,0.0024273712,0.72726774,0.9818129,4.5758765e-11,-3.2950273e-10,-0.1898514,3
319583341,0.68634504,-0.0034278466,0.0024243344,0.727264,0.9818129,4.5758765e-11,-3.2950273e-10,-0.1898514,3
319588413,0.6863307,-0.0034172984,0.002402121,0.7272777,0.9818129,4.5758765e-11,-3.2950273e-10,-0.1898514,3
319593487,0.68633246,-0.0034038639,0.0024032167,0.7272761,0.9818129,4.5758765e-11,-3.2950273e-10,-0.1898514,3
319598554,0.6863495,-0.0034186284,0.0024246103,0.7272599,0.9818129,4.5758765e-11,-3.2950273e-10,-0.1898514,3
319603631,0.68635035,-0.003431014,0.002418026,0.727259,0.9818129,4.5758765e-11,-3.2950273e-10,-0.1898514,3
319608976,0.6863359,-0.003413215,0.0023919973,0.7272728,0.9818129,4.5758765e-11,-3.2950273e-10,-0.1898514,3
319613998,0.6863334,-0.0034092756,0.0023990644,0.72727513,0.9818129,4.5758765e-11,-3.2950273e-10,-0.1898514,3
319618951,0.6863514,-0.0034260575,0.0024184927,0.72725797,0.9818129,4.5758765e-11,-3.2950273e-10,-0.1898514,3
319624030,0.68634784,-0.0034243178,0.002420377,0.7272614,0.9818129,4.5758765e-11,-3.2950273e-10,-0.1898514,3
319629001,0.6863327,-0.0034128625,0.0023988243,0.7272758,0.9818129,4.5758765e-11,-3.2950273e-10,-0.1898514,3
319634098,0.6863379,-0.003425165,0.0024030304,0.72727084,0.9818129,4.5758765e-11,-3.2950273e-10,-0.1898514,3
319639153,0.68634814,-0.003439122,0.0024217826,0.727261,0.9818129,4.5758765e-11,-3.2950273e-10,-0.1898514,3
319644276,0.68634325,-0.0034278156,0.0024148754,0.7272657,0.9818129,4.5758765e-11,-3.2950273e-10,-0.1898514,3
319649327,0.68633294,-0.0034203778,0.0023945707,0.72727555,0.9818129,4.5758765e-11,-3.2950273e-10,-0.1898514,3
319654386,0.6863432,-0.003433621,0.0024001605,0.7272658,0.9818129,4.5758765e-11,-3.2950273e-10,-0.1898514,3
319659456,0.68634576,-0.0034403903,0.0024140924,0.72726333,0.9818129,4.5758765e-11,-3.2950273e-10,-0.1898514,3
319664534,0.6863383,-0.0034296578,0.002409917,0.7272704,0.9818129,4.5758765e-11,-3.2950273e-10,-0.1898514,3
319669602,0.68633926,-0.0034288818,0.002400302,0.72726953,0.9818129,4.5758765e-11,-3.2950273e-10,-0.1898514,3
319674672,0.68634707,-0.003441123,0.0024022348,0.7272621,0.9818129,4.5758765e-11,-3.2950273e-10,-0.1898514,3
319679747,0.68634087,-0.0034432448,0.0024154086,0.72726786,0.9818129,4.5758765e-11,-3.2950273e-10,-0.1898514,3
319684829,0.6863345,-0.0034376595,0.0024122316,0.727274,0.9818129,4.5758765e-11,-3.2950273e-10,-0.1898514,3
319689907,0.6863442,-0.0034369405,0.0023986895,0.7272648,0.9818129,4.5758765e-11,-3.2950273e-10,-0.1898514,3
319695164,0.6863515,-0.003432128,0.002398977,0.727258,0.9818129,4.5758765e-11,-3.2950273e-10,-0.1898514,3
319700209,0.6863394,-0.0034360045,0.0024126046,0.7272693,0.9818129,4.5758765e-11,-3.2950273e-10,-0.1898514,3
319705193,0.6863324,-0.0034423668,0.002420629,0.72727585,0.9818129,4.5758765e-11,-3.2950273e-10,-0.1898514,3
319710196,0.6863448,-0.003433435,0.0024119266,0.7272642,0.9818129,4.5758765e-11,-3.2950273e-10,-0.1898514,3
319715288,0.68635154,-0.003422969,0.002405096,0.7272579,0.9818129,4.5758765e-11,-3.2950273e-10,-0.1898514,3
319720365,0.68633896,-0.0034388448,0.0024188485,0.72726965,0.9818129,4.5758765e-11,-3.2950273e-10,-0.1898514,3
319725422,0.6863349,-0.0034495117,0.0024297344,0.72727346,0.9818129,4.5758765e-11,-3.2950273e-10,-0.1898514,3
319730501,0.6863494,-0.0034303686,0.002422371,0.72725993,0.9818129,4.5758765e-11,-3.2950273e-10,-0.1898514,3
319735566,0.6863496,-0.0034190302,0.0024130896,0.7272599,0.9818129,4.5758765e-11,-3.2950273e-10,-0.1898514,3
319740649,0.6863378,-0.0034408125,0.0024238026,0.7272707,0.9818129,4.5758765e-11,-3.2950273e-10,-0.1898514,3
319745716,0.6863339,-0.0034505916,0.0024302101,0.7272744,0.9818129,4.5758765e-11,-3.2950273e-10,-0.1898514,3
319750811,0.68634486,-0.0034244861,0.0024180864,0.7272642,0.9818129,4.5758765e-11,-3.2950273e-10,-0.1898514,3
319755889,0.68634814,-0.0034155138,0.00241157,0.7272612,0.9818129,4.5758765e-11,-3.2950273e-10,-0.1898514,3
319796465,0.6863414,-0.0034328154,0.002405447,0.72726744,0.9818129,4.5758765e-11,-3.2950273e-10,-0.1898514,3
319801538,0.6863348,-0.0034605588,0.0024013668,0.7272736,0.9818129,4.5758765e-11,-3.2950273e-10,-0.1898514,3
319806619,0.6863211,-0.003448429,0.002402382,0.7272866,0.9818129,4.5758765e-11,-3.2950273e-10,-0.1898514,3
319811690,0.68632436,-0.0034212875,0.0024070246,0.7272836,0.9818129,4.5758765e-11,-3.2950273e-10,-0.1898514,3
319816764,0.6863453,-0.0034392632,0.0024072304,0.7272638,0.9818129,4.5758765e-11,-3.2950273e-10,-0.1898514,3
319821836,0.68633837,-0.0034561397,0.0024011843,0.72727025,0.9818129,4.5758765e-11,-3.2950273e-10,-0.1898514,3
319826908,0.686314,-0.0034398977,0.0024020781,0.7272934,0.9818129,4.5758765e-11,-3.2950273e-10,-0.1898514,3
319831983,0.6863235,-0.0034215683,0.002412623,0.7272844,0.9818129,4.5758765e-11,-3.2950273e-10,-0.1898514,3
319837060,0.6863503,-0.0034360932,0.0024134906,0.72725904,0.9818129,4.5758765e-11,-3.2950273e-10,-0.1898514,3
319842139,0.6863372,-0.0034407754,0.0024045517,0.7272714,0.9818129,4.5758765e-11,-3.2950273e-10,-0.1898514,3
319847209,0.686309,-0.0034258135,0.0023992022,0.7272981,0.9818129,4.5758765e-11,-3.2950273e-10,-0.1898514,3
319852321,0.68632793,-0.003424917,0.002410173,0.7272802,0.9818129,4.5758765e-11,-3.2950273e-10,-0.1898514,3
319857626,0.6863501,-0.003435749,0.0024121446,0.7272592,0.9818129,4.5758765e-11,-3.2950273e-10,-0.1898514,3
319862575,0.68633074,-0.0034287302,0.0023994164,0.72727764,0.9818129,4.5758765e-11,-3.2950273e-10,-0.1898514,3
319867556,0.6863137,-0.0034260354,0.0023865527,0.7272938,0.9818129,4.5758765e-11,-3.2950273e-10,-0.1898514,3
319872582,0.68633366,-0.0034351624,0.0023963263,0.72727484,0.9818129,4.5758765e-11,-3.2950273e-10,-0.1898514,3
319877656,0.6863479,-0.0034372276,0.0024045608,0.7272613,0.9818129,4.5758765e-11,-3.2950273e-10,-0.1898514,3
319882728,0.6863271,-0.0034240943,0.0023949293,0.72728103,0.9818129,4.5758765e-11,-3.2950273e-10,-0.1898514,3
319897952,0.6863418,-0.0034202877,0.002408139,0.7272671,0.9818129,4.5758765e-11,-3.2950273e-10,-0.1898514,3
319903028,0.68631977,-0.0034125666,0.0023965493,0.727288,0.9818129,4.5758765e-11,-3.2950273e-10,-0.1898514,3
319908115,0.6863242,-0.0034179238,0.0023804326,0.72728384,0.9818129,4.5758765e-11,-3.2950273e-10,-0.1898514,3
319913175,0.6863412,-0.0034168628,0.0023939817,0.7272678,0.9818129,4.5758765e-11,-3.2950273e-10,-0.1898514,3
319918260,0.6863353,-0.0034074609,0.002415974,0.72727334,0.9818129,4.5758765e-11,-3.2950273e-10,-0.1898514,3
319923332,0.68632495,-0.0034066485,0.0024117683,0.72728306,0.9818129,4.5758765e-11,-3.2950273e-10,-0.1898514,3
319928399,0.68634063,-0.0034136018,0.0023958464,0.7272683,0.9818129,4.5758765e-11,-3.2950273e-10,-0.1898514,3
319933474,0.68634087,-0.0034125873,0.0024111664,0.7272681,0.9818129,4.5758765e-11,-3.2950273e-10,-0.1898514,3
319938763,0.6863293,-0.0034138642,0.0024238115,0.72727895,0.9818129,4.5758765e-11,-3.2950273e-10,-0.1898514,3
319943802,0.68633157,-0.0034166707,0.0024104216,0.72727674,0.9818129,4.5758765e-11,-3.2950273e-10,-0.1898514,3
319948761,0.6863437,-0.0034075198,0.0023932045,0.7272655,0.9818129,4.5758765e-11,-3.2950273e-10,-0.1898514,3
319953766,0.68633896,-0.0034027814,0.002405831,0.72726995,0.9818129,4.5758765e-11,-3.2950273e-10,-0.1898514,3
319958849,0.6863265,-0.0034112006,0.0024251603,0.7272816,0.9818129,4.5758765e-11,-3.2950273e-10,-0.1898514,3
319963931,0.686337,-0.003409726,0.002417163,0.72727174,0.9818129,4.5758765e-11,-3.2950273e-10,-0.1898514,3
319968995,0.68635106,-0.0033882163,0.0023989815,0.7272586,0.9818129,4.5758765e-11,-3.2950273e-10,-0.1898514,3
319974080,0.6863378,-0.0033873387,0.0024136996,0.727271,0.9818129,4.5758765e-11,-3.2950273e-10,-0.1898514,3
319979147,0.6863278,-0.0034060983,0.0024285705,0.7272804,0.9818129,4.5758765e-11,-3.2950273e-10,-0.1898514,3
319984255,0.68633884,-0.003398475,0.002414961,0.72727,0.9818129,4.5758765e-11,-3.2950273e-10,-0.1898514,3
319989305,0.68634707,-0.0033696794,0.0024054756,0.72726244,0.9818129,4.5758765e-11,-3.2950273e-10,-0.1898514,3
319994375,0.6863351,-0.0033748902,0.0024130116,0.7272737,0.9818129,4.5758765e-11,-3.2950273e-10,-0.1898514,3
319999445,0.686331,-0.0034048741,0.0024193022,0.72727746,0.9818129,4.5758765e-11,-3.2950273e-10,-0.1898514,3
320004519,0.68633866,-0.0033892596,0.002412418,0.72727025,0.9818129,4.5758765e-11,-3.2950273e-10,-0.1898514,3
320009600,0.686339,-0.0033630007,0.0024090954,0.72727,0.9818129,4.5758765e-11,-3.2950273e-10,-0.1898514,3
320014672,0.68633306,-0.0033851145,0.002408431,0.7272755,0.9818129,4.5758765e-11,-3.2950273e-10,-0.1898514,3
320019997,0.6863344,-0.0034189848,0.0024113508,0.7272741,0.9818129,4.5758765e-11,-3.2950273e-10,-0.1898514,3
320025012,0.6863318,-0.003400967,0.002415536,0.7272767,0.9818129,4.5758765e-11,-3.2950273e-10,-0.1898514,3
320030019,0.6863332,-0.0033764648,0.0024130412,0.7272755,0.9818129,4.5758765e-11,-3.2950273e-10,-0.1898514,3
320034962,0.6863397,-0.0034014795,0.0024074274,0.7272693,0.9818129,4.5758765e-11,-3.2950273e-10,-0.1898514,3
320040039,0.686332,-0.0034224181,0.0024068544,0.72727644,0.9818129,4.5758765e-11,-3.2950273e-10,-0.1898514,3
320045124,0.6863205,-0.003395614,0.0024139215,0.72728735,0.9818129,4.5758765e-11,-3.2950273e-10,-0.1898514,3
320050207,0.6863339,-0.00338058,0.002411815,0.72727484,0.9818129,4.5758765e-11,-3.2950273e-10,-0.1898514,3
320055277,0.6863476,-0.003408451,0.0024061566,0.7272618,0.9818129,4.5758765e-11,-3.2950273e-10,-0.1898514,3
320060356,0.6863312,-0.0034162358,0.0024073233,0.72727716,0.9818129,4.5758765e-11,-3.2950273e-10,-0.1898514,3
320065414,0.6863146,-0.0033860342,0.00241929,0.727293,0.9818129,4.5758765e-11,-3.2950273e-10,-0.1898514,3
320070486,0.6863355,-0.0033788995,0.0024218922,0.7272733,0.9818129,4.5758765e-11,-3.2950273e-10,-0.1898514,3
320075592,0.686355,-0.0033997828,0.002415461,0.7272548,0.9818129,4.5758765e-11,-3.2950273e-10,-0.1898514,3
320080644,0.68633044,-0.0033985346,0.0024127741,0.727278,0.9818129,4.5758765e-11,-3.2950273e-10,-0.1898514,3
320085709,0.68631494,-0.0033802185,0.0024216531,0.72729266,0.9818129,4.5758765e-11,-3.2950273e-10,-0.1898514,3
320090813,0.6863468,-0.0033792537,0.00242552,0.72726256,0.9818129,4.5758765e-11,-3.2950273e-10,-0.1898514,3
320095865,0.68635905,-0.0033905413,0.0024149837,0.72725105,0.9818129,4.5758765e-11,-3.2950273e-10,-0.1898514,3
320100945,0.6863213,-0.0033808139,0.0024199057,0.72728664,0.9818129,4.5758765e-11,-3.2950273e-10,-0.1898514,3
320106239,0.68631756,-0.0033714229,0.0024228734,0.72729015,0.9818129,4.5758765e-11,-3.2950273e-10,-0.1898514,3
320111202,0.6863529,-0.003376819,0.0024221726,0.7272568,0.9818129,4.5758765e-11,-3.2950273e-10,-0.1898514,3
320116249,0.68635195,-0.0033790648,0.0024268487,0.7272577,0.9818129,4.5758765e-11,-3.2950273e-10,-0.1898514,3
320121240,0.6863176,-0.0033743135,0.0024222059,0.7272901,0.9818129,4.5758765e-11,-3.2950273e-10,-0.1898514,3
320126308,0.68632627,-0.0033858095,0.0024165309,0.7272819,0.9818129,4.5758765e-11,-3.2950273e-10,-0.1898514,3
320131386,0.6863538,-0.0033867764,0.0024246909,0.72725594,0.9818129,4.5758765e-11,-3.2950273e-10,-0.1898514,3
320136454,0.68634564,-0.003378951,0.00243066,0.7272637,0.9818129,4.5758765e-11,-3.2950273e-10,-0.1898514,3
320141532,0.6863244,-0.003384363,0.00241571,0.7272837,0.9818129,4.5758765e-11,-3.2950273e-10,-0.1898514,3
320146604,0.6863415,-0.003392177,0.0024049347,0.72726756,0.9818129,4.5758765e-11,-3.2950273e-10,-0.1898514,3
320151681,0.68636054,-0.0033828013,0.0024205619,0.7272496,0.9818129,4.5758765e-11,-3.2950273e-10,-0.1898514,3
320156761,0.68634516,-0.0033742157,0.0024269163,0.72726417,0.9818129,4.5758765e-11,-3.2950273e-10,-0.1898514,3
320161829,0.6863368,-0.0033792488,0.0024069299,0.7272721,0.9818129,4.5758765e-11,-3.2950273e-10,-0.1898514,3
320166907,0.6863536,-0.003381803,0.002397813,0.72725624,0.9818129,4.5758765e-11,-3.2950273e-10,-0.1898514,3
320171976,0.68635696,-0.0033755228,0.0024218753,0.727253,0.9818129,4.5758765e-11,-3.2950273e-10,-0.1898514,3
320177062,0.68634355,-0.003374417,0.0024285,0.72726566,0.9818129,4.5758765e-11,-3.2950273e-10,-0.1898514,3
320182328,0.6863462,-0.0033772443,0.002395432,0.7272632,0.9818129,4.5758765e-11,-3.2950273e-10,-0.1898514,3
320202426,0.6863551,-0.0033727905,0.00239148,0.72725487,0.9818129,4.5758765e-11,-3.2950273e-10,-0.1898514,3
320207498,0.68635756,-0.003361959,0.002388254,0.7272526,0.9818129,4.5758765e-11,-3.2950273e-10,-0.1898514,3
320212577,0.68634236,-0.0033681297,0.0024108004,0.72726685,0.9818129,4.5758765e-11,-3.2950273e-10,-0.1898514,3
320217647,0.686348,-0.003386497,0.0024065734,0.7272614,0.9818129,4.5758765e-11,-3.2950273e-10,-0.1898514,3
320222731,0.686362,-0.0033738012,0.0023850354,0.7272483,0.9818129,4.5758765e-11,-3.2950273e-10,-0.1898514,3
320227805,0.6863574,-0.003363591,0.0023849003,0.7272528,0.9818129,4.5758765e-11,-3.2950273e-10,-0.1898514,3
320232876,0.6863442,-0.0033787363,0.0024003852,0.7272651,0.9818129,4.5758765e-11,-3.2950273e-10,-0.1898514,3
320237948,0.6863518,-0.0033958356,0.0023939458,0.72725797,0.9818129,4.5758765e-11,-3.2950273e-10,-0.1898514,3
320243020,0.6863624,-0.0033799396,0.0023821439,0.7272481,0.9818129,4.5758765e-11,-3.2950273e-10,-0.1898514,3
320248096,0.6863565,-0.0033657665,0.0023843993,0.7272537,0.9818129,4.5758765e-11,-3.2950273e-10,-0.1898514,3
320253174,0.6863477,-0.0033915748,0.00239472,0.7272618,0.9818129,4.5758765e-11,-3.2950273e-10,-0.1898514,3
320258249,0.68635416,-0.003400996,0.002389795,0.72725564,0.9818129,4.5758765e-11,-3.2950273e-10,-0.1898514,3
320263623,0.6863565,-0.0033662014,0.002389055,0.72725356,0.9818129,4.5758765e-11,-3.2950273e-10,-0.1898514,3
320268659,0.6863516,-0.0033570286,0.0023914417,0.72725827,0.9818129,4.5758765e-11,-3.2950273e-10,-0.1898514,3
320273594,0.68635625,-0.0033848588,0.0023891295,0.7272538,0.9818129,4.5758765e-11,-3.2950273e-10,-0.1898514,3
320278582,0.68635255,-0.003383571,0.0023939337,0.7272572,0.9818129,4.5758765e-11,-3.2950273e-10,-0.1898514,3
320283619,0.68635124,-0.0033536926,0.0024031964,0.7272586,0.9818129,4.5758765e-11,-3.2950273e-10,-0.1898514,3
320288699,0.68635654,-0.003353726,0.0023928445,0.7272536,0.9818129,4.5758765e-11,-3.2950273e-10,-0.1898514,3
320303917,0.68634415,-0.0033590028,0.0024065475,0.72726524,0.9818129,4.5758765e-11,-3.2950273e-10,-0.1898514,3
320309018,0.6863705,-0.0033672627,0.0023937095,0.7272404,0.9818129,4.5758765e-11,-3.2950273e-10,-0.1898514,3
320314063,0.6863712,-0.003393697,0.0023895744,0.7272396,0.9818129,4.5758765e-11,-3.2950273e-10,-0.1898514,3
320319140,0.68634295,-0.0033814325,0.002401832,0.72726625,0.9818129,4.5758765e-11,-3.2950273e-10,-0.1898514,3
320324248,0.68634796,-0.0033620212,0.0024072838,0.72726166,0.9818129,4.5758765e-11,-3.2950273e-10,-0.1898514,3
320329308,0.68638045,-0.0033739074,0.0023892717,0.7272309,0.9818129,4.5758765e-11,-3.2950273e-10,-0.1898514,3
320334361,0.68636984,-0.0033849585,0.0023920867,0.72724086,0.9818129,4.5758765e-11,-3.2950273e-10,-0.1898514,3
320339438,0.6863421,-0.0033791694,0.0024028074,0.7272671,0.9818129,4.5758765e-11,-3.2950273e-10,-0.1898514,3
320344524,0.6863558,-0.0033697286,0.002406905,0.72725415,0.9818129,4.5758765e-11,-3.2950273e-10,-0.1898514,3
320349772,0.6863862,-0.0033696024,0.0023975468,0.7272255,0.9818129,4.5758765e-11,-3.2950273e-10,-0.1898514,3
320354801,0.6863685,-0.0033756613,0.0024016153,0.7272422,0.9818129,4.5758765e-11,-3.2950273e-10,-0.1898514,3
320359814,0.68633866,-0.0033746592,0.0024076558,0.7272703,0.9818129,4.5758765e-11,-3.2950273e-10,-0.1898514,3
320364828,0.6863599,-0.0033671989,0.0024079941,0.7272503,0.9818129,4.5758765e-11,-3.2950273e-10,-0.1898514,3
320369890,0.6863875,-0.0033649486,0.002408764,0.72722423,0.9818129,4.5758765e-11,-3.2950273e-10,-0.1898514,3
320374965,0.68636566,-0.0033653923,0.0024164554,0.72724485,0.9818129,4.5758765e-11,-3.2950273e-10,-0.1898514,3
320380032,0.6863452,-0.0033688184,0.0024117923,0.7272641,0.9818129,4.5758765e-11,-3.2950273e-10,-0.1898514,3
320385119,0.6863712,-0.0033672913,0.002408876,0.7272396,0.9818129,4.5758765e-11,-3.2950273e-10,-0.1898514,3
320390194,0.6863869,-0.003366229,0.0024204857,0.7272249,0.9818129,4.5758765e-11,-3.2950273e-10,-0.1898514,3
320395257,0.6863643,-0.003374281,0.0024283763,0.72724605,0.9818129,4.5758765e-11,-3.2950273e-10,-0.1898514,3
320400332,0.6863567,-0.0033781151,0.0024017072,0.7272533,0.9818129,4.5758765e-11,-3.2950273e-10,-0.1898514,3
320405404,0.68637663,-0.003372447,0.0024045948,0.72723454,0.9818129,4.5758765e-11,-3.2950273e-10,-0.1898514,3
320410489,0.68637913,-0.0033731037,0.0024253891,0.7272321,0.9818129,4.5758765e-11,-3.2950273e-10,-0.1898514,3
320415554,0.686363,-0.0033763149,0.0024180214,0.7272473,0.9818129,4.5758765e-11,-3.2950273e-10,-0.1898514,3
320420638,0.6863706,-0.0033812223,0.002388384,0.7272402,0.9818129,4.5758765e-11,-3.2950273e-10,-0.1898514,3
320425717,0.6863769,-0.0033738713,0.0024004462,0.72723424,0.9818129,4.5758765e-11,-3.2950273e-10,-0.1898514,3
320431048,0.68637294,-0.0033793584,0.0024285507,0.7272379,0.9818129,4.5758765e-11,-3.2950273e-10,-0.1898514,3
320435980,0.6863727,-0.0033833666,0.002414535,0.7272382,0.9818129,4.5758765e-11,-3.2950273e-10,-0.1898514,3
320441049,0.6863766,-0.0033751943,0.002388034,0.72723466,0.9818129,4.5758765e-11,-3.2950273e-10,-0.1898514,3
320446002,0.6863757,-0.0033728608,0.0024082013,0.72723544,0.9818129,4.5758765e-11,-3.2950273e-10,-0.1898514,3
320451080,0.686372,-0.0033880805,0.0024354728,0.7272387,0.9818129,4.5758765e-11,-3.2950273e-10,-0.1898514,3
320456152,0.6863776,-0.0033881138,0.0024147453,0.7272335,0.9818129,4.5758765e-11,-3.2950273e-10,-0.1898514,3
320461236,0.686383,-0.0033764627,0.0023918322,0.7272285,0.9818129,4.5758765e-11,-3.2950273e-10,-0.1898514,3
320466310,0.6863764,-0.003373981,0.0024187197,0.7272347,0.9818129,4.5758765e-11,-3.2950273e-10,-0.1898514,3
320471376,0.68637705,-0.003392897,0.0024334327,0.727234,0.9818129,4.5758765e-11,-3.2950273e-10,-0.1898514,3
320476457,0.6863871,-0.0033868926,0.002413211,0.7272246,0.9818129,4.5758765e-11,-3.2950273e-10,-0.1898514,3
320481522,0.6863899,-0.0033701537,0.0023964483,0.727222,0.9818129,4.5758765e-11,-3.2950273e-10,-0.1898514,3
320486600,0.68638134,-0.0033770727,0.0024140105,0.72723,0.9818129,4.5758765e-11,-3.2950273e-10,-0.1898514,3
320491704,0.6863844,-0.0033969223,0.0024232145,0.72722703,0.9818129,4.5758765e-11,-3.2950273e-10,-0.1898514,3
320496749,0.6863901,-0.0033886372,0.0024079818,0.7272217,0.9818129,4.5758765e-11,-3.2950273e-10,-0.1898514,3
320501826,0.6863865,-0.003369959,0.002398473,0.72722524,0.9818129,4.5758765e-11,-3.2950273e-10,-0.1898514,3
320506917,0.6863852,-0.003381823,0.0024095823,0.7272264,0.9818129,4.5758765e-11,-3.2950273e-10,-0.1898514,3
320512191,0.68639153,-0.0033985747,0.002407045,0.7272203,0.9818129,4.5758765e-11,-3.2950273e-10,-0.1898514,3
320517210,0.6863858,-0.003388946,0.0024029962,0.7272258,0.9818129,4.5758765e-11,-3.2950273e-10,-0.1898514,3
320522225,0.6863842,-0.0033744806,0.0024031599,0.72722733,0.9818129,4.5758765e-11,-3.2950273e-10,-0.1898514,3
320527201,0.68639463,-0.00339157,0.00240406,0.7272174,0.9818129,4.5758765e-11,-3.2950273e-10,-0.1898514,3
320532275,0.68639165,-0.0034102015,0.002401853,0.7272201,0.9818129,4.5758765e-11,-3.2950273e-10,-0.1898514,3
320537352,0.68638027,-0.003396892,0.002408848,0.72723097,0.9818129,4.5758765e-11,-3.2950273e-10,-0.1898514,3
320542417,0.68638617,-0.0033841105,0.0024096558,0.7272255,0.9818129,4.5758765e-11,-3.2950273e-10,-0.1898514,3
320547491,0.6863995,-0.0033967632,0.0024003473,0.7272128,0.9818129,4.5758765e-11,-3.2950273e-10,-0.1898514,3
320552569,0.686387,-0.0034096064,0.0024072991,0.7272245,0.9818129,4.5758765e-11,-3.2950273e-10,-0.1898514,3
320557664,0.6863767,-0.003398203,0.0024221723,0.7272343,0.9818129,4.5758765e-11,-3.2950273e-10,-0.1898514,3
320562727,0.6863921,-0.0033858335,0.0024118708,0.7272198,0.9818129,4.5758765e-11,-3.2950273e-10,-0.1898514,3
320567794,0.6864076,-0.0034004175,0.0023972662,0.7272052,0.9818129,4.5758765e-11,-3.2950273e-10,-0.1898514,3
320583013,0.68639517,-0.003393289,0.002415046,0.72721684,0.9818129,4.5758765e-11,-3.2950273e-10,-0.1898514,3
320588093,0.6864059,-0.003400513,0.0024061636,0.72720677,0.9818129,4.5758765e-11,-3.2950273e-10,-0.1898514,3
320593431,0.6863795,-0.003418656,0.0024173819,0.72723156,0.9818129,4.5758765e-11,-3.2950273e-10,-0.1898514,3
320598452,0.6863696,-0.0034067484,0.0024251114,0.7272409,0.9818129,4.5758765e-11,-3.2950273e-10,-0.1898514,3
320603380,0.6863996,-0.0033908528,0.0024129262,0.7272127,0.9818129,4.5758765e-11,-3.2950273e-10,-0.1898514,3
320608379,0.6864054,-0.0033940002,0.0024138968,0.7272072,0.9818129,4.5758765e-11,-3.2950273e-10,-0.1898514,3
320613460,0.6863737,-0.0034072567,0.0024205584,0.727237,0.9818129,4.5758765e-11,-3.2950273e-10,-0.1898514,3
320618552,0.6863744,-0.0034036683,0.0024162082,0.72723633,0.9818129,4.5758765e-11,-3.2950273e-10,-0.1898514,3
320623646,0.6864007,-0.003384368,0.0024134072,0.7272117,0.9818129,4.5758765e-11,-3.2950273e-10,-0.1898514,3
320628709,0.6864003,-0.0033903935,0.0024198839,0.727212,0.9818129,4.5758765e-11,-3.2950273e-10,-0.1898514,3
320638860,0.6863766,-0.0033943553,0.0024081706,0.7272344,0.9818129,4.5758765e-11,-3.2950273e-10,-0.1898514,3
320643915,0.68639666,-0.0033849892,0.0024164196,0.72721547,0.9818129,4.5758765e-11,-3.2950273e-10,-0.1898514,3
320648993,0.68639827,-0.0033914102,0.002429832,0.72721386,0.9818129,4.5758765e-11,-3.2950273e-10,-0.1898514,3
320654059,0.68637925,-0.0034029097,0.002414882,0.7272318,0.9818129,4.5758765e-11,-3.2950273e-10,-0.1898514,3
320659140,0.6863831,-0.003394806,0.0024016467,0.7272283,0.9818129,4.5758765e-11,-3.2950273e-10,-0.1898514,3
320664206,0.6863969,-0.003387468,0.002414945,0.7272153,0.9818129,4.5758765e-11,-3.2950273e-10,-0.1898514,3
320669304,0.6863985,-0.0033996338,0.002432599,0.7272137,0.9818129,4.5758765e-11,-3.2950273e-10,-0.1898514,3
320674592,0.6863882,-0.0033991495,0.0024054328,0.7272235,0.9818129,4.5758765e-11,-3.2950273e-10,-0.1898514,3
320679602,0.6863881,-0.0033989397,0.0023904413,0.72722363,0.9818129,4.5758765e-11,-3.2950273e-10,-0.1898514,3
320709876,0.686398,-0.003412927,0.0024267347,0.72721404,0.9818129,4.5758765e-11,-3.2950273e-10,-0.1898514,3
320714951,0.68639404,-0.003400944,0.0023999822,0.7272179,0.9818129,4.5758765e-11,-3.2950273e-10,-0.1898514,3
320720028,0.68638843,-0.0033948931,0.0023981053,0.7272233,0.9818129,4.5758765e-11,-3.2950273e-10,-0.1898514,3
320725115,0.68639153,-0.003408752,0.0024203374,0.72722024,0.9818129,4.5758765e-11,-3.2950273e-10,-0.1898514,3
320730178,0.68639565,-0.0034066318,0.0024218783,0.72721636,0.9818129,4.5758765e-11,-3.2950273e-10,-0.1898514,3
320735256,0.6863921,-0.0033914212,0.0024049948,0.72721976,0.9818129,4.5758765e-11,-3.2950273e-10,-0.1898514,3
320740346,0.68639183,-0.003392789,0.0024079625,0.72722006,0.9818129,4.5758765e-11,-3.2950273e-10,-0.1898514,3
320745406,0.6863966,-0.00340444,0.0024271237,0.7272154,0.9818129,4.5758765e-11,-3.2950273e-10,-0.1898514,3
320750472,0.68639714,-0.0034031244,0.0024280825,0.72721493,0.9818129,4.5758765e-11,-3.2950273e-10,-0.1898514,3
320755775,0.6863955,-0.0033862572,0.002412659,0.72721654,0.9818129,4.5758765e-11,-3.2950273e-10,-0.1898514,3
320760831,0.6863965,-0.0033853387,0.0024104547,0.7272157,0.9818129,4.5758765e-11,-3.2950273e-10,-0.1898514,3
320765804,0.686395,-0.0033980904,0.0024185623,0.727217,0.9818129,4.5758765e-11,-3.2950273e-10,-0.1898514,3
320770862,0.68639237,-0.0033999493,0.0024234694,0.72721946,0.9818129,4.5758765e-11,-3.2950273e-10,-0.1898514,3
320775847,0.68639416,-0.0033929532,0.0024204957,0.7272178,0.9818129,4.5758765e-11,-3.2950273e-10,-0.1898514,3
320780922,0.68640405,-0.0033899678,0.0024143723,0.72720855,0.9818129,4.5758765e-11,-3.2950273e-10,-0.1898514,3
320785994,0.6864044,-0.0034033193,0.00241589,0.7272081,0.9818129,4.5758765e-11,-3.2950273e-10,-0.1898514,3
320791085,0.6863911,-0.0034119054,0.002422672,0.72722054,0.9818129,4.5758765e-11,-3.2950273e-10,-0.1898514,3
321811072,0.6864542,-0.0033489384,0.0023156228,0.7271617,0.9818129,4.5758765e-11,-3.2950273e-10,-0.1898514,3
321816130,0.68646383,-0.0033645658,0.002332356,0.72715247,0.9818129,4.5758765e-11,-3.2950273e-10,-0.1898514,3
321821438,0.68648094,-0.0033654543,0.0023172556,0.7271363,0.9818129,4.5758765e-11,-3.2950273e-10,-0.1898514,3
321826466,0.6864678,-0.0033418979,0.0023090513,0.72714883,0.9818129,4.5758765e-11,-3.2950273e-10,-0.1898514,3
321831449,0.6864571,-0.003340185,0.0023170635,0.72715896,0.9818129,4.5758765e-11,-3.2950273e-10,-0.1898514,3
321836426,0.6864753,-0.0033616023,0.0023282208,0.72714174,0.9818129,4.5758765e-11,-3.2950273e-10,-0.1898514,3
321841509,0.6864754,-0.0033621192,0.002326804,0.7271416,0.9818129,4.5758765e-11,-3.2950273e-10,-0.1898514,3
321846595,0.68645686,-0.0033412236,0.002320448,0.72715914,0.9818129,4.5758765e-11,-3.2950273e-10,-0.1898514,3
321851665,0.68646306,-0.0033495645,0.0023142828,0.72715336,0.9818129,4.5758765e-11,-3.2950273e-10,-0.1898514,3
321856717,0.6864794,-0.003369489,0.0023199988,0.72713774,0.9818129,4.5758765e-11,-3.2950273e-10,-0.1898514,3
321861801,0.68646747,-0.0033647725,0.0023275318,0.727149,0.9818129,4.5758765e-11,-3.2950273e-10,-0.1898514,3
321866875,0.6864563,-0.0033506004,0.0023180002,0.7271597,0.9818129,4.5758765e-11,-3.2950273e-10,-0.1898514,3
321871960,0.6864727,-0.0033555373,0.002302576,0.72714424,0.9818129,4.5758765e-11,-3.2950273e-10,-0.1898514,3
321877024,0.6864722,-0.0033698496,0.0023162921,0.72714466,0.9818129,4.5758765e-11,-3.2950273e-10,-0.1898514,3
321882095,0.6864546,-0.0033683036,0.002331116,0.7271612,0.9818129,4.5758765e-11,-3.2950273e-10,-0.1898514,3
321887165,0.68645847,-0.003355312,0.00231233,0.7271577,0.9818129,4.5758765e-11,-3.2950273e-10,-0.1898514,3
321892259,0.6864782,-0.003357423,0.00229427,0.72713906,0.9818129,4.5758765e-11,-3.2950273e-10,-0.1898514,3
321897339,0.68646574,-0.0033740867,0.002310992,0.7271507,0.9818129,4.5758765e-11,-3.2950273e-10,-0.1898514,3
321902626,0.6864432,-0.0033678496,0.0023291414,0.72717196,0.9818129,4.5758765e-11,-3.2950273e-10,-0.1898514,3
321907652,0.6864603,-0.003353324,0.0023096325,0.72715586,0.9818129,4.5758765e-11,-3.2950273e-10,-0.1898514,3
321912610,0.68648154,-0.003356532,0.002303962,0.72713584,0.9818129,4.5758765e-11,-3.2950273e-10,-0.1898514,3
321917607,0.6864582,-0.0033698583,0.002325689,0.7271578,0.9818129,4.5758765e-11,-3.2950273e-10,-0.1898514,3
321922694,0.6864415,-0.0033677486,0.0023280266,0.7271735,0.9818129,4.5758765e-11,-3.2950273e-10,-0.1898514,3
321927774,0.6864665,-0.0033528951,0.0023037733,0.7271501,0.9818129,4.5758765e-11,-3.2950273e-10,-0.1898514,3
321932843,0.68647575,-0.0033514912,0.0023040206,0.7271413,0.9818129,4.5758765e-11,-3.2950273e-10,-0.1898514,3
321937910,0.686449,-0.0033712105,0.0023192705,0.72716653,0.9818129,4.5758765e-11,-3.2950273e-10,-0.1898514,3
321942984,0.6864478,-0.003368041,0.0023123329,0.72716767,0.9818129,4.5758765e-11,-3.2950273e-10,-0.1898514,3
322075053,0.6865182,-0.003359726,0.0023098555,0.7271012,0.9818129,4.5758765e-11,-3.2950273e-10,-0.1898514,3
322080084,0.6864704,-0.0033462492,0.0022948887,0.72714645,0.9818129,4.5758765e-11,-3.2950273e-10,-0.1898514,3
322085079,0.6864986,-0.0033490334,0.0022736695,0.72712,0.9818129,4.5758765e-11,-3.2950273e-10,-0.1898514,3
322090153,0.6865081,-0.0033849631,0.0022635802,0.7271108,0.9818129,4.5758765e-11,-3.2950273e-10,-0.1898514,3
322095224,0.6864735,-0.0033492637,0.0022942089,0.7271436,0.9818129,4.5758765e-11,-3.2950273e-10,-0.1898514,3
322100304,0.6865076,-0.003369656,0.0022703253,0.7271114,0.9818129,4.5758765e-11,-3.2950273e-10,-0.1898514,3
322105371,0.6865366,-0.003351482,0.002266656,0.72708404,0.9818129,4.5758765e-11,-3.2950273e-10,-0.1898514,3
322110482,0.68648136,-0.0033833494,0.0022772106,0.727136,0.9818129,4.5758765e-11,-3.2950273e-10,-0.1898514,3
322115526,0.68646747,-0.0033649842,0.002301945,0.7271492,0.9818129,4.5758765e-11,-3.2950273e-10,-0.1898514,3
322120602,0.6865343,-0.003330093,0.0022845864,0.7270863,0.9818129,4.5758765e-11,-3.2950273e-10,-0.1898514,3
322125681,0.6864965,-0.0033329295,0.0022874756,0.72712195,0.9818129,4.5758765e-11,-3.2950273e-10,-0.1898514,3
322146184,0.6864698,-0.0033116005,0.0022924198,0.7271473,0.9818129,4.5758765e-11,-3.2950273e-10,-0.1898514,3
322151311,0.6864942,-0.0033331085,0.0022796944,0.72712415,0.9818129,4.5758765e-11,-3.2950273e-10,-0.1898514,3
322156217,0.68648,-0.003329373,0.0022966496,0.72713757,0.9818129,4.5758765e-11,-3.2950273e-10,-0.1898514,3
322161243,0.68647116,-0.0033108413,0.0022976159,0.72714597,0.9818129,4.5758765e-11,-3.2950273e-10,-0.1898514,3
322166257,0.68649095,-0.0033188432,0.0022764371,0.7271273,0.9818129,4.5758765e-11,-3.2950273e-10,-0.1898514,3
322171340,0.68646914,-0.0033330359,0.0023116386,0.7271477,0.9818129,4.5758765e-11,-3.2950273e-10,-0.1898514,3
322288057,0.6865033,-0.0033481868,0.0022611646,0.72711545,0.9818129,4.5758765e-11,-3.2950273e-10,-0.1898514,3
322293135,0.6864919,-0.0033119256,0.0023094888,0.72712624,0.9818129,4.5758765e-11,-3.2950273e-10,-0.1898514,3
322298204,0.6864953,-0.0033343998,0.0023076527,0.7271229,0.9818129,4.5758765e-11,-3.2950273e-10,-0.1898514,3
322303316,0.6865143,-0.0033120594,0.002312917,0.72710514,0.9818129,4.5758765e-11,-3.2950273e-10,-0.1898514,3
322308355,0.68647844,-0.0033025085,0.0023015973,0.7271391,0.9818129,4.5758765e-11,-3.2950273e-10,-0.1898514,3
322313666,0.6865054,-0.0033254775,0.0023309076,0.7271135,0.9818129,4.5758765e-11,-3.2950273e-10,-0.1898514,3
322318667,0.68651783,-0.0033338072,0.0023327894,0.7271016,0.9818129,4.5758765e-11,-3.2950273e-10,-0.1898514,3
322323671,0.6865097,-0.003282109,0.0023729897,0.7271094,0.9818129,4.5758765e-11,-3.2950273e-10,-0.1898514,3
322328664,0.6865034,-0.003293488,0.002358771,0.72711533,0.9818129,4.5758765e-11,-3.2950273e-10,-0.1898514,3
322333727,0.6865296,-0.003274474,0.0023868168,0.7270906,0.9818129,4.5758765e-11,-3.2950273e-10,-0.1898514,3
322338805,0.6865347,-0.0031901654,0.0024150037,0.72708607,0.9818129,4.5758765e-11,-3.2950273e-10,-0.1898514,3
322343880,0.6865059,-0.003344682,0.002316964,0.7271129,0.9818129,4.5758765e-11,-3.2950273e-10,-0.1898514,3
322374328,0.68650615,-0.0036071807,0.0023088066,0.72711146,0.9818129,4.5758765e-11,-3.2950273e-10,-0.1898514,3
322379401,0.686512,-0.003575877,0.0023238251,0.72710603,0.9818129,4.5758765e-11,-3.2950273e-10,-0.1898514,3
322384475,0.68652815,-0.0035921081,0.0023444833,0.7270906,0.9818129,4.5758765e-11,-3.2950273e-10,-0.1898514,3
322389550,0.6864995,-0.0036543757,0.0023598066,0.7271173,0.9818129,4.5758765e-11,-3.2950273e-10,-0.1898514,3
322526554,0.69113195,-0.0030921006,0.004268503,0.7227094,0.9818129,4.5758765e-11,-3.2950273e-10,-0.1898514,3
322531650,0.6915316,-0.00309633,0.0040578535,0.7223282,0.9818129,4.5758765e-11,-3.2950273e-10,-0.1898514,3
322536701,0.6919443,-0.0031537584,0.0039184657,0.72193336,0.9818129,4.5758765e-11,-3.2950273e-10,-0.1898514,3
