timestamp,rollspeed_integ,pitchspeed_integ,yawspeed_integ,additional_integ1
317891528,0.0,0.0,0.0,0.0
317892803,0.0,0.0,0.0,0.0
318013125,0.0,0.0,0.0,0.0
318034664,0.0,0.0,0.0,0.0
318052424,0.0,0.0,0.0,0.0
318072710,0.0,0.0,0.0,0.0
318094299,0.0,0.0,0.0,0.0
318113303,0.0,0.0,0.0,0.0
318134874,0.0,0.0,0.0,0.0
318153897,0.0,0.0,0.0,0.0
318174192,0.0,0.0,0.0,0.0
318191960,0.0,0.0,0.0,0.0
318213525,0.0,0.0,0.0,0.0
318233882,0.0,0.0,0.0,0.0
318251627,0.0,0.0,0.0,0.0
318273157,0.0,0.0,0.0,0.0
318292188,0.0,0.0,0.0,0.0
318316308,0.0,0.0,0.0,0.0
318331534,0.0,0.0,0.0,0.0
318353106,0.0,0.0,0.0,0.0
318374674,0.0,0.0,0.0,0.0
318392623,0.0,0.0,0.0,0.0
318433055,0.0,0.0,0.0,0.0
318454596,0.0,0.0,0.0,0.0
318472477,0.0,0.0,0.0,0.0
318492659,0.0,0.0,0.0,0.0
318514223,0.0,0.0,0.0,0.0
318534550,0.0,0.0,0.0,0.0
318552422,0.0,0.0,0.0,0.0
318573901,0.0,0.0,0.0,0.0
318592847,0.0,0.0,0.0,0.0
318632378,0.0,0.0,0.0,0.0
318652478,0.0,0.0,0.0,0.0
318672771,0.0,0.0,0.0,0.0
318693077,0.0,0.0,0.0,0.0
318713553,0.0,0.0,0.0,0.0
318732415,0.0,0.0,0.0,0.0
318752711,0.0,0.0,0.0,0.0
318772998,0.0,0.0,0.0,0.0
318793559,0.0,0.0,0.0,0.0
318813602,0.0,0.0,0.0,0.0
318833884,0.0,0.0,0.0,0.0
318855461,0.0,0.0,0.0,0.0
318911317,0.0,0.0,0.0,0.0
318912557,0.0,0.0,0.0,0.0
318957183,0.0,0.0,0.0,0.0
318972188,0.0,0.0,0.0,0.0
319031817,0.0,0.0,0.0,0.0
319053363,0.0,0.0,0.0,0.0
319072396,0.0,0.0,0.0,0.0
319092701,0.0,0.0,0.0,0.0
319112988,0.0,0.0,0.0,0.0
319133329,0.0,0.0,0.0,0.0
319154860,0.0,0.0,0.0,0.0
319175156,0.0,0.0,0.0,0.0
319195453,0.0,0.0,0.0,0.0
319215799,0.0,0.0,0.0,0.0
319236046,0.0,0.0,0.0,0.0
319252571,0.0,0.0,0.0,0.0
319276644,0.0,0.0,0.0,0.0
319296979,0.0,0.0,0.0,0.0
319332479,0.0,0.0,0.0,0.0
319354111,0.0,0.0,0.0,0.0
319392157,0.0,0.0,0.0,0.0
319413648,0.0,0.0,0.0,0.0
319433974,0.0,0.0,0.0,0.0
319451914,0.0,0.0,0.0,0.0
319473336,0.0,0.0,0.0,0.0
319493683,0.0,0.0,0.0,0.0
319515211,0.0,0.0,0.0,0.0
319553234,0.0,0.0,0.0,0.0
319574815,0.0,0.0,0.0,0.0
319592563,0.0,0.0,0.0,0.0
319613123,0.0,0.0,0.0,0.0
319634462,0.0,0.0,0.0,0.0
319652205,0.0,0.0,0.0,0.0
319672466,0.0,0.0,0.0,0.0
319693001,0.0,0.0,0.0,0.0
319714357,0.0,0.0,0.0,0.0
319732081,0.0,0.0,0.0,0.0
319753661,0.0,0.0,0.0,0.0
319812016,0.0,0.0,0.0,0.0
319833639,0.0,0.0,0.0,0.0
319853895,0.0,0.0,0.0,0.0
319871668,0.0,0.0,0.0,0.0
319913497,0.0,0.0,0.0,0.0
319935066,0.0,0.0,0.0,0.0
319952955,0.0,0.0,0.0,0.0
319973132,0.0,0.0,0.0,0.0
319994706,0.0,0.0,0.0,0.0
320012447,0.0,0.0,0.0,0.0
320032833,0.0,0.0,0.0,0.0
320054357,0.0,0.0,0.0,0.0
320072093,0.0,0.0,0.0,0.0
320092395,0.0,0.0,0.0,0.0
320114011,0.0,0.0,0.0,0.0
320134250,0.0,0.0,0.0,0.0
320152007,0.0,0.0,0.0,0.0
320173653,0.0,0.0,0.0,0.0
320215430,0.0,0.0,0.0,0.0
320231977,0.0,0.0,0.0,0.0
320254762,0.0,0.0,0.0,0.0
320275147,0.0,0.0,0.0,0.0
320313116,0.0,0.0,0.0,0.0
320335956,0.0,0.0,0.0,0.0
320356466,0.0,0.0,0.0,0.0
320372740,0.0,0.0,0.0,0.0
320393043,0.0,0.0,0.0,0.0
320413348,0.0,0.0,0.0,0.0
320433801,0.0,0.0,0.0,0.0
320453930,0.0,0.0,0.0,0.0
320474232,0.0,0.0,0.0,0.0
320494526,0.0,0.0,0.0,0.0
320515001,0.0,0.0,0.0,0.0
320535126,0.0,0.0,0.0,0.0
320555425,0.0,0.0,0.0,0.0
320592588,0.0,0.0,0.0,0.0
320616333,0.0,0.0,0.0,0.0
320653163,0.0,0.0,0.0,0.0
320673704,0.0,0.0,0.0,0.0
320711487,0.0,0.0,0.0,0.0
320733051,0.0,0.0,0.0,0.0
320754680,0.0,0.0,0.0,0.0
320774895,0.0,0.0,0.0,0.0
320792703,0.0,0.0,0.0,0.0
321813910,0.0,0.0,0.0,0.0
321832976,0.0,0.0,0.0,0.0
321854502,0.0,0.0,0.0,0.0
321874803,0.0,0.0,0.0,0.0
321895157,0.0,0.0,0.0,0.0
321915434,0.0,0.0,0.0,0.0
321935692,0.0,0.0,0.0,0.0
322074165,0.0,0.0,0.0,0.0
322094359,0.0,0.0,0.0,0.0
322112037,0.0,0.0,0.0,0.0
322133656,0.0,0.0,0.0,0.0
322154160,0.0,0.0,0.0,0.0
322172924,0.0,0.0,0.0,0.0
322295986,8.290817e-06,-0.00015879142,-0.00026302665,0.0
322316442,-3.1968997e-05,-0.0004942933,-0.00072938093,0.0
322332850,-4.087849e-05,-0.00075464044,-0.0011079364,0.0
322377182,6.6876186e-05,-0.0015206814,-0.0021275268,0.0
322392705,8.886072e-05,-0.0017811691,-0.0024868217,0.0
322532058,-0.0011603782,-0.0053253435,-0.0041489913,0.0
322553602,-0.0009886754,-0.005496404,-0.004030057,0.0
322573876,-0.0009793397,-0.005568563,-0.0038716954,0.0
322595434,-0.0009555588,-0.00530939,-0.003657504,0.0
322614409,-0.0008465456,-0.0049530366,-0.003447001,0.0
322691810,-0.0018287537,-0.0041076615,-0.0024754447,0.0
322712093,-0.001739101,-0.004296351,-0.002244929,0.0
322752701,-0.0017654535,-0.004370968,-0.0018330188,0.0
322773048,-0.0020602995,-0.004560084,-0.0016489505,0.0
322793308,-0.0023482314,-0.004952637,-0.00145761,0.0
322892440,-0.002186338,-0.00691034,-0.00054833665,0.0
323033102,-0.002106975,-0.008352688,0.00057885173,0.0
323052261,-0.002135175,-0.008635318,0.0007033461,0.0
323072387,-0.0022935157,-0.009099375,0.0008357904,0.0
323133469,-0.0025139742,-0.010936857,0.0012537264,0.0
323153604,-0.0027077056,-0.010979589,0.0013511861,0.0
323172619,-0.002757516,-0.010954414,0.0014514636,0.0
323255061,-0.0030153897,-0.009676832,0.0017622946,0.0
323274099,-0.0028200033,-0.009829936,0.0018263067,0.0
323295877,-0.0026776611,-0.010200073,0.0018870105,0.0
323393405,-0.002799066,-0.010750564,0.0020692146,0.0
323413685,-0.0028695595,-0.010421308,0.002103067,0.0
323532960,-0.0027493702,-0.0068629077,0.002233825,0.0
323554493,-0.0026893083,-0.0059007825,0.002245245,0.0
323615356,-0.0026200854,-0.0030466851,0.0023105287,0.0
323635662,-0.0025138634,-0.002218252,0.002326708,0.0
323732064,-0.0023048872,0.0005718612,0.002401653,0.0
323753700,-0.0024515027,0.00090730307,0.0024264567,0.0
323777737,-0.0023311006,0.0010781605,0.0024668777,0.0
323833568,-0.002261399,0.0019470316,0.0025134482,0.0
323852691,-0.002362796,0.0022036685,0.002545079,0.0
323932508,-0.0023687158,0.0033466893,0.002665336,0.0
323953020,-0.00231686,0.003434685,0.0027108032,0.0
323974489,-0.0021681082,0.0036559626,0.002750826,0.0
324034188,-0.0024185474,0.0045308503,0.0028392759,0.0
324051765,-0.0023186067,0.004445411,0.002880517,0.0
324072121,-0.0023019398,0.004495692,0.0029209617,0.0
324233213,-0.0022882738,0.0066249995,0.0031917451,0.0
324253540,-0.0024166366,0.0069854814,0.0032044388,0.0
324352455,-0.0021542723,0.007396653,0.0033783992,0.0
324372790,-0.0023244703,0.0075278026,0.0033942498,0.0
324394334,-0.0025866278,0.007445046,0.0034391026,0.0
324533876,-0.003015681,0.00781264,0.0037353279,0.0
324552841,-0.002873582,0.0075567183,0.003809749,0.0
324574420,-0.0029486779,0.0074837706,0.0038955647,0.0
324594708,-0.0030754001,0.0074844905,0.003970829,0.0
324615147,-0.0033250374,0.007635426,0.0040337997,0.0
324631527,-0.00340272,0.007555863,0.0040944135,0.0
324654341,-0.0033070473,0.0074462355,0.004191111,0.0
324674642,-0.003161879,0.0073590777,0.00427878,0.0
324695002,-0.0031118798,0.007288258,0.004356998,0.0
324732985,-0.0031400176,0.0074447836,0.0044661635,0.0
324755822,-0.0034743464,0.0072665527,0.004508549,0.0
324772487,-0.0035327903,0.0070670513,0.0045497683,0.0
324792645,-0.0033534998,0.0067706,0.004604656,0.0
324812909,-0.0031031964,0.0064832205,0.004672894,0.0
324833204,-0.0029321194,0.0064992933,0.0047295894,0.0
324853673,-0.0028909736,0.006807504,0.004781295,0.0
324873795,-0.002973036,0.006920006,0.0048138713,0.0
324894103,-0.0032620628,0.00669642,0.004850572,0.0
324914399,-0.0034657703,0.006250943,0.0048979498,0.0
324934861,-0.0034424597,0.005737536,0.004953759,0.0
324953716,-0.0033328724,0.005291513,0.0050005047,0.0
324975293,-0.0033422445,0.005067561,0.0050405585,0.0
324995613,-0.0033748166,0.00503491,0.0050646593,0.0
325014812,-0.0036302519,0.005099051,0.0050730067,0.0
325034911,-0.003864598,0.005174057,0.0050770063,0.0
325052701,-0.0038959258,0.005101527,0.00509084,0.0
325072978,-0.0038044134,0.0049276426,0.005126534,0.0
325093585,-0.0035368165,0.004686259,0.005177342,0.0
325116110,-0.0031893963,0.004590364,0.005240368,0.0
325174631,-0.0030366594,0.0044847718,0.005446411,0.0
325192314,-0.0031259474,0.00465894,0.0055259042,0.0
325212524,-0.0031852082,0.0049148155,0.0056254594,0.0
325234075,-0.0032684812,0.004947198,0.0057266424,0.0
325253192,-0.0033784562,0.0049914126,0.0058339215,0.0
325293699,-0.0036352593,0.004975388,0.0060558156,0.0
325313993,-0.0039534112,0.0047885613,0.006171492,0.0
325331778,-0.00412133,0.004655318,0.0062835584,0.0
325353395,-0.004256579,0.004398807,0.006444209,0.0
325395234,-0.003778757,0.003893717,0.00681613,0.0
325412946,-0.0035579659,0.003916796,0.006991881,0.0
325433341,-0.0032738796,0.004299948,0.0072020353,0.0
325453542,-0.0030869413,0.0048227725,0.007399001,0.0
325472605,-0.002847102,0.0053072223,0.0075759515,0.0
325492867,-0.002666631,0.005552386,0.0077627413,0.0
325514592,-0.00259731,0.00549983,0.0079462705,0.0
325534723,-0.002486659,0.005219522,0.00810455,0.0
325552560,-0.0023780141,0.004733711,0.008242677,0.0
325574075,-0.0022840525,0.003794257,0.008410228,0.0
325594436,-0.001987841,0.0029663378,0.008570539,0.0
325633725,-0.001303735,0.0023031759,0.008897928,0.0
325653978,-0.0012421724,0.0022860318,0.009072601,0.0
325675652,-0.0013491416,0.0023361854,0.009246026,0.0
325692082,-0.0016769484,0.0022228528,0.009363937,0.0
325713628,-0.0019199684,0.0016506169,0.009506165,0.0
325735181,-0.0020256788,0.0008358264,0.009636404,0.0
325751875,-0.0020140645,0.00012760599,0.009712039,0.0
325773260,-0.0017752794,-0.00040021617,0.009779376,0.0
325793533,-0.0015997653,-0.00037387613,0.009776735,0.0
325815142,-0.0015361548,0.00013609909,0.009723095,0.0
325833040,-0.0015275953,0.00043962567,0.009660636,0.0
325853142,-0.0014614256,0.00089388574,0.009554912,0.0
325872198,-0.0013224109,0.0013962842,0.009408361,0.0
325892475,-0.0013160107,0.0020491353,0.00921693,0.0
325912991,-0.0013596434,0.0028139066,0.008977236,0.0
325934346,-0.0016322501,0.0036431022,0.008683343,0.0
325954629,-0.0018881989,0.0040848656,0.008370829,0.0
325974932,-0.002014627,0.0044761417,0.008048197,0.0
325994190,-0.0020631927,0.0047843796,0.0077139386,0.0
326032060,-0.0018430786,0.005369501,0.006981727,0.0
326054849,-0.0018241941,0.0057553146,0.006519346,0.0
326076643,-0.0019675011,0.0057707387,0.0060711796,0.0
326091716,-0.002024723,0.0056286636,0.0057623726,0.0
326112025,-0.0019593767,0.005350146,0.00535068,0.0
326133508,-0.0016545407,0.005085643,0.0049006687,0.0
326156557,-0.0015485742,0.004969543,0.004396626,0.0
326213420,-0.0019472165,0.0051781205,0.0031027012,0.0
326233726,-0.0018835188,0.005132266,0.002652443,0.0
326254031,-0.0017455899,0.005143686,0.0022004682,0.0
326274323,-0.0016030023,0.0052784686,0.0017420079,0.0
326294612,-0.0014011306,0.0054680556,0.0012668603,0.0
326313636,-0.0014159278,0.005626775,0.0008422237,0.0
326333966,-0.0016052047,0.0057022935,0.00038073323,0.0
326354227,-0.0016511295,0.0054956493,-7.266313e-05,0.0
326375821,-0.0016301357,0.0053027733,-0.0005394765,0.0
326392343,-0.0015498287,0.004987613,-0.0008908746,0.0
326417667,-0.0015068081,0.0043571284,-0.0014286551,0.0
326436708,-0.0014843426,0.0038235986,-0.0018281422,0.0
326451927,-0.0015527128,0.0034865218,-0.0021374736,0.0
326473533,-0.0017189332,0.0030832964,-0.0025526362,0.0
326512861,-0.0024946963,0.002188707,-0.0032833673,0.0
326533118,-0.0028606865,0.0015441194,-0.0036242676,0.0
326553458,-0.002967056,0.0010415231,-0.00392805,0.0
326575135,-0.0028725932,0.0006906235,-0.0042201965,0.0
326592725,-0.0028532993,0.0005581302,-0.004445248,0.0
326613024,-0.0029299515,0.0006968623,-0.0046884334,0.0
326634603,-0.003079759,0.0009903063,-0.004929505,0.0
326653863,-0.0031873998,0.0011086693,-0.0051183617,0.0
326672645,-0.0035084183,0.0012373412,-0.0052783093,0.0
326694256,-0.0037470327,0.0010455855,-0.0054204175,0.0
326714518,-0.0036469407,0.00066863117,-0.0055150366,0.0
326732511,-0.0034662678,0.00050864066,-0.0055708857,0.0
326752578,-0.003326949,0.00056227774,-0.0055992096,0.0
326774202,-0.0035880338,0.0008995464,-0.005617619,0.0
326791978,-0.0038668292,0.0009585821,-0.0055951523,0.0
326833750,-0.0038813285,0.00047048586,-0.005404183,0.0
326854064,-0.003783708,0.00018010812,-0.005263682,0.0
326871822,-0.0037544272,9.5099465e-05,-0.005123226,0.0
326893633,-0.0038602157,-2.6071628e-05,-0.004930465,0.0
326913706,-0.004014993,-0.0002608317,-0.004721874,0.0
326935241,-0.004085242,-0.00080498983,-0.004455039,0.0
326952996,-0.0040946295,-0.0013716519,-0.0042389515,0.0
326994850,-0.0044855066,-0.0031144277,-0.0037235082,0.0
327012662,-0.0048253685,-0.00417092,-0.0035139245,0.0
327032960,-0.005395387,-0.005481194,-0.0032351578,0.0
327054501,-0.005412812,-0.0068129725,-0.0029332486,0.0
327092595,-0.005475134,-0.0082787685,-0.0023672788,0.0
327114184,-0.005526305,-0.008112984,-0.0020604625,0.0
327134399,-0.005742342,-0.00763817,-0.001793135,0.0
327152223,-0.005882583,-0.0071323058,-0.0015515358,0.0
327172464,-0.0058379564,-0.0065724934,-0.0012457211,0.0
327192769,-0.005495755,-0.006221057,-0.0009219494,0.0
327211790,-0.005183978,-0.0060887784,-0.00060267345,0.0
327253656,-0.0045184535,-0.006253176,0.00015496762,0.0
327272668,-0.0041529005,-0.006516533,0.00049914775,0.0
327292971,-0.0039611966,-0.006988902,0.0008612787,0.0
327313363,-0.0037582181,-0.007584436,0.0012217449,0.0
327334828,-0.0033970305,-0.008536654,0.0015999423,0.0
327355127,-0.003114769,-0.009118487,0.001958147,0.0
327375425,-0.0025154243,-0.009300756,0.0022815685,0.0
327395768,-0.002251731,-0.009011736,0.0025866984,0.0
327416015,-0.0022979288,-0.00844069,0.0028492825,0.0
327432523,-0.0021461553,-0.007967824,0.003057685,0.0
327452807,-0.0020920841,-0.007549953,0.0033298605,0.0
327512437,-0.0007089349,-0.007072362,0.003952544,0.0
327533987,-0.00056570175,-0.007161088,0.004126161,0.0
327551942,-0.0005206179,-0.007379675,0.004243544,0.0
327573323,-0.0004900336,-0.008003499,0.0043844455,0.0
327593627,-0.00043420758,-0.009045491,0.0045147184,0.0
327613915,-5.0449842e-05,-0.010191622,0.0046134656,0.0
327634366,0.00040302606,-0.01135922,0.0047081416,0.0
327654501,0.00080473616,-0.0122365635,0.0047730636,0.0
327673532,0.0009777128,-0.012782724,0.00479233,0.0
327695116,0.0011710121,-0.013005829,0.0047875308,0.0
327711906,0.0011757638,-0.012918139,0.0047658915,0.0
327734421,0.0010703721,-0.012838842,0.0047026933,0.0
327754723,0.0010276735,-0.012662413,0.004629929,0.0
327772496,0.0010943436,-0.012523256,0.0045574596,0.0
327793079,0.0013663443,-0.012434498,0.004454235,0.0
327813091,0.001756522,-0.0122301765,0.0043322286,0.0
327837178,0.002188556,-0.011951519,0.0041604424,0.0
327852427,0.0024341492,-0.011757506,0.004032041,0.0
327872726,0.0025151426,-0.011385399,0.0038354637,0.0
327891824,0.0024089552,-0.010922354,0.0036212262,0.0
327932369,0.0021137744,-0.010232224,0.0031012078,0.0
327953921,0.002111296,-0.010049079,0.0028085825,0.0
327974329,0.0024025056,-0.01020988,0.002515193,0.0
327991997,0.0027507788,-0.010426492,0.0022345278,0.0
328033799,0.0033596864,-0.010342414,0.0015324962,0.0
328055360,0.0034837811,-0.009625802,0.0011452385,0.0
328073143,0.003594035,-0.008822417,0.00083218655,0.0
328095974,0.0036606407,-0.0076974467,0.0004030768,0.0
328117531,0.0034306897,-0.0067560966,-5.022935e-06,0.0
328131582,0.0032711877,-0.00624055,-0.00026595016,0.0
328153054,0.0031679405,-0.0058227708,-0.0006624005,0.0
328174627,0.0030974098,-0.0055527464,-0.0010344487,0.0
328192406,0.003195721,-0.005339914,-0.0013203342,0.0
328212727,0.003595194,-0.0051249084,-0.0016506383,0.0
328232962,0.003754818,-0.00474826,-0.0019430822,0.0
328253279,0.0037588691,-0.004193426,-0.002230892,0.0
328272348,0.003770137,-0.0035981252,-0.0024840033,0.0
328292695,0.003659719,-0.003051708,-0.0027340748,0.0
328314206,0.0033203177,-0.0026111754,-0.0029658102,0.0
328352246,0.002829398,-0.0021900956,-0.003277291,0.0
328373865,0.0025928963,-0.0022149964,-0.0033990254,0.0
328394075,0.0022729763,-0.0023603607,-0.003473343,0.0
328411833,0.0018256229,-0.0023703643,-0.003519395,0.0
328433408,0.0012673013,-0.0023738707,-0.0035484415,0.0
328453841,0.0009905269,-0.0027171907,-0.0035589698,0.0
328475292,0.0008789764,-0.0030196898,-0.0035398596,0.0
328512074,0.0007225951,-0.0033184642,-0.0034252128,0.0
328532580,0.00081039127,-0.0032671415,-0.0033352415,0.0
328553922,0.0009981372,-0.0032744645,-0.0032269324,0.0
328572938,0.0009247056,-0.0029457237,-0.0031255619,0.0
328593230,0.00094669947,-0.002636655,-0.0030099023,0.0
328612500,0.0007591946,-0.0020784175,-0.0028871722,0.0
328632582,0.0006711835,-0.0014549296,-0.0027597868,0.0
328654162,0.00037101534,-0.00069353584,-0.0026247045,0.0
328674423,-4.789657e-05,0.00010513663,-0.0024803749,0.0
328693657,-0.00025835366,0.0008188788,-0.002342214,0.0
328715012,-0.00055548275,0.0014719503,-0.0021890085,0.0
328735316,-0.0009522536,0.0018446969,-0.0020367287,0.0
328755631,-0.0014999087,0.0020453057,-0.0018937463,0.0
328772318,-0.0018657133,0.0021098147,-0.0017737856,0.0
328796206,-0.002506485,0.001866027,-0.0016073001,0.0
328817763,-0.0031546135,0.0014624948,-0.0014576023,0.0
328873589,-0.0039866655,-0.0006097937,-0.0010089717,0.0
328892684,-0.0042288,-0.00124198,-0.00085812545,0.0
328933202,-0.0045780134,-0.0018321394,-0.0005705866,0.0
328952389,-0.0049046385,-0.0019314889,-0.0004375276,0.0
328972561,-0.005351339,-0.002159225,-0.0003184644,0.0
328992822,-0.005802693,-0.002220431,-0.00022270512,0.0
329014391,-0.0063769296,-0.0023700483,-0.00013983413,0.0
329033462,-0.0067310166,-0.0026678,-8.1104445e-05,0.0
329053727,-0.0069217198,-0.0029876877,8.701033e-07,0.0
329095587,-0.007190945,-0.0040456736,0.00015513875,0.0
329112240,-0.0072028395,-0.0045313356,0.00020924941,0.0
329136181,-0.0072936607,-0.0051434324,0.00028374596,0.0
329156461,-0.007475496,-0.005397942,0.00034371737,0.0
329192258,-0.007986543,-0.0052573397,0.00042381903,0.0
329213601,-0.008377177,-0.0050353347,0.00046718674,0.0
329237660,-0.008772839,-0.004908772,0.00050892617,0.0
329251663,-0.009022813,-0.0050598565,0.0005439511,0.0
329273353,-0.009271297,-0.0054280427,0.0006271374,0.0
329294746,-0.0093747955,-0.005947076,0.0007237272,0.0
329315081,-0.009314604,-0.0064765117,0.00082880014,0.0
329332803,-0.009404212,-0.0068950653,0.0009181684,0.0
329353254,-0.009577152,-0.0071559954,0.0010273453,0.0
329374690,-0.009752069,-0.007391966,0.0011292495,0.0
329412735,-0.010237616,-0.007613027,0.0012968305,0.0
329434460,-0.010598098,-0.007552045,0.0013919849,0.0
329452027,-0.010965715,-0.0074985973,0.0014495751,0.0
329472352,-0.011381324,-0.007600182,0.0015071606,0.0
329492637,-0.011777227,-0.00814523,0.0015567256,0.0
329515720,-0.012106536,-0.008860878,0.0016129302,0.0
329531994,-0.0121372845,-0.0094206445,0.0016488795,0.0
329553573,-0.012101275,-0.0101846615,0.00168285,0.0
329573821,-0.0119750425,-0.0106029,0.0017017296,0.0
329595571,-0.011935922,-0.01081644,0.0016886806,0.0
329613160,-0.01184687,-0.01076272,0.0016572408,0.0
329633435,-0.011787009,-0.010669289,0.0015979778,0.0
329672993,-0.0120409615,-0.010435434,0.0014067434,0.0
329693051,-0.012234601,-0.010601477,0.0012700766,0.0
329714672,-0.0123356925,-0.010939102,0.0011129157,0.0
329733647,-0.012426091,-0.011330451,0.0009597243,0.0
329755438,-0.012166213,-0.011669443,0.0007786603,0.0
329773053,-0.011862876,-0.012033387,0.0006276956,0.0
329794532,-0.011568936,-0.012137135,0.00040186802,0.0
329812352,-0.011575752,-0.012016257,0.00020192332,0.0
329832631,-0.011535938,-0.011959489,-6.647746e-05,0.0
329852909,-0.011605799,-0.011663603,-0.0003413891,0.0
329892229,-0.011609766,-0.01095681,-0.0009010406,0.0
329912506,-0.011235628,-0.010559455,-0.0011797163,0.0
329932824,-0.010846508,-0.010131593,-0.0014722846,0.0
329953120,-0.010672129,-0.009708166,-0.0017714425,0.0
329973402,-0.010544511,-0.0095164515,-0.0020743837,0.0
329993693,-0.010473274,-0.009732159,-0.0023689873,0.0
330014009,-0.010130111,-0.010172641,-0.0026442038,0.0
330034293,-0.009764564,-0.010386701,-0.0029253694,0.0
330054600,-0.009289806,-0.010168608,-0.0032054612,0.0
330074933,-0.00905894,-0.0094581,-0.003490799,0.0
330093953,-0.008993376,-0.008531063,-0.003752184,0.0
330115482,-0.009052902,-0.0072540087,-0.004048135,0.0
330135788,-0.009243574,-0.0059719235,-0.004338179,0.0
330152370,-0.0093803685,-0.0049042506,-0.0045630224,0.0
330196654,-0.009577259,-0.0029248314,-0.0051560113,0.0
330216956,-0.009349627,-0.002594847,-0.0054125576,0.0
330232206,-0.009156061,-0.0022788523,-0.0055938866,0.0
330252749,-0.008934184,-0.0017547432,-0.0058509735,0.0
330274032,-0.00891127,-0.0012030555,-0.0061344896,0.0
330291872,-0.009001412,-0.00084326416,-0.006381276,0.0
330312130,-0.009188419,-0.0003742749,-0.006677183,0.0
330333878,-0.009276078,5.159421e-05,-0.006993447,0.0
330352785,-0.009287844,0.0003166239,-0.0072604734,0.0
330393297,-0.008986439,0.00030258566,-0.0077950293,0.0
330413783,-0.008693079,0.00030263336,-0.00807125,0.0
330452905,-0.0085905865,0.0005906641,-0.008608342,0.0
330473198,-0.008759511,0.00074553123,-0.008870194,0.0
330512523,-0.008746867,0.00070860994,-0.009367008,0.0
330532814,-0.008420493,0.0005981919,-0.009619879,0.0
330555660,-0.008189541,0.0006186898,-0.009904552,0.0
330592458,-0.00820366,0.0013617353,-0.010377149,0.0
330634303,-0.008257635,0.001761017,-0.010875323,0.0
330652146,-0.008027849,0.0016498987,-0.011070452,0.0
330673658,-0.0076945694,0.0015222672,-0.011304626,0.0
330693915,-0.0074786004,0.0016556439,-0.011526707,0.0
330712945,-0.0073276623,0.0019132544,-0.011731304,0.0
330733244,-0.0072627123,0.002123546,-0.011956549,0.0
330753625,-0.0075110267,0.0022319646,-0.012183516,0.0
330775181,-0.0077472213,0.002213683,-0.012421386,0.0
330791732,-0.007869345,0.0020885174,-0.012593428,0.0
330813205,-0.0079608755,0.001753771,-0.012796459,0.0
330852500,-0.0075585353,0.0012155524,-0.013137909,0.0
330872777,-0.0074240817,0.0013672133,-0.013307917,0.0
330891799,-0.007408727,0.0016549248,-0.013455716,0.0
330912188,-0.00741245,0.0021294234,-0.013604611,0.0
330932397,-0.0077185645,0.0025220993,-0.01374916,0.0
330952723,-0.007904137,0.0026789724,-0.0138815455,0.0
330973004,-0.008008381,0.0025334386,-0.013990264,0.0
330993335,-0.0077528986,0.0022121642,-0.014085794,0.0
331013595,-0.0074963085,0.00207729,-0.014166357,0.0
331033876,-0.007292259,0.00205338,-0.0142441355,0.0
331058026,-0.0072691236,0.0022816618,-0.014326362,0.0
331073278,-0.0073345234,0.0025024978,-0.014375387,0.0
331094764,-0.0074097454,0.002888742,-0.014438566,0.0
331113793,-0.0075738067,0.0031774645,-0.014490118,0.0
331135389,-0.0078123477,0.0031988062,-0.014550529,0.0
331152043,-0.007905022,0.0030344261,-0.01458817,0.0
331175947,-0.0079943035,0.0027046208,-0.0146269,0.0
331194976,-0.008040464,0.002210007,-0.014650017,0.0
331211502,-0.0077911327,0.0017522683,-0.014669075,0.0
331233178,-0.007549938,0.0013195345,-0.014670121,0.0
331252073,-0.007365752,0.0009925249,-0.014666984,0.0
331272402,-0.007180493,0.001059651,-0.014675949,0.0
331311902,-0.006927915,0.001891058,-0.014704107,0.0
331331988,-0.006845439,0.0025187032,-0.014720086,0.0
331352296,-0.0068042744,0.0028391276,-0.014744134,0.0
331372571,-0.006830669,0.0030658941,-0.01475997,0.0
331394330,-0.006857557,0.003136682,-0.014773882,0.0
331413176,-0.00673454,0.0029681264,-0.014774884,0.0
331433455,-0.0063416804,0.0027635538,-0.014769266,0.0
331453767,-0.005950757,0.002658034,-0.014759085,0.0
331475528,-0.0056269183,0.0027237923,-0.014740307,0.0
331491888,-0.005493881,0.0029808793,-0.01472947,0.0
331536201,-0.005445818,0.00401332,-0.014724919,0.0
331556684,-0.005465899,0.004447634,-0.014721911,0.0
331573027,-0.0054516545,0.0046243463,-0.014717722,0.0
331593307,-0.0054449947,0.0046267817,-0.0147064105,0.0
331617384,-0.0053844475,0.0044701714,-0.014674679,0.0
331632677,-0.00512042,0.0041531525,-0.014642883,0.0
331652938,-0.0046941126,0.0037150814,-0.014590197,0.0
331674465,-0.004207681,0.0033809908,-0.0145233115,0.0
331692352,-0.0037779328,0.0032075555,-0.014471318,0.0
331712535,-0.003331892,0.0031206242,-0.01439768,0.0
331754390,-0.0031328134,0.003978662,-0.014262278,0.0
331773411,-0.0031514328,0.004328819,-0.014201053,0.0
331795001,-0.003275305,0.004738658,-0.01414034,0.0
331835619,-0.0035955836,0.004767277,-0.014017765,0.0
331852085,-0.0035331398,0.004647849,-0.013966692,0.0
331873626,-0.0034796002,0.0044771857,-0.013880736,0.0
331895235,-0.0031708973,0.004235135,-0.013796599,0.0
331911689,-0.0029239417,0.0040946775,-0.013728054,0.0
331933279,-0.0027140074,0.0038971996,-0.013642417,0.0
331953559,-0.0025969883,0.0036813344,-0.013564244,0.0
331977653,-0.0025380577,0.0033993993,-0.013467544,0.0
332013206,-0.0024897167,0.0032109418,-0.013327142,0.0
332034737,-0.002487119,0.0031266618,-0.013248776,0.0
332052704,-0.0025160615,0.0031103077,-0.013184749,0.0
332072783,-0.0024932812,0.0029883948,-0.013115248,0.0
332094403,-0.0023617803,0.0029172876,-0.01304264,0.0
332112152,-0.0021676319,0.0029604423,-0.012981251,0.0
332132637,-0.0019435369,0.0029838374,-0.012914486,0.0
332153964,-0.0016437744,0.0029786923,-0.012837262,0.0
332174259,-0.0014334576,0.003008769,-0.012752371,0.0
332192069,-0.0011415397,0.0030398874,-0.012675813,0.0
332212488,-0.0008153637,0.0030960934,-0.012589581,0.0
332233891,-0.0006246003,0.0032744473,-0.012500053,0.0
332255471,-0.0004801981,0.0034514132,-0.012415338,0.0
332273255,-0.00027383762,0.0035530643,-0.01236353,0.0
332293669,-0.00019718571,0.0037845115,-0.012310762,0.0
332316406,-3.8548165e-05,0.003923523,-0.012264638,0.0
332331566,9.83545e-05,0.003976653,-0.01224271,0.0
332353117,0.00022167615,0.00399514,-0.012220145,0.0
332372373,0.00030425173,0.0041007837,-0.012215439,0.0
332392451,0.00041714116,0.004111651,-0.012213315,0.0
332412734,0.0006389389,0.0040585236,-0.012221149,0.0
332433039,0.0007685329,0.004156526,-0.012224951,0.0
332454799,0.0008978608,0.0041947826,-0.0122418385,0.0
332473639,0.0010451119,0.004331263,-0.012256279,0.0
332493979,0.0011519645,0.00454455,-0.01226901,0.0
332515492,0.001248279,0.0046897107,-0.012287158,0.0
332534753,0.0013505681,0.0049873567,-0.012312317,0.0
332552312,0.0013656069,0.005263275,-0.012328573,0.0
332576397,0.0012911768,0.00566412,-0.01235294,0.0
332596671,0.0012089831,0.006138101,-0.012376744,0.0
332611910,0.0011277387,0.006447855,-0.0123927435,0.0
332633457,0.001091392,0.006943244,-0.012411934,0.0
332653770,0.000983414,0.0075560003,-0.012432375,0.0
332677854,0.0008193442,0.008076726,-0.012445455,0.0
332693105,0.0008030219,0.008278119,-0.012445052,0.0
332713388,0.000836088,0.008502286,-0.01243038,0.0
332732397,0.0008628709,0.008739877,-0.012411997,0.0
332753978,0.0007830226,0.008877699,-0.012383063,0.0
332794568,0.0010940048,0.008690976,-0.012313346,0.0
332814861,0.0011995143,0.008345478,-0.012263668,0.0
332835160,0.0014310768,0.008061538,-0.012203448,0.0
332854196,0.0015909096,0.007637406,-0.012147763,0.0
332892341,0.0016585388,0.0066140546,-0.012053656,0.0
332936629,0.001178274,0.0057864515,-0.011959078,0.0
332956938,0.00085481553,0.0056682327,-0.011910516,0.0
332972210,0.00066347985,0.0056371917,-0.0118745575,0.0
332993753,0.00047527207,0.005765169,-0.011823204,0.0
333014064,0.0003315842,0.0059769945,-0.01177285,0.0
333053352,0.00018052645,0.0066367486,-0.011665651,0.0
333073655,0.00028833715,0.0071007055,-0.011601753,0.0
333095195,0.00049957755,0.0075622387,-0.011530074,0.0
333113096,0.00079680973,0.007923991,-0.011462539,0.0
333133243,0.0010846667,0.008097091,-0.011384901,0.0
333154874,0.001501297,0.008040638,-0.011298621,0.0
333193122,0.0019936145,0.00755636,-0.011137643,0.0
333214473,0.002027684,0.0073172767,-0.011069286,0.0
333234789,0.0019647372,0.006945438,-0.011012757,0.0
333252489,0.0018205813,0.0067697153,-0.010964206,0.0
333272971,0.0015924459,0.0065638125,-0.010919277,0.0
333294357,0.0013505456,0.0064785,-0.010886016,0.0
333312096,0.001083122,0.006511839,-0.01085925,0.0
333333664,0.0009354652,0.0067385836,-0.010835277,0.0
333354205,0.00070955005,0.0070653544,-0.010815859,0.0
333378059,0.0006807654,0.0075247516,-0.010794913,0.0
333392024,0.0007183061,0.007945711,-0.010782375,0.0
333413640,0.0007256274,0.008586656,-0.010762991,0.0
333431409,0.0007543823,0.00898959,-0.010746269,0.0
333453016,0.0009709071,0.009415245,-0.0107322885,0.0
333473198,0.0011929027,0.009586441,-0.010719031,0.0
333494829,0.0014013494,0.0096899215,-0.010705307,0.0
333515428,0.0016051024,0.009619437,-0.010693136,0.0
333532818,0.0017955112,0.009443838,-0.010687975,0.0
333553119,0.00199353,0.009335879,-0.010678853,0.0
333612729,0.0025923115,0.00838222,-0.010669144,0.0
333634313,0.0028052127,0.007931894,-0.010667379,0.0
333652071,0.0029877378,0.007553517,-0.010665849,0.0
333672371,0.0030452968,0.0073182248,-0.010666957,0.0
333693921,0.003100105,0.0070603206,-0.010671809,0.0
333712933,0.003116239,0.006825077,-0.010679116,0.0
333733228,0.002971683,0.0066108303,-0.01069974,0.0
333753522,0.0027143338,0.006234434,-0.010720486,0.0
333773858,0.0024659692,0.0059409193,-0.010739662,0.0
333794114,0.002130861,0.005840806,-0.010762448,0.0
333813149,0.0017504875,0.0058478396,-0.010783627,0.0
333833433,0.0015461487,0.0060186726,-0.010807138,0.0
333855079,0.0013906099,0.006311083,-0.010833453,0.0
333871503,0.0012596212,0.006639441,-0.010842491,0.0
333895611,0.0010837342,0.0071785874,-0.010866725,0.0
333934976,0.0009594999,0.007886267,-0.010881962,0.0
333952683,0.0009430371,0.008315746,-0.010874426,0.0
333972961,0.0010665383,0.008800774,-0.010861725,0.0
333995799,0.0012636156,0.009280399,-0.010831996,0.0
334012544,0.001406556,0.009510371,-0.010812208,0.0
334032585,0.0016494974,0.009569906,-0.010781856,0.0
334054168,0.0019240248,0.009533416,-0.010752427,0.0
334076984,0.0022105386,0.009300793,-0.010721343,0.0
334092380,0.002329346,0.009130349,-0.010701994,0.0
334134071,0.002430093,0.00820122,-0.010639167,0.0
334151826,0.0024462556,0.0076930956,-0.010616691,0.0
334173563,0.0023921046,0.007138416,-0.010602539,0.0
334194961,0.002059164,0.006784302,-0.010591923,0.0
334234297,0.0013824916,0.0065713516,-0.010591347,0.0
334255991,0.0010899041,0.0068905344,-0.01058409,0.0
334312993,0.0012479393,0.0083196685,-0.010544411,0.0
334337184,0.0013164175,0.009093274,-0.01052072,0.0
334356040,0.001503624,0.009393025,-0.010504083,0.0
334372566,0.0016391156,0.009555318,-0.010487059,0.0
334394128,0.0018912147,0.00952858,-0.01046163,0.0
334414739,0.0020625307,0.009324091,-0.010434336,0.0
334432168,0.0021764273,0.009014779,-0.0104177175,0.0
334453718,0.0022478325,0.008573762,-0.010401147,0.0
334474051,0.0022872908,0.008035581,-0.010382857,0.0
334512147,0.0022096396,0.007181851,-0.010369641,0.0
334533649,0.0021043362,0.006710324,-0.01037254,0.0
334571686,0.0017840388,0.0062765297,-0.010375534,0.0
334593340,0.0015811496,0.0059157806,-0.010379262,0.0
334613604,0.0013309256,0.0057180803,-0.010391824,0.0
334635104,0.0010882627,0.005568849,-0.010407644,0.0
334652884,0.0009941704,0.0053690337,-0.010417907,0.0
334671942,0.0008024304,0.00525783,-0.010436881,0.0
334692224,0.0006337532,0.005130336,-0.010458185,0.0
334712483,0.000454963,0.0050654714,-0.0104654245,0.0
334732828,0.00028652893,0.0049953265,-0.01047148,0.0
334753165,9.370419e-05,0.005046805,-0.010479512,0.0
334773366,-0.000107347616,0.005202222,-0.0104956245,0.0
334793664,-0.00018203378,0.0054745334,-0.010509367,0.0
334813956,-0.00025913198,0.0056962003,-0.01053383,0.0
334834351,-0.00033168393,0.006020187,-0.0105596185,0.0
334854558,-0.0002939993,0.00651008,-0.010579557,0.0
334874845,-0.00021192995,0.0069358675,-0.010599961,0.0
334893875,-0.00013159994,0.0074159265,-0.010626749,0.0
334915616,-0.00016245725,0.007921185,-0.010654146,0.0
334931932,-0.00014285833,0.008250577,-0.01067157,0.0
334953493,-0.00010725875,0.008414512,-0.010708586,0.0
334975067,-0.00015948954,0.008462973,-0.010742541,0.0
334991702,-0.0002736168,0.008496501,-0.01076557,0.0
335013110,-0.0003199172,0.008245101,-0.010795673,0.0
335034677,-0.00036825583,0.007930379,-0.010819209,0.0
335052453,-0.00028745455,0.007648853,-0.010835966,0.0
335072902,-0.00019225385,0.0072128186,-0.010857004,0.0
335091752,-0.00011549058,0.006908191,-0.010874378,0.0
335112047,1.6231153e-05,0.006731433,-0.010891319,0.0
335132365,0.00017666187,0.0065248166,-0.010912764,0.0
335152847,0.00037209952,0.0063278554,-0.010939912,0.0
335174251,0.000553156,0.006241787,-0.010965874,0.0
335514182,-8.339556e-05,0.0081923045,-0.012176054,0.0
335534449,5.1436826e-05,0.008736038,-0.012266553,0.0
336035482,0.0013114876,0.008565254,-0.014297372,0.0
336111611,0.0010958177,0.009801204,-0.014549914,0.0
336133364,0.0012046541,0.01014182,-0.014607279,0.0
336153461,0.0013327604,0.0103488,-0.014651082,0.0
336173743,0.0014980141,0.010348188,-0.014692713,0.0
336194042,0.00176533,0.010000535,-0.014728751,0.0
336214561,0.002103255,0.009465135,-0.014768076,0.0
336234633,0.0022742879,0.008986064,-0.014822606,0.0
336254923,0.002126396,0.008486251,-0.014885004,0.0
336294491,0.0016354584,0.007624618,-0.01501839,0.0
336314542,0.0014462649,0.007158786,-0.015087767,0.0
336332324,0.0012439624,0.006827487,-0.015153176,0.0
336355133,0.001136375,0.0066967905,-0.01522615,0.0
336412210,0.0012150008,0.00779793,-0.015370517,0.0
336432502,0.001294556,0.008333942,-0.015414047,0.0
336452798,0.001444216,0.008949019,-0.0154547645,0.0
336473120,0.0015847216,0.009532135,-0.015492025,0.0
336493391,0.0017251483,0.009919192,-0.015528909,0.0
336513684,0.001925893,0.010327473,-0.015563008,0.0
336533992,0.0021027424,0.010644387,-0.015576275,0.0
336554304,0.002179493,0.010807804,-0.015582978,0.0
336574596,0.002374084,0.010775728,-0.015585656,0.0
336593611,0.002681,0.01061482,-0.015579852,0.0
336615212,0.0029613597,0.0103923045,-0.01556485,0.0
336635478,0.0031508466,0.009926839,-0.015545576,0.0
336672247,0.0034183436,0.008651066,-0.0154967895,0.0
336692548,0.003404904,0.0081185615,-0.015467433,0.0
336717916,0.003373102,0.0075413994,-0.015423876,0.0
336736932,0.0033959465,0.006919303,-0.015388531,0.0
336752249,0.0033951653,0.006371085,-0.015364133,0.0
336773782,0.0033409353,0.005488612,-0.0153221395,0.0
336811815,0.0030686227,0.00397363,-0.015263045,0.0
336833335,0.0028885817,0.0034799872,-0.015232353,0.0
336875362,0.0025586097,0.0041865474,-0.015141977,0.0
336892989,0.002653254,0.0047670105,-0.015088863,0.0
336951513,0.0033849762,0.006565134,-0.014867825,0.0
336972936,0.0035833768,0.0068088807,-0.014797019,0.0
336994429,0.0034620224,0.006762418,-0.014732499,0.0
337014715,0.0033059043,0.0066837366,-0.014670112,0.0
337032690,0.0031703394,0.006893679,-0.014605506,0.0
337054077,0.0031987918,0.007070172,-0.014520825,0.0
337074386,0.0032909475,0.007387857,-0.014433312,0.0
337092182,0.0034455257,0.007544635,-0.014356848,0.0
337112641,0.0037705565,0.0074417563,-0.01427665,0.0
337133974,0.0038715787,0.0072951694,-0.014202112,0.0
337156785,0.0037863923,0.007042343,-0.014125951,0.0
337172009,0.0037621977,0.0067575164,-0.014069589,0.0
337193875,0.0036676358,0.006358215,-0.01399179,0.0
337215214,0.0035723282,0.0060590846,-0.013924524,0.0
337231664,0.0034618818,0.0057062525,-0.013881873,0.0
337253209,0.003158338,0.0055413144,-0.013815167,0.0
337273486,0.0028617296,0.005426892,-0.0137575,0.0
337312810,0.002460831,0.005934481,-0.013632019,0.0
337333105,0.0023811366,0.006391407,-0.01356278,0.0
337354711,0.0024091406,0.007073384,-0.013477132,0.0
337372433,0.0024464785,0.007529379,-0.0134046925,0.0
337392729,0.0024997063,0.008024104,-0.013312467,0.0
337415612,0.0026507266,0.008535295,-0.013208004,0.0
337432035,0.0027368022,0.008957839,-0.013130761,0.0
337452405,0.0027714237,0.009417659,-0.0130251525,0.0
337472634,0.0029063413,0.009721689,-0.012916253,0.0
337492931,0.002901109,0.009993725,-0.012800378,0.0
337513228,0.0029114967,0.010198655,-0.0126798125,0.0
337533576,0.003026965,0.010366689,-0.0125408415,0.0
337553819,0.0030924266,0.010415643,-0.012397348,0.0
337574104,0.0033165142,0.01034871,-0.0122473035,0.0
337594399,0.0035410032,0.009883744,-0.012099614,0.0
337613480,0.0036131672,0.009435947,-0.0119692385,0.0
337634997,0.0035365263,0.008833142,-0.011829928,0.0
337651565,0.0033602086,0.008455509,-0.011717795,0.0
337674317,0.003107321,0.008112263,-0.011554582,0.0
337716165,0.0029057162,0.008378583,-0.011249657,0.0
337732647,0.0029896717,0.008699096,-0.011123514,0.0
337812574,0.003511178,0.008479455,-0.010512455,0.0
337834128,0.0034025135,0.008159515,-0.010366657,0.0
337852075,0.0031447818,0.00792369,-0.010251115,0.0
337872191,0.0029362696,0.007887706,-0.01010377,0.0
337893762,0.0028932802,0.008244323,-0.009933573,0.0
337912766,0.003006104,0.0085338745,-0.009781217,0.0
337933235,0.0031923295,0.008843067,-0.009615788,0.0
337974930,0.003353571,0.009036685,-0.009311452,0.0
337995258,0.0033021977,0.008926431,-0.009182809,0.0
338015678,0.0031292725,0.0087232115,-0.0090490375,0.0
338035809,0.0029332442,0.008692099,-0.008912094,0.0
338056110,0.0028344353,0.008832551,-0.008762846,0.0
338072607,0.0027960977,0.009046149,-0.008644241,0.0
338093052,0.0030381635,0.009275392,-0.008494985,0.0
338137299,0.003499553,0.009285103,-0.008170454,0.0
338152538,0.0036255363,0.00914691,-0.008066602,0.0
338173068,0.0036863594,0.008883983,-0.007936045,0.0
338194383,0.003585552,0.008523753,-0.007806176,0.0
338212137,0.0033888682,0.008218863,-0.0077078934,0.0
338233713,0.002988923,0.007814942,-0.0075927996,0.0
338254003,0.0027186526,0.0076322947,-0.007494013,0.0
338275539,0.0023822752,0.007637394,-0.0073826974,0.0
338292036,0.002151415,0.007721755,-0.0072982097,0.0
338313640,0.0020568427,0.007886383,-0.0071796873,0.0
338335170,0.0019305177,0.008147628,-0.007069455,0.0
338351704,0.0018422158,0.008378533,-0.0069801356,0.0
338373310,0.0017296287,0.008733595,-0.0068657557,0.0
338393519,0.0015859201,0.008925855,-0.006763789,0.0
338415085,0.0014900541,0.008937048,-0.0066548632,0.0
338432889,0.0013242619,0.008805501,-0.0065684915,0.0
338451881,0.0012382226,0.008584772,-0.006468685,0.0
338472162,0.0009430201,0.008305854,-0.006369273,0.0
338492443,0.0008425845,0.008065544,-0.006265594,0.0
338512809,0.000625725,0.008021381,-0.0061626867,0.0
338534312,0.0006273726,0.008204257,-0.0060517667,0.0
338552193,0.00074820704,0.008438361,-0.0059574265,0.0
338594103,0.0011312246,0.0091528185,-0.0057273754,0.0
338614204,0.0016024134,0.009291001,-0.005628747,0.0
338632038,0.0017403492,0.009278689,-0.0055405907,0.0
338653569,0.0018568677,0.009043853,-0.005454828,0.0
338673924,0.0017603119,0.008667538,-0.005394423,0.0
338691609,0.0016188519,0.008374389,-0.005343145,0.0
338714527,0.0013999135,0.007943353,-0.005288117,0.0
338733465,0.0011676699,0.007800724,-0.0052495007,0.0
338755168,0.0010438646,0.007649544,-0.0052053737,0.0
338793142,0.0007840978,0.007854613,-0.0051363106,0.0
338814703,0.0007133036,0.008280249,-0.0050997534,0.0
338872979,0.0009193926,0.009556841,-0.0050078114,0.0
338893260,0.0010322831,0.010202305,-0.004974071,0.0
338913734,0.0013132879,0.01060902,-0.004939535,0.0
338933864,0.0015694376,0.010924665,-0.004906251,0.0
338954169,0.0019096324,0.0109945405,-0.00487779,0.0
338973195,0.0020996323,0.010953835,-0.0048511117,0.0
338993695,0.0023261013,0.010689215,-0.0048356215,0.0
339013765,0.0024036826,0.010366892,-0.00483942,0.0
339035343,0.0021186604,0.010059106,-0.004859876,0.0
339051849,0.0019895963,0.009884735,-0.0048685498,0.0
339076106,0.0017662082,0.009956091,-0.0048852228,0.0
339096212,0.0016981747,0.010273821,-0.004899605,0.0
339116507,0.0017295841,0.010655817,-0.004918368,0.0
339133001,0.0017883308,0.010939323,-0.004926849,0.0
339177392,0.0021011494,0.011429262,-0.0049488815,0.0
339192644,0.0022676194,0.011545728,-0.004956128,0.0
339234472,0.0026067442,0.011503199,-0.0049572843,0.0
339252382,0.00279228,0.0114999525,-0.0049482523,0.0
339272521,0.002968657,0.011389988,-0.004940159,0.0
339294106,0.0031120377,0.011200509,-0.0049373507,0.0
339314445,0.0033116795,0.011001036,-0.0049296473,0.0
339332211,0.0033704888,0.010625128,-0.0049198917,0.0
339354967,0.0033373171,0.010198868,-0.004911186,0.0
339375259,0.0031702525,0.009819638,-0.0049152663,0.0
339395569,0.0028841433,0.009494029,-0.0049358336,0.0
339412111,0.002605242,0.009307664,-0.004951373,0.0
339434877,0.0021037597,0.009131653,-0.0049815406,0.0
339455177,0.001724269,0.00910435,-0.0050002774,0.0
339471694,0.0015583253,0.009244282,-0.0050065117,0.0
339493350,0.0014487917,0.009448437,-0.0049972855,0.0
339513556,0.0015225083,0.009811644,-0.0049908585,0.0
339536361,0.0017023098,0.010161935,-0.0049672583,0.0
339552867,0.0018301668,0.01032867,-0.004952354,0.0
339573218,0.0020433466,0.010437499,-0.004931098,0.0
339594708,0.0021804718,0.010390839,-0.004914594,0.0
339612449,0.002135497,0.010230817,-0.004908315,0.0
339632768,0.0019052287,0.00997658,-0.004913432,0.0
339654407,0.0017833773,0.009628965,-0.0049128504,0.0
339672081,0.0015528247,0.009366064,-0.0049086777,0.0
339693707,0.0013815912,0.009100772,-0.0049064383,0.0
339713929,0.0011745922,0.008846156,-0.0048973993,0.0
339734363,0.0012089722,0.0083911065,-0.0048856423,0.0
339773621,0.0009937807,0.0075817765,-0.004830057,0.0
339793884,0.0009839333,0.0071361745,-0.0047972337,0.0
339833183,0.0006618054,0.0066641294,-0.0047497465,0.0
339853485,0.0003850051,0.006717085,-0.0047297385,0.0
339913085,-2.4698767e-05,0.007200247,-0.0046540974,0.0
339934640,6.355549e-05,0.007256349,-0.0046127797,0.0
339952448,0.00024378975,0.0074180113,-0.004572929,0.0
339972934,0.0005025003,0.0076587205,-0.0045222226,0.0
340014544,0.0009105017,0.008418655,-0.00439586,0.0
340034840,0.0009767143,0.00896401,-0.004350096,0.0
340074157,0.0009819269,0.010112221,-0.004256564,0.0
340091985,0.00088999514,0.010707904,-0.0042131776,0.0
340112210,0.0009589304,0.011161453,-0.004158831,0.0
340135250,0.00095829746,0.011496908,-0.0040898593,0.0
340154071,0.00095664937,0.011692581,-0.0040463787,0.0
340171823,0.00086975493,0.011911781,-0.004000086,0.0
340192159,0.0007384342,0.01211946,-0.003951713,0.0
340212426,0.00068511895,0.012394661,-0.003907971,0.0
340232714,0.0005152118,0.0126898065,-0.0038607628,0.0
340253001,0.00042531916,0.01285408,-0.003808976,0.0
340273311,0.00023138298,0.012936124,-0.0037633902,0.0
340293605,4.2917603e-05,0.012927842,-0.003713329,0.0
340312654,-2.319187e-05,0.012747926,-0.0036742585,0.0
340334182,-0.0003969146,0.0125504425,-0.0036311017,0.0
340354486,-0.00039677336,0.012465836,-0.0035889223,0.0
340374774,-0.0005313908,0.012526529,-0.003530211,0.0
340395078,-0.00047346586,0.0126399435,-0.0034707412,0.0
340415367,-0.0005492466,0.012943936,-0.0034091454,0.0
340435657,-0.00045111091,0.013392975,-0.0033360056,0.0
340454692,-0.0002822002,0.013720749,-0.0032745912,0.0
340472555,-0.00023527707,0.014075482,-0.003211928,0.0
340496534,-6.4218916e-06,0.014371846,-0.0031402127,0.0
340518129,3.7462036e-05,0.014538568,-0.003063,0.0
340532127,4.2962038e-05,0.014733803,-0.0030132136,0.0
340553716,0.00010253571,0.014916908,-0.0029358931,0.0
340577710,0.00013061221,0.0149900215,-0.0028515481,0.0
340591686,0.00015357602,0.014951365,-0.0027957999,0.0
340613287,0.0003597829,0.014902116,-0.0027134754,0.0
340633672,0.00047480446,0.01486452,-0.0026290556,0.0
340652629,0.0005911518,0.014695266,-0.00255041,0.0
340672846,0.00068514876,0.014505213,-0.0024621042,0.0
340693140,0.00083209353,0.014314615,-0.0023848822,0.0
340714908,0.0008789819,0.014147564,-0.002296399,0.0
340732462,0.001162052,0.014068399,-0.0022164565,0.0
340752786,0.0012864788,0.014004829,-0.002129241,0.0
340774341,0.0014888794,0.01383978,-0.0020195954,0.0
340792285,0.0016119045,0.013592707,-0.0019316613,0.0
340812380,0.0017300904,0.013408924,-0.0018304769,0.0
340833951,0.0020199385,0.01310588,-0.0017286818,0.0
340854317,0.002177992,0.012791632,-0.0016384597,0.0
340912599,0.0023249798,0.012024359,-0.0013909801,0.0
340937944,0.0024249982,0.011746727,-0.0013013827,0.0
340952082,0.0024205865,0.0115266405,-0.0012588907,0.0
340973539,0.0023845388,0.011096755,-0.0012112679,0.0
340992516,0.0021034605,0.010789897,-0.0011777827,0.0
341011541,0.0019134893,0.010504035,-0.0011482253,0.0
341033138,0.0014936937,0.010407167,-0.0011216,0.0
341054658,0.0011957862,0.010382935,-0.0011041285,0.0
341073656,0.000877746,0.010285442,-0.0010877574,0.0
341115734,0.0003781738,0.010669766,-0.0010783384,0.0
341134604,0.00029776798,0.010735986,-0.0010782921,0.0
341152338,0.00020459334,0.010963678,-0.0010838012,0.0
341172660,-1.782006e-05,0.01112602,-0.0010937762,0.0
341191672,-2.0098065e-05,0.011499093,-0.0011105547,0.0
341232207,-5.0942388e-05,0.012302716,-0.0011600611,0.0
341253786,9.212882e-05,0.012792465,-0.0011934441,0.0
341274117,0.00026859727,0.013216945,-0.0012253805,0.0
341291868,0.0003559684,0.013604653,-0.0012630945,0.0
341313386,0.00052898546,0.013847263,-0.0013123398,0.0
341332427,0.0006635832,0.01405987,-0.0013571073,0.0
341353968,0.00072467444,0.014201252,-0.0014140146,0.0
341373077,0.00074376416,0.014298402,-0.0014694089,0.0
341394558,0.000799905,0.014437107,-0.0015267082,0.0
341414859,0.0008721634,0.014456923,-0.0015858981,0.0
341435154,0.0009491597,0.014471428,-0.0016425151,0.0
341474466,0.0011147618,0.014115326,-0.0017659657,0.0
341496032,0.001238698,0.013856514,-0.001834878,0.0
341512548,0.001350132,0.01367642,-0.00189799,0.0
341536680,0.0014788525,0.013587991,-0.0019983589,0.0
341556915,0.0016963156,0.013389941,-0.0020876625,0.0
341593754,0.0018617258,0.013240062,-0.002256509,0.0
341614179,0.0019761652,0.01313257,-0.0023597642,0.0
341636832,0.0020236715,0.013180182,-0.0024747783,0.0
341652138,0.002136758,0.013215122,-0.002552935,0.0
341692821,0.0023209054,0.0132951,-0.00274936,0.0
341714194,0.002507405,0.013249269,-0.0028481951,0.0
341734491,0.002629602,0.0131925065,-0.0029448061,0.0
341754788,0.0028325135,0.012885793,-0.0030394497,0.0
341815673,0.0031988309,0.011866783,-0.0033460537,0.0
341834690,0.0032425283,0.011433845,-0.0034441128,0.0
341852770,0.0032874343,0.011078096,-0.0035477728,0.0
341872751,0.003264854,0.010700275,-0.0036639431,0.0
341912098,0.0032235724,0.010065667,-0.0039054484,0.0
341932627,0.0031548988,0.009897068,-0.004040448,0.0
341953958,0.0031788212,0.009690223,-0.0041682757,0.0
341992003,0.003502329,0.009691212,-0.0043835947,0.0
342012281,0.0036824998,0.009841084,-0.0044920715,0.0
342033880,0.0037198907,0.010155199,-0.004617072,0.0
342051688,0.003728939,0.0105777895,-0.004712474,0.0
342073173,0.0036703665,0.011249544,-0.0048296894,0.0
342093529,0.0035020483,0.011762428,-0.0049441285,0.0
342131508,0.003117412,0.012327784,-0.005156768,0.0
342153161,0.0028291943,0.012169777,-0.0052636103,0.0
342174658,0.0029285708,0.011855798,-0.0053505427,0.0
342192577,0.0030588422,0.011586091,-0.005408749,0.0
342212691,0.0033012906,0.011345264,-0.005466807,0.0
342233012,0.0035182172,0.011233589,-0.0055203526,0.0
342257099,0.0037061328,0.011097963,-0.005581485,0.0
342272362,0.0038164959,0.011172671,-0.005625955,0.0
342314203,0.0037297984,0.01178347,-0.0057345056,0.0
342333169,0.0037104294,0.012158471,-0.005782027,0.0
342352312,0.003614138,0.012546869,-0.0058212834,0.0
342373758,0.0035562739,0.013120341,-0.0058689886,0.0
342392783,0.0034574014,0.013606484,-0.0059038913,0.0
342413080,0.0034803266,0.013994755,-0.0059372326,0.0
342433460,0.0035213702,0.014202523,-0.005958525,0.0
342453703,0.0034791797,0.014336817,-0.0059803086,0.0
342475233,0.0034247315,0.014299877,-0.005997738,0.0
342492991,0.0034323847,0.014245743,-0.006006021,0.0
342513444,0.0035012022,0.014222824,-0.0060137855,0.0
342534843,0.003706908,0.013692438,-0.006016314,0.0
342572936,0.003975147,0.012868046,-0.0060029426,0.0
342592222,0.0041204765,0.012389065,-0.0059868777,0.0
342614819,0.0042547756,0.011891262,-0.0059779454,0.0
342632532,0.0042208186,0.011436703,-0.005976619,0.0
342654104,0.0039878124,0.010937017,-0.0059795473,0.0
342673290,0.003649555,0.010698832,-0.005976866,0.0
342692162,0.0034018059,0.010540367,-0.0059684515,0.0
342713697,0.0032135057,0.010538778,-0.0059623746,0.0
342733979,0.003043626,0.010807519,-0.0059522875,0.0
342753216,0.0030072483,0.011300385,-0.005937755,0.0
342774564,0.003021244,0.011859128,-0.005910851,0.0
342793602,0.0030363644,0.012380532,-0.0058843773,0.0
342815168,0.0030718416,0.012850646,-0.005845744,0.0
342831862,0.003052449,0.013253806,-0.0058204005,0.0
342876041,0.0031547681,0.014068267,-0.005751257,0.0
342892623,0.0031735222,0.014282317,-0.00572312,0.0
342913041,0.0033984547,0.0144264465,-0.0056801233,0.0
342992736,0.0038480002,0.012985018,-0.0055534164,0.0
343014390,0.003698818,0.012375077,-0.005532565,0.0
343034600,0.0034031584,0.011861796,-0.0055206628,0.0
343052424,0.0032172296,0.011501584,-0.0055077085,0.0
343073931,0.0030045959,0.011061987,-0.0054970137,0.0
343094210,0.0027405962,0.010814686,-0.0054953895,0.0
343111996,0.0025430745,0.010624684,-0.0054919026,0.0
343134783,0.0024264734,0.010530886,-0.0054846094,0.0
343171699,0.002359599,0.0107901,-0.005459033,0.0
343195682,0.0024551526,0.011261587,-0.005430072,0.0
343215963,0.0025428168,0.011716298,-0.005412797,0.0
343236270,0.0027142218,0.012106085,-0.005390762,0.0
343251609,0.002895838,0.012299813,-0.0053726262,0.0
343273039,0.0032464461,0.012511543,-0.005342444,0.0
343297148,0.0035772403,0.012431141,-0.005307117,0.0
343332815,0.0037832737,0.012043488,-0.0052741137,0.0
343352972,0.0037810556,0.011502903,-0.005277175,0.0
343374506,0.0034665023,0.01102175,-0.005278327,0.0
343392335,0.0032579035,0.010708776,-0.0052833497,0.0
343434140,0.0028115408,0.010348545,-0.005282222,0.0
343451930,0.0026630086,0.010573464,-0.005274104,0.0
343472211,0.0026890691,0.010734245,-0.005254889,0.0
343493948,0.0027825013,0.011128842,-0.005233912,0.0
343531831,0.0031745946,0.011424938,-0.005165189,0.0
343553415,0.0033783684,0.011116938,-0.0051263846,0.0
343575103,0.003535811,0.010753723,-0.0051016402,0.0
343595259,0.0034821276,0.0102068875,-0.005090668,0.0
343612967,0.0033081311,0.009618502,-0.0050918,0.0
343632007,0.0030370806,0.009232367,-0.0050950507,0.0
343652485,0.002751848,0.008693076,-0.0051041576,0.0
343672588,0.002470722,0.008365807,-0.005117615,0.0
343692875,0.002178491,0.008231358,-0.0051278453,0.0
343714483,0.0018709903,0.008223293,-0.0051398845,0.0
343732462,0.001721336,0.008225021,-0.005152528,0.0
343753773,0.0016170284,0.00828874,-0.0051613026,0.0
343775456,0.0014961257,0.008430449,-0.0051769153,0.0
343794352,0.0014489084,0.008305586,-0.005189549,0.0
343813620,0.0014253269,0.008190555,-0.0052070976,0.0
343833661,0.0014336252,0.007934779,-0.005213321,0.0
343855225,0.0017455233,0.007635327,-0.0052151633,0.0
343875525,0.0020790761,0.0074216486,-0.005213203,0.0
343892106,0.0024254916,0.007298558,-0.005204648,0.0
343951646,0.0036030977,0.007254883,-0.005182432,0.0
343973210,0.003819254,0.007490952,-0.0051776636,0.0
344053112,0.0045420653,0.008101927,-0.0051674093,0.0
344073394,0.0046542375,0.008124571,-0.0051591625,0.0
344093691,0.004774066,0.008087201,-0.005149612,0.0
344113971,0.004898786,0.007937452,-0.0051427083,0.0
344134274,0.0050744484,0.007778561,-0.005134002,0.0
344153356,0.0051961257,0.007806091,-0.005125052,0.0
344174854,0.005291589,0.007679228,-0.0051276227,0.0
344193882,0.0053899614,0.0075266557,-0.0051381458,0.0
344214172,0.00529336,0.0073743626,-0.0051532737,0.0
344256030,0.004840851,0.0067558107,-0.0052226568,0.0
344276342,0.004550398,0.0065480103,-0.0052711563,0.0
344313249,0.0038245749,0.0064686486,-0.0053718695,0.0
344333452,0.0036205992,0.006513263,-0.005434187,0.0
344357503,0.0034701088,0.0068203667,-0.0055073947,0.0
344371487,0.003472061,0.007171423,-0.0055474145,0.0
344414663,0.003683954,0.007974211,-0.0056608077,0.0
344432381,0.0037533396,0.008182167,-0.005708247,0.0
344452751,0.003937117,0.008384268,-0.005758486,0.0
344473063,0.004180397,0.008239543,-0.0058066132,0.0
344512255,0.004439197,0.008115846,-0.005909709,0.0
344532580,0.004576197,0.008068194,-0.0059601585,0.0
344571932,0.004734717,0.0076926765,-0.0060706628,0.0
344592252,0.004804693,0.0076894555,-0.0061293403,0.0
344613721,0.00485736,0.007704801,-0.0061925137,0.0
344634190,0.0049762432,0.0073951995,-0.006254897,0.0
344651766,0.0049882573,0.00716206,-0.006307685,0.0
344673402,0.0049600014,0.0070080557,-0.0063710157,0.0
344693653,0.0049217744,0.0068293666,-0.006431377,0.0
344719126,0.0048123617,0.0064676804,-0.00651357,0.0
344732955,0.004683013,0.0063195797,-0.0065591782,0.0
344753317,0.0044262237,0.006071017,-0.0066366564,0.0
344812843,0.003478598,0.005719396,-0.0068860087,0.0
344834399,0.0031133478,0.005469594,-0.006981555,0.0
344852204,0.0028651939,0.0053940536,-0.0070650964,0.0
344872477,0.0025146,0.005396079,-0.0071602105,0.0
344894097,0.0022001427,0.0054204725,-0.0072616776,0.0
344914386,0.0019692555,0.0056430073,-0.0073569063,0.0
344995496,0.0015210249,0.00741167,-0.007739528,0.0
345012015,0.0014804022,0.00790285,-0.007819486,0.0
345033536,0.0014747644,0.008180164,-0.007924883,0.0
345055158,0.001445565,0.008432528,-0.008033543,0.0
345071611,0.0013619916,0.008640466,-0.008115672,0.0
345093162,0.0012391688,0.0087924,-0.008213159,0.0
345113481,0.001158213,0.008958591,-0.0082986755,0.0
345154047,0.0010872517,0.008914004,-0.008465077,0.0
345173056,0.0010495696,0.008889484,-0.00853976,0.0
345194619,0.00096934196,0.008736703,-0.008625004,0.0
345213710,0.0008571499,0.008695513,-0.008695957,0.0
345235202,0.0008220449,0.008814472,-0.008770851,0.0
345255500,0.0007706563,0.00894871,-0.008839387,0.0
345274526,0.0007649412,0.008918027,-0.00890282,0.0
345292483,0.0007190898,0.008778797,-0.008962371,0.0
345315117,0.00062103587,0.008729042,-0.009031413,0.0
345335412,0.0005353289,0.008854464,-0.009083748,0.0
345351967,0.00045898982,0.008910762,-0.009126009,0.0
345392482,0.0005679924,0.009168039,-0.009206139,0.0
345415393,0.0006287928,0.009470097,-0.009251289,0.0
345433085,0.0006391046,0.009836921,-0.009279683,0.0
345453675,0.00069902756,0.0100814,-0.009316912,0.0
345472403,0.0007434273,0.0101407515,-0.009336589,0.0
345493954,0.0007988328,0.0103405,-0.009350465,0.0
345512973,0.0008312069,0.010452093,-0.009366127,0.0
345533483,0.00083863863,0.010437305,-0.009376141,0.0
345554842,0.0008038462,0.010546633,-0.009380697,0.0
345575131,0.0007551286,0.01067646,-0.009376618,0.0
345594166,0.0006243975,0.010542021,-0.009345801,0.0
345615891,0.0006735929,0.010984265,-0.00931928,0.0
345632223,0.0006464797,0.011600001,-0.009301956,0.0
345652573,0.0006900603,0.012570243,-0.009278072,0.0
345676608,0.00064595323,0.012996356,-0.009241962,0.0
345692200,0.00043080738,0.012366059,-0.009213513,0.0
345712254,7.7375094e-05,0.010828522,-0.009181841,0.0
345733668,-0.0005627668,0.008882885,-0.009145954,0.0
345753975,-0.0009412073,0.007284043,-0.009104516,0.0
345771797,-0.0010365607,0.006581005,-0.009071878,0.0
345813641,-0.00066042383,0.0063165207,-0.00895271,0.0
345835142,-0.00021195722,0.006543203,-0.008880507,0.0
345852989,9.6254575e-05,0.006785161,-0.008812194,0.0
345873208,0.0012072023,0.0072628944,-0.008726603,0.0
345894804,0.001215004,0.007874817,-0.0086595295,0.0
345912516,0.00069848757,0.00813093,-0.008560542,0.0
345932821,0.0004953198,0.008498466,-0.008509156,0.0
345955631,0.0009655128,0.009068336,-0.0084516825,0.0
345972203,0.0013003894,0.009370579,-0.009271208,0.0
346052026,0.00089894864,0.008012046,-0.008456748,0.0
346073709,0.0012497741,0.0074731177,-0.008228062,0.0
346092649,0.0016107941,0.0071677584,-0.008035355,0.0
346117990,0.001789943,0.007129038,-0.007799871,0.0
346133257,0.0018436435,0.0072861514,-0.0076623647,0.0
346175062,0.002088294,0.0077882777,-0.0073022386,0.0
346191750,0.002164803,0.007956716,-0.0071592955,0.0
346213118,0.0021400116,0.008285562,-0.006985728,0.0
346234675,0.0021245512,0.0085245175,-0.0068276813,0.0
346252574,0.001984114,0.008484162,-0.0066982033,0.0
346272870,0.0018650814,0.00833071,-0.006547175,0.0
346293030,0.0018611215,0.00807996,-0.0063822563,0.0
346314647,0.0020411965,0.007407515,-0.0062042875,0.0
346332369,0.0021892486,0.0069611873,-0.0060533797,0.0
346352810,0.0024920886,0.0065946607,-0.005871308,0.0
346374215,0.002774078,0.0064076805,-0.005682923,0.0
346392077,0.002802426,0.0065207556,-0.005528055,0.0
346412249,0.0030295295,0.006751819,-0.0053454177,0.0
346432718,0.003000593,0.006929666,-0.005163357,0.0
346454119,0.0028511472,0.007371207,-0.0049684634,0.0
346471853,0.0027220428,0.007603298,-0.004813212,0.0
346493418,0.002473464,0.007977329,-0.0046248375,0.0
346512587,0.002247593,0.008181187,-0.004452698,0.0
346535287,0.0019260164,0.008139966,-0.004262312,0.0
346553030,0.0016875779,0.007904761,-0.004103534,0.0
346573353,0.0015318373,0.007587876,-0.003927245,0.0
346595094,0.0014571161,0.007113089,-0.0037162155,0.0
346615189,0.0014222716,0.006701168,-0.003518271,0.0
346635470,0.0015503479,0.0063355183,-0.0033096315,0.0
346655785,0.0017788818,0.005894657,-0.0030903276,0.0
346676270,0.0018035747,0.0057402328,-0.0028774368,0.0
346692549,0.0018074886,0.00563054,-0.0027098872,0.0
346716647,0.0017961437,0.005509149,-0.0024654896,0.0
346736943,0.0019235773,0.0054009305,-0.002257789,0.0
346773775,0.002073266,0.004876904,-0.0018396911,0.0
346792764,0.002302041,0.00457455,-0.0015985204,0.0
346811768,0.002494596,0.0041972375,-0.0013528104,0.0
346833343,0.002646525,0.004010485,-0.0010675873,0.0
346853639,0.0029822567,0.0039453823,-0.00078870985,0.0
346872657,0.0031022383,0.0037905576,-0.0005258947,0.0
346894229,0.0033216355,0.003521948,-0.00021810063,0.0
346913239,0.0033999102,0.0031386542,5.747951e-05,0.0
346933554,0.0035677035,0.0030163787,0.00037297068,0.0
346955103,0.0037430301,0.0030756593,0.00070766726,0.0
346975402,0.003842924,0.003301942,0.0010199936,0.0
346994415,0.003997898,0.0032926293,0.0013170554,0.0
347052767,0.0039736507,0.0022440336,0.0022524642,0.0
347076858,0.0038530554,0.0015434051,0.0026428963,0.0
347092314,0.0036194732,0.0008472785,0.0029007073,0.0
347112478,0.0035010208,-0.00021154081,0.003226493,0.0
347133948,0.003459709,-0.0014554955,0.003608517,0.0
347154290,0.0028818762,-0.0030091484,0.0039997315,0.0
347172154,0.003026383,-0.0043455553,0.004309635,0.0
347193646,0.0029572595,-0.0058739553,0.004713673,0.0
347213854,0.0026399463,-0.0072603854,0.005123713,0.0
347252097,0.0025719646,-0.009122173,0.00589173,0.0
347273454,0.0025722363,-0.009758257,0.006337209,0.0
347295043,0.002610616,-0.010124894,0.0067815026,0.0
347311605,0.0025484553,-0.010192361,0.0071371743,0.0
347333319,0.0026079966,-0.010028537,0.0075837495,0.0
347354659,0.0023410763,-0.009694601,0.008045915,0.0
347372482,0.002315955,-0.0094054565,0.008407381,0.0
347392734,0.0019141249,-0.009109565,0.00880052,0.0
347413227,0.0014446264,-0.009118083,0.009181575,0.0
347434542,0.0012344623,-0.0092036445,0.009569449,0.0
347452326,0.0013778268,-0.00936821,0.009893993,0.0
347472592,0.0014543235,-0.009684825,0.010257482,0.0
347491856,0.0014454883,-0.0096879555,0.0105838915,0.0
347511900,0.0012783699,-0.009426996,0.0109058,0.0
347532216,0.0010481967,-0.008985489,0.011236849,0.0
347553769,0.00048565073,-0.008694542,0.011553108,0.0
347572963,-9.716926e-05,-0.008510615,0.011800224,0.0
347613385,0.00017585511,-0.007622176,0.012377311,0.0
347633674,0.0025909217,-0.008409083,0.012453778,0.0
347655464,0.0025909217,-0.008409083,0.012453778,0.0
347673034,0.0025909217,-0.008409083,0.012453778,0.0
347693340,0.0034494237,-0.0036498578,0.012705065,0.0
347714837,0.0038956213,0.0015720095,0.012956639,0.0
347732656,0.0038869781,0.00449105,0.0131632,0.0
347752885,0.0038437245,0.0042413143,0.013195802,0.0
347774542,0.003933657,0.0039175525,0.013195802,0.0
347792305,0.0039111585,0.0041318513,0.013172532,0.0
347812515,0.0051065525,0.00867009,0.013167271,0.0
347832819,0.0046876795,0.010036455,0.013272802,0.0
347853105,0.004855227,0.009094018,0.013325319,0.0
347872141,0.0046283025,0.008834329,0.013452753,0.0
347893693,0.0056348722,0.008667849,0.013640095,0.0
347914052,0.0057668667,0.0076737893,0.013944675,0.0
347932989,0.006074229,0.007183215,0.014203269,0.0
347955825,0.0064745373,0.0065448154,0.014505903,0.0
347973601,0.0067829634,0.006087135,0.014751734,0.0
347995186,0.0070839883,0.0055641946,0.015051835,0.0
348011689,0.0073502557,0.0051490003,0.0152798835,0.0
348035738,0.0076945745,0.004600816,0.015619325,0.0
348113171,0.008510619,0.0028067701,0.016679734,0.0
348137196,0.008679473,0.0023117466,0.017010005,0.0
348152712,0.008737618,0.0020586546,0.017070426,0.0
348172767,0.008775711,0.001751659,0.01706242,0.0
348214602,0.00883209,0.0010982009,0.017057639,0.0
348232489,0.008858015,0.0008353552,0.017061677,0.0
348733347,0.009010191,-0.0014099639,0.01706737,0.0
348753689,0.009010191,-0.0014099639,0.01706737,0.0
348775223,0.009010191,-0.0014099639,0.01706737,0.0
348792992,0.009010191,-0.0014099639,0.01706737,0.0
348813272,0.009010191,-0.0014099639,0.01706737,0.0
348834790,0.009010191,-0.0014099639,0.01706737,0.0
348852589,0.009010191,-0.0014099639,0.01706737,0.0
348872839,0.009010191,-0.0014099639,0.01706737,0.0
348891927,0.009010191,-0.0014099639,0.01706737,0.0
348912167,0.009010191,-0.0014099639,0.01706737,0.0
