timestamp,gyro_rad[0],gyro_rad[1],gyro_rad[2],gyro_integral_dt,accelerometer_timestamp_relative,accelerometer_m_s2[0],accelerometer_m_s2[1],accelerometer_m_s2[2],accelerometer_integral_dt,accelerometer_clipping
317888430,-0.012232281,-0.0046792035,-0.026167456,5075,0,0.12548499,0.018109469,-9.820828,5075,0
317893716,-0.004825207,-0.0014589179,0.020547869,5286,0,0.13798027,0.0036692785,-9.777942,5286,0
317908806,-0.006223017,-0.0028969545,-0.010268193,5044,0,-0.046200994,0.16503598,-9.766386,5044,0
318010219,-0.008612845,-0.0008348877,-0.0041823504,5075,0,0.08791701,0.12983225,-9.84728,5075,0
318015309,-0.0067793634,0.006593258,-0.003937402,5090,0,0.08042902,-0.012198989,-9.638524,5090,0
318020384,-0.012947504,-0.0076229894,0.0033872512,5075,0,0.37825435,-0.15107282,-9.883028,5075,0
318025449,-0.010217882,-0.016007282,-0.0003351337,5065,0,-0.012171868,0.23161353,-9.874589,5065,0
318030524,-0.0050897277,3.053889e-05,-0.0048174546,5075,0,-0.11117766,0.14572787,-9.861383,5075,0
318035600,-0.007757735,0.011462667,-0.0032197773,5076,0,0.1537834,-0.05727777,-9.686,5076,0
318040679,-0.014028377,-0.008027726,0.0029537017,5079,0,0.38213906,-0.088961296,-9.872609,5079,0
318045738,-0.011635649,-0.017831502,-0.0019210691,5059,0,-0.002692516,0.120821536,-9.975139,5059,0
318050816,-0.009499186,0.0010656053,-0.0057276655,5078,0,-0.07783568,0.16543046,-9.883215,5078,0
318056176,-0.0073205996,0.010149993,-0.0014701698,5360,0,0.1327098,0.0026295409,-9.637187,5360,0
318061136,-0.011945984,-0.008364247,0.002161469,4960,0,0.3226491,-0.05550203,-9.888258,4960,0
318066149,-0.008531053,-0.014813925,-0.0028359152,5013,0,0.021599477,0.16538343,-10.015782,5013,0
318071138,-0.008333873,-0.0010242858,-0.0036014477,4989,0,-0.06673375,0.047783706,-9.7992325,4989,0
318076186,-0.010600355,0.0050851908,-0.0018285802,5048,0,0.11210992,-0.042247843,-9.6972,5048,0
318081280,-0.009141815,-0.0064210542,0.0036028703,5094,0,0.26260206,0.10913458,-9.765823,5094,0
318086349,-0.0068945587,-0.011377813,-0.0022088278,5069,0,0.0980799,0.12561736,-10.036458,5069,0
318091420,-0.007772033,-0.0031199122,-0.009020091,5071,0,-0.012796424,-0.02369287,-9.939373,5071,0
318096487,-0.010879195,0.0033726443,-0.0007330158,5067,0,0.08318404,-0.071877986,-9.723821,5067,0
318101614,-0.009331317,-0.0023292243,0.008124342,5127,0,0.1495935,0.19941288,-9.813044,5127,0
318106633,-0.0069223936,-0.007893752,-0.0043027005,5019,0,0.09874334,0.029732576,-9.903422,5019,0
318111718,-0.009077415,-0.0075893896,-0.0091620255,5085,0,0.08433879,-0.055855732,-9.951746,5085,0
318116786,-0.012336256,-0.0004552217,-5.178386e-05,5068,0,0.03284535,0.069710374,-9.845657,5068,0
318121861,-0.010028352,-0.00026286588,0.0069436715,5075,0,0.14142552,0.116963215,-9.763226,5075,0
318126941,-0.00501165,-0.0063155927,-0.0043462045,5080,0,0.09136229,0.09683808,-9.885328,5080,0
318132006,-0.010072168,-0.008018093,-0.012844548,5065,0,0.021204006,-0.09423079,-9.925567,5065,0
318137323,-0.013828894,-0.0008872648,0.0017705052,5317,0,0.06490319,-0.05642402,-9.870315,5317,0
318142361,-0.008754938,0.002223377,0.009350076,5038,0,0.09999511,0.23989275,-9.716086,5038,0
318147337,-0.005132629,-0.00825498,-0.006374421,4976,0,0.17298804,0.15919554,-9.872364,4976,0
318152338,-0.008332886,-0.010178114,-0.010637961,5001,0,0.084365726,-0.1350549,-9.9897995,5001,0
318157383,-0.014768244,-0.0010248654,0.0013738987,5045,0,0.023935758,-0.084470674,-9.933708,5045,0
318162457,-0.011571478,0.0039396356,0.0073111104,5074,0,0.11997727,0.25749892,-9.769418,5074,0
318167531,-0.0024128659,-0.009786467,-0.003870234,5074,0,0.11843198,0.109529,-9.812067,5074,0
318172606,-0.0064551565,-0.010853519,-0.012351345,5075,0,0.1139162,-0.10190259,-10.037171,5075,0
318177678,-0.01618936,0.0023728963,0.0021971029,5072,0,0.024857102,0.0003374972,-9.925187,5072,0
318182762,-0.011061376,0.0027107163,0.009456436,5084,0,0.12335618,0.12236016,-9.661609,5084,0
318187830,-0.0043054135,-0.013654624,-0.004902522,5068,0,0.116727956,0.23803256,-9.869765,5068,0
318192903,-0.0075491834,-0.008336594,-0.011232456,5073,0,-0.00037510297,-0.123592906,-9.986092,5073,0
318197976,-0.0153025715,0.0056413054,0.0020524967,5073,0,0.13791162,-0.14251038,-9.902986,5073,0
318203098,-0.011354657,-0.0034662252,0.007928186,5122,0,0.13322894,0.22015794,-9.751676,5122,0
318208130,-0.0042064656,-0.012777781,-0.0041443678,5032,0,0.06093282,0.24112019,-9.864493,5032,0
318213200,-0.0067916503,-0.0027631093,-0.011700891,5070,0,0.08478648,-0.13436534,-9.976291,5070,0
318218558,-0.0145812575,0.0045165485,-0.00034739394,5358,0,0.15515962,-0.16768508,-9.908973,5358,0
318223576,-0.014620197,-0.008338763,0.007236229,5018,0,0.09740749,0.21967158,-9.831225,5018,0
318228585,-0.0034251406,-0.010436642,-0.000805212,5009,0,0.009043412,0.2383037,-9.945562,5009,0
318233552,-0.0060494677,0.0018965419,-0.009694326,4967,0,0.09673396,-0.12932773,-9.916705,4967,0
318238573,-0.01601585,0.001519948,-0.0022136,5021,0,0.18154678,-0.08913141,-9.918705,5021,0
318243655,-0.012081713,-0.014061335,0.0055201035,5082,0,0.12164537,0.15142314,-9.878858,5082,0
318248722,-0.005830298,-0.00710878,0.0011118952,5067,0,-0.018819245,0.19261251,-9.914865,5067,0
318253799,-0.0055690873,0.006202864,-0.011286857,5077,0,0.049107596,-0.036808137,-9.850213,5077,0
318258877,-0.0110525135,-0.0035352595,-0.0017784805,5078,0,0.26564258,-0.13845633,-9.939175,5078,0
318263948,-0.012038396,-0.015223423,0.0092160115,5071,0,0.05038695,0.14779507,-9.971092,5071,0
318269020,-0.007888363,-0.0012588062,-0.0037285823,5072,0,-0.049804375,0.20952773,-9.928756,5072,0
318274108,-0.0067112115,0.00700894,-0.010933631,5088,0,0.1508468,0.03791471,-9.867179,5088,0
318279169,-0.009911718,-0.008422774,-1.781278e-05,5061,0,0.22972246,-0.17738101,-9.8851595,5061,0
318284271,-0.012161683,-0.013748745,0.0048708976,5102,0,0.028555768,0.12161054,-10.043875,5102,0
318289327,-0.009148102,0.0021870006,-0.0043106386,5056,0,-0.041005816,0.234432,-9.859864,5056,0
318294402,-0.0074888775,0.0038499958,-0.0074397093,5075,0,0.20130329,0.031804364,-9.807034,5075,0
318299512,-0.008880546,-0.0099897375,0.00028158826,5110,0,0.17154168,-0.1188945,-10.04491,5110,0
318304725,-0.012212589,-0.012497488,0.0035470342,5213,0,0.011831832,-0.030681156,-9.9587345,5213,0
318309736,-0.009390255,0.0025814548,-0.0045848447,5011,0,0.036379278,0.18336453,-9.948875,5011,0
318314732,-0.0056830077,0.0010428253,-0.00278818,4996,0,0.12136939,0.11439044,-9.806811,4996,0
318319794,-0.0065045953,-0.00846313,0.0027186812,5062,0,0.21549918,-0.085511975,-9.923145,5062,0
318324850,-0.014411961,-0.006606242,-0.001513574,5056,0,0.072617546,-0.029354006,-10.01192,5056,0
318329918,-0.011415215,0.0011873622,-0.006266926,5068,0,-0.05883019,0.20203461,-9.893333,5068,0
318335017,-0.0037291711,0.0006207099,0.0006235274,5099,0,0.1405424,0.123521335,-9.866879,5099,0
318340067,-0.0074019455,-0.007064869,0.0028524376,5050,0,0.18229564,-0.11318272,-9.901856,5050,0
318345141,-0.012337866,-0.009503037,-0.0056918752,5074,0,0.099851824,0.044830434,-9.961679,5074,0
318350221,-0.00956279,-0.003165942,-0.008022277,5080,0,-0.02694369,0.113907464,-9.932485,5080,0
318355327,-0.0056244996,-0.0008201416,0.0029539834,5106,0,0.07739347,0.06579909,-9.816674,5106,0
318360372,-0.010090541,-0.0029216572,0.0036938114,5045,0,0.17698789,-0.042605374,-9.862464,5045,0
318365446,-0.011804729,-0.008892977,-0.009654663,5074,0,0.12222665,0.05724999,-9.957606,5074,0
318370512,-0.007530851,-0.008877683,-0.004785606,5066,0,0.05443902,0.07620371,-10.040638,5066,0
318375596,-0.009691309,0.0013002417,0.008830501,5084,0,0.08815847,-0.014957253,-9.885579,5084,0
318380669,-0.011037507,0.0006740047,-0.0028557123,5073,0,0.1377733,0.051957954,-9.834592,5073,0
318385921,-0.01016849,-0.010916386,-0.010827889,5252,0,0.13426907,0.1496079,-9.871729,5252,0
318390991,-0.008286331,-0.009326021,-0.0025519608,5070,0,0.06747127,-0.009727083,-10.059515,5070,0
318395924,-0.011514794,0.0041984217,0.003907846,4933,0,0.032439962,-0.048201356,-9.894991,4933,0
318400962,-0.011453506,0.0016164709,-0.0014537771,5038,0,0.11885876,0.23789051,-9.748192,5038,0
318426342,-0.0016635053,-0.013690695,-0.006190013,5058,0,0.108085,0.021214541,-9.954373,5058,0
318431416,-0.009334553,-0.0037298312,-0.004348393,5074,0,-0.014320314,-0.23090982,-10.014824,5074,0
318436485,-0.017765611,0.0065598795,-0.00059064175,5069,0,0.123419285,0.034363054,-9.881639,5069,0
318441558,-0.007941379,-0.0051173153,0.0055104545,5073,0,0.18743967,0.29950416,-9.736165,5073,0
318446630,-7.70419e-05,-0.012694385,-0.005020467,5072,0,0.11820755,0.13400863,-10.02438,5072,0
318451716,-0.0127572445,-0.0020736717,-0.0077657606,5086,0,0.02699607,-0.23470539,-10.020745,5086,0
318456782,-0.01744643,0.0047899596,0.00062575174,5066,0,0.111826025,-0.022729602,-9.823709,5066,0
318461862,-0.007054134,-0.0073785926,0.0057113213,5080,0,0.05794747,0.38921046,-9.839152,5080,0
318467191,-0.0016889945,-0.008857978,-0.003281013,5329,0,0.068028934,0.030406717,-9.921617,5329,0
318472151,-0.012267384,8.341976e-06,-0.010358859,4960,0,0.16565016,-0.23249823,-9.971603,4960,0
318477131,-0.018497912,-0.0018783894,0.0007463427,4980,0,0.11491645,0.07503833,-9.8766985,4980,0
318482224,-0.0056509576,-0.007716511,0.01060453,5093,0,0.050572127,0.3180846,-9.923509,5093,0
318487235,-0.005080289,-0.0036040316,-0.004921236,5011,0,0.0128455805,0.00827295,-9.9463625,5011,0
318492315,-0.013415678,0.0022960473,-0.016836964,5080,0,0.11391827,-0.24938712,-9.881652,5080,0
318497386,-0.0142112225,-0.005383216,0.0031103955,5071,0,0.16914654,0.082978606,-9.969228,5071,0
318502461,-0.008213814,-0.0069917273,0.0119313635,5075,0,0.050063487,0.21849617,-9.908676,5075,0
318507525,-0.008129561,0.0011509116,-0.01014036,5064,0,0.028614746,0.079898715,-9.89563,5064,0
318512609,-0.011319673,0.0017050379,-0.014807333,5084,0,0.16360423,-0.0097546335,-9.921779,5084,0
318517674,-0.010659771,-0.011411443,0.0062722373,5065,0,0.15681751,-0.057577662,-9.996144,5065,0
318522752,-0.009345702,-0.008739285,0.010982496,5078,0,-0.009634902,0.083464585,-9.930964,5078,0
318527826,-0.0080231335,0.0028670528,-0.012449199,5074,0,-0.019926758,0.16288047,-9.849393,5074,0
318532910,-0.008681864,-0.00021482217,-0.010254184,5084,0,0.22709009,0.021975823,-9.889239,5084,0
318537973,-0.008367986,-0.0116379,0.008274961,5063,0,0.23394735,-0.08801019,-10.035549,5063,0
318543066,-0.013282096,-0.0075270683,0.0022691675,5093,0,-0.035157252,0.029047424,-9.96188,5093,0
318548341,-0.009903471,0.0032923645,-0.013079763,5275,0,0.013969068,0.24063729,-9.857318,5275,0
318553354,-0.005308464,-0.0019066568,-0.0031307174,5013,0,0.23477757,0.07600124,-9.875496,5013,0
318558384,-0.007768139,-0.008506393,0.010074589,5030,0,0.11884896,-0.15114816,-9.9935875,5030,0
318563352,-0.017392784,-0.007644606,-0.0039820257,4968,0,-0.008948029,0.06728519,-9.952791,4968,0
318568423,-0.011209027,0.0023918143,-0.008943112,5071,0,0.054614466,0.26921618,-9.837801,5071,0
318573504,-0.0057826685,-0.0008998219,0.0040117656,5081,0,0.14401491,-0.00083365437,-9.867709,5081,0
318578569,-0.009535965,-0.007824691,0.004105796,5065,0,0.12353148,-0.17624995,-9.995974,5065,0
318583644,-0.014149795,-0.0077421623,-0.00850505,5075,0,0.08009371,0.10640473,-9.987881,5075,0
318588721,-0.008170642,-0.0025345716,-0.0045785466,5077,0,-0.014840489,0.27811912,-9.962387,5077,0
318593796,-0.003915121,0.0005145192,0.0076345205,5075,0,0.18420461,-0.022245334,-9.791148,5075,0
318598868,-0.011562098,-0.005765579,-0.0023313086,5072,0,0.17199557,-0.13801858,-9.934301,5072,0
318603973,-0.014325394,-0.009407769,-0.012538495,5105,0,-0.0052756406,0.13719016,-9.988047,5105,0
318629567,-0.007600468,-0.0017160521,0.0038096772,5281,0,-0.00436667,0.030372867,-9.933722,5281,0
318634573,-0.011483133,0.0038618576,0.00766506,5006,0,0.13865307,-0.046149097,-9.820078,5006,0
318639596,-0.012486899,-0.006295233,-0.009528613,5023,0,0.16068277,0.1985426,-9.942317,5023,0
318644572,-0.006863113,-0.013346992,-0.008562498,4976,0,0.11570072,0.089198485,-10.035664,4976,0
318649636,-0.009867061,0.00083485397,0.005093287,5064,0,0.00035148536,-0.122563,-10.02251,5064,0
318654692,-0.016268909,0.0068326304,0.0033174292,5056,0,0.06721877,0.02955309,-9.772726,5056,0
318659765,-0.00827876,-0.0079626255,-0.008214494,5073,0,0.19990246,0.25642002,-9.88935,5073,0
318664846,-0.0020690742,-0.013657909,-0.0057312287,5081,0,0.07121224,0.016845588,-10.113659,5081,0
318669911,-0.01243754,0.00019682082,0.00053308083,5065,0,0.028211897,-0.21890694,-9.941591,5065,0
318675008,-0.018646684,0.0021304893,0.00234108,5097,0,0.13322836,0.14539146,-9.829701,5097,0
318680074,-0.00446087,-0.008906315,-0.005309287,5066,0,0.10282255,0.3223145,-9.922726,5066,0
318685141,-0.000599792,-0.010058729,-0.004222214,5067,0,0.0421824,-0.0996273,-10.0485325,5067,0
318690219,-0.01684363,0.002568634,-0.004399037,5078,0,0.06552628,-0.28576183,-10.037771,5078,0
318695340,-0.014047817,-0.00019367777,0.0002453768,5121,0,0.12769239,0.25235564,-9.815703,5121,0
318700375,-0.0014581012,-0.00951997,0.003153317,5035,0,0.115342505,0.44686326,-9.881012,5035,0
318705434,-0.0005297743,-0.006353726,-0.006496323,5059,0,0.10102471,-0.27470875,-9.983706,5059,0
318710741,-0.019599872,0.0009933843,-0.008214694,5307,0,0.05124128,-0.23880975,-9.991406,5307,0
318715729,-0.013078985,-0.0009918304,0.0035627405,4988,0,0.07592386,0.35759282,-9.930834,4988,0
318720754,-0.0014709191,-0.009311923,0.007883995,5025,0,0.13164261,0.24447823,-9.883752,5025,0
318725740,-0.0054303315,-0.002180434,-0.008781831,4986,0,0.066748224,-0.23550376,-9.965816,4986,0
318730806,-0.018743675,0.0010289318,-0.010379038,5066,0,0.10069574,-0.108098,-9.962879,5066,0
318735881,-0.012952937,-0.0037842174,0.009083434,5075,0,0.19987583,0.31230795,-9.933955,5075,0
318740962,-0.002985967,-0.0072014313,0.009311356,5081,0,0.026712868,0.15373914,-9.915331,5081,0
318746030,-0.009618632,-4.3433945e-05,-0.015195011,5068,0,0.035567705,-0.15173146,-9.967097,5068,0
318751104,-0.017029379,-0.00086981565,-0.009194726,5074,0,0.21771425,0.006861934,-9.928548,5074,0
318756195,-0.0062796795,-0.007669756,0.014942095,5091,0,0.10863885,0.12948254,-9.999678,5091,0
318761280,-0.0069180084,-0.004540915,0.0025183295,5085,0,-0.012592599,0.17437798,-9.984298,5085,0
318766331,-0.008643717,0.00014850684,-0.01863662,5051,0,0.10670946,-0.042557463,-9.843702,5051,0
318771405,-0.010996048,-0.002595034,-0.0046626744,5074,0,0.16281956,-0.01636991,-9.927416,5074,0
318776502,-0.0080216015,-0.010608865,0.012667917,5097,0,0.040725533,0.016115412,-10.018326,5097,0
318781565,-0.009485383,-0.004985478,0.00018664365,5063,0,0.045272864,0.10978984,-9.9241295,5063,0
318786636,-0.009453415,9.5211784e-05,-0.015618884,5071,0,0.13630797,0.18786788,-9.918,5071,0
318792009,-0.0072266147,-0.004042628,0.00038892857,5373,0,0.14701799,-0.029094758,-9.99302,5373,0
318796979,-0.010649186,-0.008811593,0.010815144,4970,0,0.086011484,-0.1678456,-10.020678,4970,0
318801966,-0.01607665,-0.003584555,-0.006866787,4987,0,0.024739146,0.2303938,-9.943156,4987,0
318806966,-0.0068244003,0.0032258357,-0.012397031,5000,0,0.036861792,0.20316534,-9.953796,5000,0
318812020,-0.0041270037,-0.003076543,0.007988588,5054,0,0.26490128,-0.09370781,-9.930691,5054,0
318817077,-0.0137797985,-0.010250726,0.0030006028,5057,0,0.098044574,-0.15106264,-10.034436,5057,0
318822166,-0.015213088,-0.004628534,-0.011864954,5089,0,-0.04705244,0.22983703,-9.94407,5089,0
318827225,-0.0036718566,0.0019671929,-0.0049791024,5059,0,0.11881047,0.30504084,-9.971391,5059,0
318832317,-0.0034795846,-0.0039015976,0.00817103,5092,0,0.14541453,-0.22525305,-9.87657,5092,0
318842449,-0.013934056,-0.0060376264,-0.009622321,5068,0,0.0050310846,0.3023944,-10.042598,5068,0
318847521,-0.0014401871,0.0031868406,0.0045584724,5072,0,0.09021716,0.16795963,-9.905851,5072,0
318852598,-0.006852607,-0.0014185717,0.0059207203,5077,0,0.22743006,-0.16267045,-9.885596,5077,0
318857674,-0.016274853,-0.011704932,-0.011498177,5076,0,0.09469426,-0.08200543,-10.000876,5076,0
318862755,-0.011634187,-0.007413413,-0.007152741,5081,0,0.004456819,0.29685724,-10.040155,5081,0
318867826,-0.0022766262,0.0041325837,0.006321205,5071,0,0.04415707,0.12651879,-9.949852,5071,0
318908420,-0.010891719,0.0045562373,0.006800419,5066,0,0.079790905,-0.1736754,-9.805703,5066,0
318913493,-0.013445052,-0.0020804654,-0.004571931,5073,0,0.17104438,0.20699333,-9.841897,5073,0
318918576,-0.006236429,-0.012838348,-0.009788972,5083,0,0.08796317,0.22810993,-10.021825,5083,0
318923639,-0.003534222,-0.005534205,-0.0006613612,5063,0,0.071617216,-0.23035556,-10.050844,5063,0
318928725,-0.013951911,0.0047211195,0.0011919287,5086,0,0.07577908,-0.050979152,-9.880295,5086,0
318949012,-0.021419145,0.0022242898,-0.002407976,5074,0,0.075331405,-0.059515346,-9.895839,5074,0
318954356,-0.012205152,-0.0035180014,0.0034941665,5344,0,0.17746004,0.47386765,-9.870944,5344,0
318959351,0.0025899839,-0.009945157,-0.00046597884,4995,0,0.10960696,0.078073844,-9.972519,4995,0
318964370,-0.010459719,-0.004293837,-0.011427521,5019,0,0.06421905,-0.35918814,-10.087514,5019,0
318969351,-0.021402389,-0.0013069429,-0.00240177,4981,0,0.12557729,0.07060702,-9.9103775,4981,0
318974388,-0.0073518096,-0.0028099825,0.011573757,5037,0,0.05230281,0.35916403,-9.883973,5037,0
318979480,0.0004932678,-0.0061610406,-0.0014505829,5092,0,0.047547434,0.03947033,-9.95506,5092,0
319025139,-0.009272809,-0.0025408345,-0.016940959,5082,0,0.14192462,-0.074600995,-9.960665,5082,0
319030208,-0.011006705,-0.0034033526,0.008506653,5069,0,0.18277173,0.012499056,-10.039773,5069,0
319035304,-0.010698605,-0.006803458,0.009255081,5096,0,0.0068121627,0.06207114,-9.91378,5096,0
319040573,-0.0096120415,-0.004189991,-0.012070549,5269,0,0.04215046,0.1625059,-9.898122,5269,0
319045591,-0.006626022,-0.0010635552,-0.0105282655,5018,0,0.14671706,0.05023796,-10.025107,5018,0
319050550,-0.0106052365,-0.0036464443,0.008525726,4959,0,0.12748191,-0.13808241,-9.9429035,4959,0
319055616,-0.014355095,-0.008763535,0.0039150068,5066,0,0.07285163,0.06750768,-9.924227,5066,0
319060672,-0.010509766,-0.006645107,-0.012774826,5056,0,0.020077202,0.23498365,-9.918796,5056,0
319065729,-0.00457945,0.0023868468,-0.0059561376,5057,0,0.051440958,0.06933395,-9.98662,5057,0
319070813,-0.009373574,-0.0039772936,0.0093343705,5084,0,0.15394054,-0.21356334,-9.9359,5084,0
319075890,-0.015074889,-0.010999871,-0.0014349119,5077,0,0.11409739,0.0006259042,-10.028617,5077,0
319080957,-0.008479372,-0.0023643607,-0.011016251,5067,0,-0.055715904,0.37555462,-10.002254,5067,0
319086025,-0.002236105,0.0046031186,0.0029796772,5068,0,0.15669663,-0.020928385,-9.915631,5068,0
319091112,-0.011080016,-0.0057377005,0.005205824,5087,0,0.2821111,-0.25545755,-9.938046,5087,0
319096176,-0.015355061,-0.012490475,-0.010007951,5064,0,-0.023835137,0.1051133,-10.053449,5064,0
319101258,-0.0052447463,-1.6668604e-05,-0.004714403,5082,0,0.026002364,0.33847007,-10.015741,5082,0
319106332,-0.0034692665,0.005750748,0.0060430057,5074,0,0.17847529,-0.044550493,-9.933218,5074,0
319111412,-0.01367093,-0.0075784205,-0.0019485143,5080,0,0.18209678,-0.20532098,-9.859205,5080,0
319126811,-0.005169581,0.006594552,0.005278354,5047,0,0.13706653,-0.08007723,-9.852153,5047,0
319131748,-0.013138803,-0.010951724,-0.005517108,4937,0,0.20790161,-0.049098574,-9.994121,4937,0
319136802,-0.013364214,-0.013531325,-0.008603497,5054,0,0.09004353,0.18701549,-10.082577,5054,0
319141857,-0.0053992216,0.0024744987,0.005123197,5055,0,-0.054110028,0.08524049,-10.009432,5055,0
319146920,-0.011539234,0.0044032442,-0.00035608825,5063,0,0.14368643,-0.068458445,-9.823863,5063,0
319152011,-0.0123780845,-0.010941542,-0.0054736887,5091,0,0.22244257,0.11459293,-9.938856,5091,0
319157079,-0.0045700567,-0.011415665,-0.0061157425,5068,0,-0.02325604,0.07985298,-10.151838,5068,0
319162157,-0.008184482,0.0026851152,0.00042257266,5078,0,0.08867879,-0.08637669,-10.001306,5078,0
319167218,-0.012164075,0.003047036,0.0013081955,5061,0,0.15624322,0.06565726,-9.874794,5061,0
319172321,-0.008147388,-0.010083297,-0.0029244884,5103,0,0.119927436,0.21537662,-9.955012,5103,0
319177371,-0.0058709723,-0.007280618,-0.006128093,5050,0,0.0116846105,-0.012274227,-10.052065,5050,0
319182453,-0.010650736,0.0014146955,-0.00050962897,5082,0,0.06372866,-0.13562214,-9.871007,5082,0
319187516,-0.013823319,-0.0018159118,0.00033227552,5063,0,0.11652995,0.22015348,-9.878064,5063,0
319192602,-0.0043331245,-0.009369219,-0.00069864985,5086,0,0.10291926,0.24500203,-9.965785,5086,0
319197665,-0.0041115847,-0.005118112,-0.004286394,5063,0,0.109939896,-0.18449998,-9.958086,5063,0
319203003,-0.015470878,-0.002816322,-0.0070409575,5338,0,0.039755255,-0.1322378,-10.022045,5338,0
319207946,-0.015627217,-0.00024417473,0.0033332012,4943,0,0.07693832,0.21191126,-9.847774,4943,0
319212951,-0.003985701,-0.005426822,0.0051072533,5005,0,0.14288314,0.27025813,-9.967472,5005,0
319228112,-0.0138140265,-0.0016303423,0.007195401,5062,0,0.10380544,0.2499691,-9.979547,5062,0
319233190,-0.0042255246,-0.00055692,0.0038810796,5078,0,0.013610257,0.1590411,-9.8669405,5078,0
319238280,-0.008620907,-0.006955194,-0.014625287,5090,0,0.10839428,-0.092915416,-9.970966,5090,0
319243336,-0.016054818,-0.005645293,-0.006743036,5056,0,0.14850496,-0.09866468,-10.035984,5056,0
319248413,-0.013136625,0.00075652974,0.010238621,5077,0,-0.014609236,0.22969499,-9.947564,5077,0
319253488,-0.0026757228,-0.003014062,0.0045718346,5075,0,0.09073601,0.24536338,-9.808927,5075,0
319258564,-0.005838248,-0.007914568,-0.013524126,5076,0,0.15467076,-0.096469074,-9.960679,5076,0
319263647,-0.01341784,-0.0065709427,-0.0069331345,5083,0,0.056485087,-0.15056644,-10.115383,5083,0
319268709,-0.012343386,-0.000900927,0.011482972,5062,0,0.044007193,0.112118624,-9.891534,5062,0
319273788,-0.007956871,-0.0035394346,0.0024702307,5079,0,0.16694559,0.25369745,-9.852825,5079,0
319278874,-0.0055772923,-0.009043395,-0.015711227,5086,0,0.050512496,-0.0018447988,-9.994828,5086,0
319284156,-0.009818599,-0.0016981941,-0.005063344,5282,0,0.14335151,-0.10122772,-10.0458145,5282,0
319289198,-0.012347532,-0.00056435174,0.009537073,5042,0,0.10186535,0.060829252,-9.912588,5042,0
319294160,-0.009685459,-0.007119133,0.001264749,4962,0,0.057725843,0.18143041,-9.847537,4962,0
319299195,-0.0062895725,-0.0057804915,-0.014927795,5035,0,0.0063344766,0.13652569,-10.039647,5035,0
319304291,-0.008288528,0.001466219,-0.0015674441,5096,0,0.20012394,-0.19813311,-9.959076,5096,0
319319463,-0.0035351636,-0.0006102311,-0.0092365965,5073,0,0.07623247,0.13688485,-9.944974,5073,0
319324537,-0.00799669,0.0032239417,-0.0015772503,5074,0,0.14792465,-0.19465405,-9.969496,5074,0
319329615,-0.016792277,-0.007471961,0.0025054358,5078,0,0.14018571,-0.10765689,-9.908112,5078,0
319334694,-0.012286649,-0.011259765,-0.0018878581,5079,0,0.07287724,0.31125155,-10.019717,5079,0
319339755,-0.003578315,0.0007798635,-0.0038684066,5061,0,0.0137503715,0.15482728,-9.9669285,5061,0
319344827,-0.0065041115,0.004656048,-0.002954771,5072,0,0.167078,-0.1577667,-9.874245,5072,0
319349905,-0.014902065,-0.012442596,0.00071473944,5078,0,0.18743393,-0.09311641,-9.943186,5078,0
319354983,-0.009250544,-0.011968912,-0.0015539239,5078,0,-0.07214874,0.29029515,-10.0572405,5078,0
319360053,-0.0016744458,0.005722419,-0.0032211305,5070,0,-0.06652744,0.17759952,-9.914738,5070,0
319385427,-0.010723082,0.0013295503,-0.0009306414,5053,0,0.26141456,-0.064400844,-9.830464,5053,0
319390507,-0.010947454,-0.01403966,-0.0030213385,5080,0,0.0886533,-0.03783751,-10.061769,5080,0
319395581,-0.009298586,-0.003861843,-0.0035552057,5074,0,0.002421953,0.18169887,-10.133914,5074,0
319400657,-0.008092423,0.00666389,-0.00085528794,5076,0,0.061461456,0.094210126,-9.808234,5076,0
319405721,-0.009259691,-0.0034142851,-0.0005175652,5064,0,0.1822888,-0.014846218,-9.899665,5064,0
319410799,-0.010686415,-0.011755931,-0.0029037192,5078,0,0.09352174,0.06866544,-10.028765,5078,0
319415882,-0.010860008,-0.0031810356,-0.0008836614,5083,0,-0.009469683,0.068464555,-9.950279,5083,0
319420948,-0.010552297,0.004032443,-0.0023186207,5066,0,0.045254182,0.091915965,-9.921575,5066,0
319431101,-0.00716115,-0.010506546,-0.00068092684,5081,0,0.111457735,0.07402223,-10.056702,5081,0
319436174,-0.0100487815,-0.0023312706,-0.0071703386,5073,0,-0.04038928,-0.07796646,-10.010278,5073,0
319441307,-0.010884074,0.00043356797,-0.0014460378,5133,0,0.12203365,0.010666614,-9.878624,5133,0
319446588,-0.008840159,-0.00088019005,0.0058312207,5281,0,0.22066362,0.199325,-9.922829,5281,0
319451587,-0.0069223815,-0.006425978,-0.0045493604,4999,0,0.081467845,0.05120155,-9.93502,4999,0
319456615,-0.0089586945,-0.008241964,-0.010977971,5028,0,0.07865364,-0.06868319,-10.007843,5028,0
319461612,-0.011531588,-0.0012840898,-0.0022721821,4997,0,0.06848509,0.07322599,-9.929863,4997,0
319466618,-0.01025225,0.0020804459,0.005113014,5006,0,0.048073247,0.14926079,-9.88166,5006,0
319471693,-0.0045225834,-0.0047773523,-0.0033027537,5075,0,0.11106451,0.08251649,-9.918475,5075,0
319476768,-0.008349266,-0.011977303,-0.009733945,5075,0,0.13104823,-0.07452031,-10.040418,5075,0
319481850,-0.012222032,-0.0037648974,0.00083496585,5082,0,0.015548122,0.04314754,-9.9981165,5082,0
319486914,-0.011160661,0.0039881994,0.009732262,5064,0,0.11438768,0.18401471,-9.833696,5064,0
319492013,-0.005634045,-0.0052980348,-0.0046159956,5099,0,0.19314519,0.13742043,-9.955577,5099,0
319497075,-0.0066336105,-0.013614231,-0.013440093,5062,0,0.020048045,-0.14172705,-10.077707,5062,0
319502140,-0.012944555,-0.0011342632,0.0020353976,5065,0,0.070601426,-0.08910995,-10.06788,5065,0
319507233,-0.010439729,0.0051036193,0.008958112,5093,0,0.1306421,0.23508193,-9.858228,5093,0
319537769,-0.007153821,-0.005590999,-0.010768364,4946,0,0.05880298,-0.14718871,-10.106555,4946,0
319542778,-0.016362322,0.005338711,0.0005935183,5009,0,0.058297444,-0.12544966,-10.009292,5009,0
319547809,-0.013646872,-0.0026514237,0.0062112184,5031,0,0.15006535,0.20992243,-9.8500185,5031,0
319552890,-0.0037446644,-0.012846622,-0.002073634,5081,0,0.09156957,0.28377524,-9.920387,5081,0
319557964,-0.0055887112,-0.00031105496,-0.0117738675,5074,0,-0.014425903,-0.11433257,-10.046155,5074,0
319563035,-0.013883901,0.0033877585,-0.0013157813,5071,0,0.14257206,-0.20175393,-10.012419,5071,0
319568111,-0.013078788,-0.0070672026,0.008806784,5076,0,0.20156492,0.20816262,-9.889412,5076,0
319573184,-0.0046307775,-0.009832221,-9.434972e-05,5073,0,-0.0061658313,0.22449441,-10.043793,5073,0
319578257,-0.0065964735,0.002552699,-0.010905839,5073,0,0.038447205,-0.077566795,-9.955639,5073,0
319583341,-0.015786,0.0012973628,-0.0038883416,5084,0,0.20535955,-0.1820443,-9.921547,5084,0
319588413,-0.012949666,-0.012813551,0.006095355,5072,0,0.10360289,0.24106151,-10.010289,5072,0
319593487,-0.0054483484,-0.007324269,-0.00270116,5074,0,-0.06265604,0.24144316,-9.992934,5074,0
319598554,-0.0072326227,0.0062651956,-0.0110466415,5067,0,0.12992284,-0.066958,-9.904338,5067,0
319603631,-0.01461354,-0.0019955076,-0.0022319576,5077,0,0.22992235,-0.110815,-9.969952,5077,0
319608976,-0.011554147,-0.015146962,0.0057976563,5345,0,0.06416829,0.053916853,-9.995608,5345,0
319613998,-0.0066884654,-0.0031361477,-0.00051418564,5022,0,-0.018961463,0.21213028,-10.015224,5022,0
319618951,-0.008736896,0.0063807624,-0.011902851,4953,0,0.09305956,0.06610677,-9.8661375,4953,0
319624030,-0.008816392,-0.0039165313,8.301024e-05,5079,0,0.2381405,-0.1601449,-9.938517,5079,0
319629001,-0.013120704,-0.01328595,0.0065176976,4971,0,0.08399446,0.08624957,-10.053165,4971,0
319634098,-0.011816916,0.0007616648,-0.004676463,5097,0,-0.110229,0.19588518,-9.965649,5097,0
319639153,-0.0081646945,0.005196788,-0.0075132987,5055,0,0.15958273,0.07109906,-9.813139,5055,0
319644276,-0.008618861,-0.008931867,0.00082855753,5123,0,0.2149816,-0.08453915,-9.950734,5123,0
319649327,-0.013655186,-0.011584821,0.0037633355,5051,0,0.027007302,-0.040721584,-10.099826,5051,0
319654386,-0.011750966,0.001415292,-0.007482131,5059,0,-0.028142173,0.2282177,-9.961996,5059,0
319659456,-0.00759979,0.0018096685,-0.0032802012,5070,0,0.21622944,0.136246,-9.889679,5070,0
319664534,-0.008055875,-0.008102408,0.0021949164,5078,0,0.16198665,-0.111287095,-10.007807,5078,0
319669602,-0.012312341,-0.0067317216,-0.0023873656,5068,0,0.030791583,-0.037899878,-10.001639,5068,0
319674672,-0.012504887,0.00013555335,-0.006125043,5070,0,0.016292972,0.1657367,-9.968007,5070,0
319679747,-0.006569365,0.00026943412,0.001485386,5075,0,0.12050138,0.13300887,-9.935776,5075,0
319684829,-0.00914909,-0.00635159,0.0016278771,5082,0,0.2248599,-0.052358612,-9.95715,5082,0
319689907,-0.013408581,-0.0077607,-0.0071602333,5078,0,0.08099198,-0.011600158,-10.00553,5078,0
319695164,-0.008132915,-0.0050441073,-0.0056235567,5257,0,-0.014576115,0.15579484,-9.997732,5257,0
319700209,-0.006991011,0.0008817395,0.0047424547,5045,0,0.07007336,0.037299007,-9.915532,5045,0
319705193,-0.009343988,9.20109e-05,0.0020001547,4984,0,0.1460363,0.02453657,-9.927821,4984,0
319710196,-0.00990592,-0.008925334,-0.008666942,5003,0,0.12835726,0.032857887,-9.984784,5003,0
319715288,-0.008810685,-0.008709799,-0.005487328,5092,0,0.03243594,0.09257067,-9.995793,5092,0
319720365,-0.010098848,0.0043713604,0.0049530882,5077,0,0.068898454,-0.021727487,-9.924226,5077,0
319725422,-0.009526578,0.0021162515,0.0003660516,5057,0,0.17575376,0.061852004,-9.925149,5057,0
319730501,-0.0066215415,-0.011357636,-0.009648344,5079,0,0.1527871,0.090949155,-9.994353,5079,0
319735566,-0.009338499,-0.009672082,-0.0019212448,5065,0,0.02391198,-0.055031825,-10.048412,5065,0
319740649,-0.012547965,0.005237069,0.004480743,5083,0,0.029447677,0.0022804115,-9.956529,5083,0
319745716,-0.010554879,0.00064367533,0.00032026248,5067,0,0.19283687,0.22207417,-9.793253,5067,0
319750811,-0.006099058,-0.014595333,-0.0077204295,5095,0,0.16963372,0.07755474,-10.039471,5095,0
319755889,-0.009164644,-0.008224675,-0.0036278847,5078,0,-0.05416158,-0.16642438,-10.091237,5078,0
319760957,-0.018813575,0.00822484,0.00229947,5068,0,0.032880772,-0.009911652,-9.865681,5068,0
319796465,-0.013557709,-0.0015840766,-0.009483166,5028,0,0.08520439,-0.3102094,-10.056563,5028,0
319801538,-0.018366791,0.0029748331,0.0017113638,5073,0,0.10353471,0.121493794,-9.952251,5073,0
319806619,-0.0061310967,-0.007073536,0.0056533604,5081,0,0.13512622,0.3340707,-9.862977,5081,0
319811690,-0.0009950745,-0.010402235,-0.0035692758,5071,0,0.10585329,-0.013736605,-10.052414,5071,0
319816764,-0.014436049,0.0013416521,-0.013215043,5074,0,-9.084552e-05,-0.18892746,-10.002801,5074,0
319821836,-0.015976604,-0.00066704646,0.0018789334,5072,0,0.14149332,0.06788617,-9.89316,5072,0
319826908,-0.005065761,-0.008293932,0.011450775,5072,0,0.1376146,0.27225065,-9.941437,5072,0
319831983,-0.0016508756,-0.006262215,-0.0069678263,5075,0,-0.020571165,-0.020206215,-9.982131,5075,0
319837060,-0.013270625,0.00054084574,-0.016344676,5077,0,0.1380702,-0.09590742,-9.953599,5077,0
319842139,-0.0134824775,-0.0049356357,0.0052813343,5079,0,0.18417272,0.0396037,-9.934281,5079,0
319847209,-0.00719277,-0.009613438,0.01350936,5070,0,0.029154254,0.17031813,-9.973265,5070,0
319852321,-0.0061697364,-0.0011362574,-0.011995062,5112,0,0.007816112,0.12713152,-9.958954,5112,0
319857626,-0.011525125,-0.00023899511,-0.013277207,5305,0,0.21493082,-0.09101444,-9.877749,5305,0
319862575,-0.01172292,-0.009560441,0.0089565255,4949,0,0.15965593,-0.0017211058,-10.050133,4949,0
319867556,-0.012832354,-0.008257204,0.0075869956,4981,0,-0.016973993,0.13395855,-9.998104,4981,0
319872582,-0.009536814,0.0013524728,-0.012864494,5026,0,0.044510826,0.15765435,-9.854619,5026,0
319877656,-0.007949097,-0.0010870373,-0.009615529,5074,0,0.15620787,0.019122325,-9.948562,5074,0
319882728,-0.009023766,-0.010287685,0.009453635,5072,0,0.1117464,-0.17499687,-9.998155,5072,0
319897952,-0.0035994858,-0.003089137,-0.0053429767,5075,0,0.17801628,-0.05406638,-9.923172,5075,0
319903028,-0.011030915,-0.009253436,0.010120854,5076,0,0.19438745,-0.17687686,-9.983861,5076,0
319908115,-0.015779799,-0.0067099333,-0.0042652534,5087,0,-0.042477287,0.042459123,-10.030098,5087,0
319913175,-0.005554594,-0.0005328484,-0.011119921,5060,0,0.05220116,0.4060352,-9.945655,5060,0
319918260,-0.0009189336,-0.0006471064,0.0013426682,5085,0,0.22748443,-0.054454844,-9.965395,5085,0
319923332,-0.010746037,-0.0052693863,0.0037763645,5072,0,0.09486129,-0.2618062,-10.014472,5072,0
319928399,-0.016164966,-0.006211032,-0.01038366,5067,0,-0.0017976968,0.1805498,-9.999841,5067,0
319933474,-0.0050584516,-3.561659e-05,-0.0019454049,5075,0,0.05357369,0.28944772,-9.939205,5075,0
319938763,-0.0062921355,-0.00013354898,0.0042043068,5289,0,0.12487081,-0.07311122,-9.93908,5289,0
319943802,-0.0144516835,-0.0067686737,-0.0031143166,5039,0,0.16436563,-0.14455447,-9.910277,5039,0
319948761,-0.012421099,-0.011420856,-0.008546727,4959,0,0.091007896,0.21458083,-10.042903,4959,0
319953766,-0.004844319,-0.0018367765,0.0007651387,5005,0,-0.05642489,0.20103969,-9.979804,5005,0
319958849,-0.006435476,0.0037593073,0.004865152,5083,0,0.14877118,-0.18091884,-9.870204,5083,0
319963931,-0.011522868,-0.0064425888,-0.0074758106,5082,0,0.20474863,-0.032481346,-9.942143,5082,0
319968995,-0.009049561,-0.014979303,-0.009424531,5064,0,0.01580619,0.15904415,-10.078674,5064,0
319974080,-0.005234343,-0.00014217482,0.0053285034,5085,0,0.039720662,0.043583453,-9.994413,5085,0
319979147,-0.01052168,0.00553674,0.0035522985,5067,0,0.19296658,-0.0129975155,-9.922494,5067,0
319984255,-0.0114048105,-0.009666791,-0.007731503,5108,0,0.13733277,0.089769945,-9.892962,5108,0
319989305,-0.004591059,-0.014752968,-0.0062241135,5050,0,0.07743923,0.12764989,-10.116154,5050,0
319994375,-0.008935923,-0.00033261243,0.0046691084,5070,0,-0.026579915,-0.15712902,-9.993963,5070,0
319999445,-0.0159839,0.006439632,0.00033373712,5070,0,0.12521398,0.06546418,-9.79258,5070,0
320004519,-0.007367177,-0.010192155,-0.0059685004,5074,0,0.21239986,0.3271684,-9.8824215,5074,0
320009600,-0.0034838414,-0.012267443,-0.0019422174,5081,0,0.090768926,-0.050868396,-10.097076,5081,0
320014672,-0.015827967,0.0023038988,0.0013239321,5072,0,-0.015133401,-0.18099664,-9.973798,5072,0
320019997,-0.017206946,0.0062958505,-0.0025063618,5325,0,0.13965233,0.29335353,-9.867421,5325,0
320025012,-0.0036457619,-0.007998381,-0.000353935,5015,0,0.18225284,0.18605275,-9.952596,5015,0
320030019,-0.0037705847,-0.011711378,-0.0025125088,5007,0,0.06408259,-0.21483387,-10.133973,5007,0
320034962,-0.018410914,0.0018711991,-0.0055280966,4943,0,0.050227754,-0.15796427,-9.936885,4943,0
320040039,-0.0154232625,0.002007518,0.0022864297,5077,0,0.17002757,0.30764368,-9.829278,5077,0
320045124,-0.00033061224,-0.009590222,0.004478187,5085,0,0.1293428,0.3061399,-9.971438,5085,0
320050207,-0.00608578,-0.0086982185,-0.008988905,5083,0,0.00876869,-0.25891078,-10.047357,5083,0
320055277,-0.018729292,0.0026308089,-0.009330317,5070,0,0.06876826,-0.12372605,-10.018166,5070,0
320060356,-0.01138554,-0.0012929831,0.007027032,5079,0,0.12515563,0.2985015,-9.8990345,5079,0
320065414,0.0020093664,-0.0092828665,0.007336449,5058,0,0.10463721,0.23141861,-9.945006,5058,0
320070486,-0.0068435976,-0.0051656757,-0.013136033,5072,0,0.08672132,-0.21103084,-9.955992,5072,0
320075592,-0.016913973,0.00041993367,-0.012346903,5106,0,0.12427362,-0.06940742,-10.009003,5106,0
320080644,-0.010094435,-0.004941032,0.01155473,5052,0,0.052951574,0.33975253,-9.9526205,5052,0
320085709,-0.002075796,-0.006684541,0.0066742674,5065,0,0.11323748,0.095252745,-9.918485,5065,0
320090813,-0.008064484,-0.0030278482,-0.01894783,5104,0,0.10326991,-0.16317871,-10.041727,5104,0
320095865,-0.015650773,-0.003443188,-0.008477347,5052,0,0.10912527,0.012840551,-10.028948,5052,0
320100945,-0.0055760536,-0.0052812574,0.018631529,5080,0,0.13699323,0.083602585,-9.97965,5080,0
320106239,-0.005963438,-0.0054971073,0.00022634634,5294,0,0.005381775,0.15181267,-9.91982,5294,0
320111202,-0.0113532,-0.0025059266,-0.021392232,4963,0,0.07616643,0.048410803,-9.909639,4963,0
320116249,-0.008827763,-0.0019160847,-0.0012371117,5047,0,0.20394658,0.01374875,-10.0421715,5047,0
320121240,-0.0097421035,-0.0065305294,0.017163264,4991,0,0.07932458,-0.029422186,-9.950428,4991,0
320126308,-0.014197969,-0.0020356167,-0.0064376607,5068,0,0.012474592,0.17513026,-9.930215,5068,0
320131386,-0.007322173,-0.0013019308,-0.016676588,5078,0,0.07179512,0.18631686,-9.986236,5078,0
320136454,-0.0056659277,-0.0044328403,0.0026955672,5068,0,0.14891794,-0.20820835,-9.918659,5068,0
320141532,-0.015238344,-0.0062866258,0.00973947,5078,0,0.107056886,-0.0686447,-9.983011,5078,0
320146604,-0.014626787,-0.0044647553,-0.01103539,5072,0,0.039275747,0.2632954,-9.955245,5072,0
320151681,-0.0023947437,-0.002244212,-0.0120266415,5077,0,0.13828033,0.23114476,-9.981937,5077,0
320156761,-0.005343819,-0.0045349505,0.0066009276,5080,0,0.16522126,-0.18649207,-10.014326,5080,0
320161829,-0.016566869,-0.007762548,0.0027565947,5068,0,0.08838572,-0.21879911,-9.971264,5068,0
320166907,-0.012699222,-0.005512839,-0.010834722,5078,0,-0.025122792,0.40454414,-10.00554,5078,0
320171976,-0.00083366124,0.0009264028,-0.0035294872,5069,0,0.07857207,0.24317321,-9.940362,5069,0
320177062,-0.0072584227,-0.0023109433,0.0055034724,5086,0,0.21830112,-0.33699155,-9.977504,5086,0
320182328,-0.019017236,-0.011509206,-0.0030753363,5266,0,0.10109848,0.010106592,-9.9341135,5266,0
320187373,-0.011444021,-0.008503758,-0.008717856,5045,0,-0.015256347,0.4275591,-10.009234,5045,0
320202426,-0.018004505,-0.010366628,-0.009402898,5045,0,0.13223933,0.1145726,-10.014029,5045,0
320207498,-0.0073592807,-0.0077439896,-0.003033666,5072,0,-0.008107793,0.27799684,-10.058715,5072,0
320212577,-0.0046097175,0.0040933336,0.0065144887,5079,0,0.07002031,0.01718343,-9.921765,5079,0
320217647,-0.0155381095,0.00036174033,-0.0047807065,5070,0,0.21056612,-0.08894507,-9.872162,5070,0
320222731,-0.01205147,-0.013201278,-0.00922582,5084,0,0.12062783,0.026947811,-9.980918,5084,0
320227805,-0.006637967,-0.0067262193,0.0009021398,5074,0,-0.033601906,0.18294115,-10.094305,5074,0
320232876,-0.009046338,0.0047679646,0.0054797777,5071,0,0.048475537,0.020500802,-9.877117,5071,0
320237948,-0.015814448,-0.0005988937,-0.005811108,5072,0,0.23700581,-0.013244825,-9.868221,5072,0
320243020,-0.008417506,-0.01151216,-0.0073878933,5072,0,0.13383597,0.2057385,-10.035502,5072,0
320248096,-0.0048706294,-0.007208921,0.0015934665,5076,0,-0.07690993,-0.007223663,-10.022517,5076,0
320253174,-0.013376731,0.0064240685,0.0030333828,5078,0,0.12656961,-0.08776493,-9.868263,5078,0
320258249,-0.0132877575,-0.0023867511,-0.0051742513,5075,0,0.16440523,0.21429923,-9.922221,5075,0
320263623,-0.00024145939,-0.01319618,-0.0027343566,5374,0,0.08875674,0.12832065,-10.055323,5374,0
320268659,-0.0062966095,-0.005812912,0.0010371915,5036,0,0.041972447,-0.20918784,-10.093893,5036,0
320273594,-0.018011924,0.0036973306,-0.0043232813,4935,0,0.09386073,-0.039377064,-9.90347,4935,0
320278582,-0.007976772,-0.0029579322,0.00026130624,4988,0,0.1668034,0.3608785,-9.895819,4988,0
320283619,0.0012408391,-0.009948282,-0.0009124442,5037,0,0.109309085,0.014587715,-10.013341,5037,0
320288699,-0.01245218,-0.0065974956,-0.0045622517,5080,0,0.05588302,-0.31547788,-10.04631,5080,0
320303917,-0.0011887061,-0.0067670364,0.0008835384,5077,0,0.11957193,-0.041821618,-9.961811,5077,0
320309018,-0.0152928475,-0.0048938747,-0.015927436,5101,0,0.010299104,-0.3005481,-10.070394,5101,0
320314063,-0.017946834,0.0026553927,-0.0021571943,5045,0,0.09075409,0.19298773,-9.958231,5045,0
320319140,-0.002743334,-0.0040259887,0.013602494,5077,0,0.14061925,0.33883134,-9.924011,5077,0
320324248,-0.0026872135,-0.007861909,-0.0043613003,5108,0,0.12867685,-0.06943547,-9.951415,5108,0
320329308,-0.01786589,-0.0052897567,-0.019418823,5060,0,0.095983066,-0.15779507,-10.031739,5060,0
320334361,-0.0117590735,0.00010917447,0.0040810215,5053,0,0.07025487,0.13404858,-9.956149,5053,0
320339438,-0.0049285996,-0.0025843272,0.013322228,5077,0,0.07649958,0.199208,-9.918531,5077,0
320344524,-0.0057438747,-0.005401726,-0.009116673,5086,0,0.09420627,0.04687561,-9.905599,5086,0
320349772,-0.011748661,-0.00618976,-0.017581023,5248,0,0.1625318,-0.12010302,-10.036372,5248,0
320354801,-0.0103864875,-0.0011046496,0.007877951,5029,0,0.06928629,0.08594565,-10.082202,5029,0
320359814,-0.007862189,-0.0025902526,0.014588745,5013,0,0.026956504,0.14368804,-9.824654,5013,0
320364828,-0.0076092193,-0.0059975516,-0.013455426,5014,0,0.120018706,0.080600314,-9.923172,5014,0
320369890,-0.008812729,-0.0043249237,-0.016788641,5062,0,0.045051105,0.0252188,-10.030033,5062,0
320374965,-0.00764177,-0.0016839318,0.010072299,5075,0,0.1305442,-0.076991916,-9.921624,5075,0
320380032,-0.012006077,-0.004177424,0.009317428,5067,0,0.13019092,0.054834563,-9.962798,5067,0
320385119,-0.010030945,-0.005094941,-0.015834581,5087,0,0.044929057,0.21367233,-9.952908,5087,0
320390194,-0.006044291,-0.0010492943,-0.010252576,5075,0,0.14826076,-0.017915327,-10.050754,5075,0
320395257,-0.009667789,0.00055138377,0.010474666,5063,0,0.13199995,-0.21926281,-9.9928465,5063,0
320400332,-0.018380232,-0.010004555,0.0023338164,5075,0,0.05925798,0.08042881,-9.909748,5075,0
320405404,-0.00728633,-0.0047276816,-0.012597255,5072,0,0.016579758,0.38221353,-10.01145,5072,0
320410489,-0.0038995533,0.0019195342,-0.0031376616,5085,0,0.15820035,-0.020561656,-9.932615,5085,0
320415554,-0.012720877,-0.0049734977,0.006985099,5065,0,0.20671731,-0.27948856,-9.945304,5065,0
320420638,-0.019456886,-0.010478303,-0.0058862213,5084,0,0.00938303,0.20253529,-9.975754,5084,0
320425717,-0.004229869,-0.0027297994,-0.00519453,5079,0,-0.004940292,0.34445912,-9.904326,5079,0
320431048,-0.0030773226,0.004993023,0.00030805633,5331,0,0.1156968,-0.08052542,-9.987306,5331,0
320435980,-0.01522807,-0.006727258,-0.0016832699,4932,0,0.20797043,-0.2807272,-9.915087,4932,0
320441049,-0.0150894,-0.013419704,-0.0038554627,5069,0,0.095816314,0.26917943,-10.014386,5069,0
320446002,-0.0033236176,0.0009335657,-0.0013047018,4953,0,-0.072200865,0.28625765,-9.976907,4953,0
320451080,-0.0059662713,0.007855149,0.0001778664,5078,0,0.181233,-0.18488769,-9.891865,5078,0
320456152,-0.015597884,-0.009476677,-0.004813564,5072,0,0.24744405,-0.16636528,-9.924109,5072,0
320461236,-0.013040712,-0.013390632,-0.004675357,5084,0,-0.014135291,0.26852277,-10.0714855,5084,0
320466310,-0.0013002033,0.0026813422,0.0018108598,5074,0,-0.036935497,0.18472908,-10.016353,5074,0
320471376,-0.010580493,0.0055322554,-0.0021808487,5066,0,0.23725723,-0.06707444,-9.835844,5066,0
320476457,-0.01378398,-0.011051033,-0.007206267,5081,0,0.20570624,-0.016947234,-9.942311,5081,0
320481522,-0.009941099,-0.013233088,-0.0032660505,5065,0,-0.07804732,0.16399303,-10.104178,5065,0
320486600,-0.006492544,0.002855889,0.0028903193,5078,0,0.018378768,-0.01300928,-9.891243,5078,0
320491704,-0.012308028,0.004276113,-0.0034151226,5104,0,0.1966207,-0.014342615,-9.895118,5104,0
320496749,-0.01182095,-0.010427114,-0.0048629884,5045,0,0.18008216,0.14997499,-9.968726,5045,0
320501826,-0.007321549,-0.011795679,0.00020740814,5077,0,0.06294905,0.08607372,-10.062903,5077,0
320506917,-0.009633994,0.002524185,-0.0010587155,5091,0,-0.031904686,-0.056194905,-9.997904,5091,0
320512191,-0.014394697,0.00020594017,-0.0050425907,5274,0,0.16740553,0.060491998,-9.785009,5274,0
320517210,-0.008320833,-0.007828382,0.0014166067,5019,0,0.1981755,0.16327983,-10.004656,5019,0
320522225,-0.0057430007,-0.008071048,-0.0008368668,5015,0,0.0281711,-0.09339382,-10.031196,5015,0
320527201,-0.014456949,0.0012218285,-0.007682294,4976,0,0.056172002,-0.058396082,-9.918517,4976,0
320532275,-0.015474669,0.00081127055,-0.00021737971,5074,0,0.1831996,0.23410007,-9.901863,5074,0
320537352,-0.004198197,-0.0058505074,0.004462614,5077,0,0.061515514,0.14527138,-9.927467,5077,0
320542417,-0.006090815,-0.0073843026,-0.004944417,5065,0,0.054801214,-0.12147686,-9.979671,5065,0
320547491,-0.015842559,-0.0028132133,-0.009109844,5074,0,0.052829236,-0.07373095,-10.024843,5074,0
320552569,-0.011287973,0.001629025,0.0049556545,5078,0,0.10170468,0.2802668,-9.887565,5078,0
320557664,-0.002441049,-0.0031610408,0.0038416788,5095,0,0.12557364,0.19504176,-9.908929,5095,0
320562727,-0.009366954,-0.01027568,-0.010148356,5063,0,0.16890514,-0.1988109,-9.979704,5063,0
320567794,-0.017887905,-0.0036917666,-0.01023559,5067,0,0.015841024,-0.06742359,-10.029719,5067,0
320583013,-0.0071084676,-0.010566271,-0.014075023,5068,0,0.1353082,-0.1438462,-10.014044,5068,0
320588093,-0.014207285,-0.004238539,-0.0076118787,5080,0,0.0052735982,-0.037580118,-10.055824,5080,0
320593431,-0.011031276,0.0040616784,0.011843598,5338,0,0.08341974,0.23294525,-9.927519,5338,0
320598452,-0.0044209254,-0.005315185,0.003653695,5021,0,0.13927943,0.076266326,-9.784698,5021,0
320603380,-0.009111206,-0.012100797,-0.018505348,4928,0,0.088279866,0.040144693,-10.055023,4928,0
320608379,-0.010397943,-0.0027648355,-0.005032707,4999,0,0.043816462,-0.044460688,-10.089513,4999,0
320613460,-0.011430983,0.0016938762,0.015335405,5081,0,0.1358961,-0.0005453719,-9.871736,5081,0
320618552,-0.009932336,-0.006079634,-0.0021372356,5092,0,0.10002605,0.23777491,-9.867415,5092,0
320623646,-0.005206582,-0.010142336,-0.015880728,5094,0,0.031564236,0.06895817,-9.922319,5094,0
320628709,-0.009492844,-0.00041790467,-0.001576953,5063,0,0.13359858,-0.16611983,-10.0457,5063,0
320638860,-0.009046437,-0.010121496,-0.0018932307,5102,0,0.1259622,0.27107152,-9.914736,5102,0
320643915,-0.0047539384,-0.0043546646,-0.01266273,5055,0,0.07530691,0.13033013,-10.048543,5055,0
320648993,-0.0075603267,0.0015792917,-0.002677879,5078,0,0.06028323,-0.28585324,-9.914952,5078,0
320654059,-0.017143525,-0.0046511553,0.00850027,5066,0,0.14422369,-0.04006854,-9.888596,5066,0
320659140,-0.011238775,-0.009774834,-0.0038201755,5081,0,0.05269409,0.34231368,-9.950422,5081,0
320664206,-0.0038392523,-0.0023906862,-0.009211106,5066,0,0.010142843,0.15628228,-9.976041,5066,0
320669304,-0.007856143,0.004357455,-0.0026704357,5098,0,0.17506398,-0.18251145,-9.907287,5098,0
320674592,-0.01672441,-0.0109489085,0.0036154147,5288,0,0.1901003,-0.071202554,-9.863787,5288,0
320679602,-0.014105897,-0.008116799,-0.0017510584,5010,0,-0.06103829,0.36574063,-10.040584,5010,0
320709876,-0.009672567,-0.0027526938,-0.00617457,5072,0,0.23598732,-0.1741107,-9.827512,5072,0
320714951,-0.014037572,-0.014536018,0.0003811355,5075,0,0.12207195,-0.000690519,-10.136926,5075,0
320720028,-0.00849319,-0.0061001815,0.0013033557,5077,0,-0.06707781,0.21268083,-10.049656,5077,0
320725115,-0.0069457074,0.0061100093,-0.003454037,5087,0,0.07772561,0.1097553,-9.845144,5087,0
320730178,-0.008574746,-0.0040553277,-0.0040107574,5063,0,0.28646314,-0.061526705,-9.963058,5063,0
320735256,-0.010309763,-0.012777897,0.00014680387,5078,0,0.07606836,-0.004515441,-10.071827,5078,0
320740346,-0.009059671,-0.00265169,-0.001578654,5090,0,-0.035244204,0.19879851,-10.033177,5090,0
320745406,-0.0072332914,0.004684951,-0.004394103,5060,0,0.06563669,0.01862858,-9.887991,5060,0
320750472,-0.008935738,-0.003971781,-0.002054651,5066,0,0.20921178,-0.09057297,-9.940869,5066,0
320755775,-0.009096159,-0.012334964,-0.00085766474,5303,0,0.098242566,0.076631226,-10.116187,5303,0
320760831,-0.010012823,-0.0047452203,-0.002268842,5056,0,0.04473279,0.045115102,-10.035133,5056,0
320765804,-0.010892945,0.0020392316,-0.000995708,4973,0,0.088445,0.06652651,-9.903005,4973,0
320770862,-0.008655498,-0.0019860875,-0.00034819284,5058,0,0.11851958,0.134592,-9.964358,5058,0
320775847,-0.008602153,-0.006755826,-0.0027823437,4985,0,0.13137907,-0.02061233,-10.012965,4985,0
320780922,-0.010408319,-0.0063344897,-0.007075692,5075,0,0.08033941,-0.06887744,-10.0273905,5075,0
320785994,-0.012671082,0.0004105975,-0.0019618648,5072,0,0.024616629,0.14464366,-9.9525,5072,0
320791085,-0.009871362,0.00046151943,0.005411761,5091,0,0.14146186,0.14374968,-9.874164,5091,0
321811072,-0.0021516588,-0.0016270571,0.0068453043,5100,0,-0.02315459,0.1820892,-9.992523,5100,0
321816130,-0.008865785,0.0051242174,-0.00708806,5058,0,0.17757928,-0.13173935,-9.902239,5058,0
321821438,-0.013430274,-0.0074206423,-0.010657848,5308,0,0.2016206,0.012014657,-10.007513,5308,0
321826466,-0.005523517,-0.013019207,0.005427989,5028,0,0.034298513,0.12329215,-10.075232,5028,0
321831449,-0.0068085482,-0.0022752583,0.004114214,4983,0,0.011448211,0.0016264679,-10.012769,4983,0
321836426,-0.012177135,0.005378298,-0.011892027,4977,0,0.08896271,0.025161607,-9.923979,4977,0
321841509,-0.009928091,-0.004121046,-0.0018422718,5083,0,0.19544382,0.06255381,-10.016291,5083,0
321846595,-0.0056148656,-0.011583629,0.008230005,5086,0,0.10839414,0.04224529,-10.064496,5086,0
321851665,-0.0134411855,-0.003174128,-0.0051960195,5070,0,-0.0113437,0.0046503013,-9.995002,5070,0
321856717,-0.013175385,0.0033827822,-0.010749011,5052,0,0.0928639,0.17904834,-9.895872,5052,0
321861801,-0.005989002,-0.0032090775,0.004668707,5084,0,0.16590282,0.017790524,-9.941222,5084,0
321866875,-0.008339922,-0.010542246,0.004263464,5074,0,0.081873216,-0.12604728,-10.0793705,5074,0
321871960,-0.015113668,-0.006638672,-0.010701675,5085,0,0.039909486,0.06418907,-9.993337,5085,0
321877024,-0.009370092,0.0039217393,-0.0015314256,5064,0,0.066030435,0.21399106,-9.972836,5064,0
321882095,-0.0047848905,-0.00033804015,0.007772523,5071,0,0.15659407,0.06591345,-9.87535,5071,0
321887165,-0.011268049,-0.012715784,-0.0038251756,5070,0,0.14070709,-0.15263313,-9.983368,5070,0
321892259,-0.015053866,-0.008146731,-0.0124604665,5094,0,-0.020262757,0.05186008,-10.0943365,5094,0
321897339,-0.00914981,0.005386928,0.004916593,5080,0,0.060800306,0.2899033,-9.927864,5080,0
321902626,-0.0025523654,-0.00078651315,0.010009208,5287,0,0.2508964,-0.041249808,-9.903995,5287,0
321907652,-0.011179356,-0.013486863,-0.011102448,5026,0,0.09668726,-0.13877337,-10.041878,5026,0
321912610,-0.012120732,-0.004615602,-0.013563593,4958,0,-0.02732868,0.17990972,-10.127571,4958,0
321917607,-0.0068879724,0.0058918814,0.011088618,4997,0,0.121436894,0.11734857,-9.867663,4997,0
321922694,-0.0081444895,-0.0038619908,0.0072936784,5087,0,0.17893058,-0.03926035,-9.79838,5087,0
321927774,-0.012250264,-0.014689857,-0.015256245,5080,0,0.0883447,0.07886946,-10.026006,5080,0
321932843,-0.008925148,-0.0042324606,-0.0067755645,5069,0,0.04208769,0.08209657,-10.116619,5069,0
321937910,-0.0104096355,0.005882631,0.012805304,5067,0,0.14737657,-0.010309938,-9.888497,5067,0
321942984,-0.010509673,-0.0066822204,-0.0010662826,5074,0,0.10381292,0.07415652,-9.825691,5074,0
322075053,-0.003984824,0.0057057226,0.002802925,5004,0,0.29139724,-0.18777183,-9.939261,5004,0
322080084,-0.010147902,-0.01189653,0.024423791,5031,0,0.039653305,-0.0016264274,-10.024104,5031,0
322085079,-0.016316371,-0.008930044,-0.017275015,4995,0,0.16396761,-0.05422539,-9.904006,4995,0
322090153,-0.02187787,0.0037124618,-0.006950662,5074,0,-0.18372497,0.4440287,-10.099261,5074,0
322095224,0.009079622,-0.005819659,0.017199926,5071,0,0.33658943,-0.13736263,-9.935395,5071,0
322100304,-0.021564761,-0.004460909,-0.020220969,5080,0,0.030337308,-0.047391433,-10.023314,5080,0
322105371,-0.0053804438,-0.010065433,-0.017432347,5067,0,0.08318658,-0.07825396,-9.999416,5067,0
322110482,-0.01491356,0.008045166,0.027990805,5111,0,0.032960854,0.23734103,-10.0121975,5111,0
322115526,0.00275086,-0.0024521926,0.0059322217,5044,0,0.051910833,0.1550986,-9.854365,5044,0
322120602,-0.0046876348,-0.018527271,-0.03786178,5076,0,0.18403818,-0.15770847,-10.170907,5076,0
322125681,-0.009317247,-0.0022774062,0.01874091,5079,0,0.0050280998,0.07480364,-10.144661,5079,0
322130763,-0.0082502775,-0.0035338174,0.015831366,5082,0,0.15169044,0.1193717,-9.863143,5082,0
322146184,-0.0069800387,-0.008820749,0.009569136,5285,0,0.042081382,-0.074877135,-10.0247555,5285,0
322151311,-0.018585235,-0.0011503793,-0.014824339,5127,0,-0.15239543,0.16684891,-10.126634,5127,0
322156217,-0.0035464328,-0.00035836486,0.006268233,4906,0,0.2800065,0.27140635,-9.658949,4906,0
322161243,-0.004019414,-0.008991186,0.0031934527,5026,0,0.06920853,0.09738245,-9.988019,5026,0
322166257,-0.01762693,-0.007362597,-0.0125453165,5014,0,0.020484958,0.044552162,-10.04828,5014,0
322171340,-0.0030291805,0.009719929,0.010158743,5083,0,0.35683706,-0.10031093,-10.02458,5083,0
322288057,-0.029781973,-0.008453153,-0.0092736315,5072,0,-0.2558966,-0.25064403,-10.075109,5072,0
322293135,0.014391523,-0.0011673387,0.004635477,5078,0,0.6915514,0.04989726,-9.955769,5078,0
322298204,-0.015837438,0.0020996344,-0.00352158,5069,0,0.42919362,0.45104265,-9.817884,5069,0
322303316,-0.001631024,-0.008760902,-0.011757406,5112,0,-0.17366217,-0.38599893,-10.124946,5112,0
322308355,-0.010036846,-0.009725516,0.017983576,5039,0,0.26335245,0.34050512,-10.380849,5039,0
322313666,-0.006762266,0.010166457,-0.0155633725,5311,0,-0.09050015,-0.2355852,-10.188112,5311,0
322318667,-0.0111035565,-0.0009772708,-0.0085137645,5001,0,0.21054947,0.15471998,-9.972152,5001,0
322323671,0.016496284,-0.007901565,0.0029708722,5004,0,-0.06368013,0.14543115,-9.990426,5004,0
322328664,-0.016887689,-0.0045885933,0.0017327516,4993,0,0.4280683,-0.08266776,-9.568716,4993,0
322333727,0.0038454481,-0.0017651635,-0.015861217,5063,0,-0.25454462,-0.0293163,-10.186701,5063,0
322338805,0.02148149,-0.020430503,-0.004231768,5078,0,0.4958278,0.26829898,-10.298946,5078,0
322343880,-0.07936569,0.013829919,0.013558049,5075,0,0.29026577,0.1862411,-9.861793,5075,0
322374328,-0.023125496,-0.00710904,0.00056064135,5082,0,-0.100701265,-0.17948622,-10.053251,5082,0
322379401,0.0033678424,-0.008825729,-0.0047687604,5073,0,-0.27083343,0.47429913,-9.726004,5073,0
322384475,-0.007857632,0.0063297306,-0.010452363,5074,0,0.42071682,-0.72082543,-10.589655,5074,0
322389550,-0.021950537,0.018060045,0.013719452,5075,0,-0.49606705,0.72209436,-9.41413,5075,0
322526554,0.037455782,-0.019964652,-0.2030221,5065,0,1.143438,0.026484834,-10.092603,5065,0
322531650,-0.06916381,-0.060043305,-0.21846081,5096,0,-0.09192334,1.2327353,-11.522931,5096,0
322536701,-0.063919194,-0.025850907,-0.22785433,5051,0,-1.2556441,-0.45003152,-11.040094,5051,0
322541785,-0.119055785,-0.0941187,-0.23487869,5084,0,0.5420981,-1.1327533,-12.067144,5084,0
322546858,-0.034346197,-0.062258713,-0.23121107,5073,0,0.9576902,1.2111235,-10.84154,5073,0
322551934,-0.05382865,-0.10633679,-0.20545526,5076,0,-1.4273694,0.6974336,-10.505271,5076,0
322557273,0.058768276,-0.10008156,-0.21619813,5339,0,0.5910624,-2.3219895,-12.101502,5339,0
322562274,-0.13043201,-0.06922962,-0.24824193,5001,0,0.11370663,2.2390113,-10.558593,5001,0
322567231,-0.05713286,-0.074199244,-0.2156176,4957,0,-0.5208469,-0.19466059,-11.077003,4957,0
322572274,-0.10229895,-0.07271147,-0.2422931,5043,0,-1.1756556,-0.18271625,-11.146881,5043,0
322577297,-0.080972664,-0.094140284,-0.21834499,5023,0,1.9882534,-0.03117652,-10.708141,5023,0
322582381,-0.062492985,-0.1484889,-0.25212997,5084,0,-2.3000977,-0.7304183,-10.865016,5084,0
322587455,-0.036474593,-0.18014114,-0.24118415,5074,0,1.6110852,1.5330646,-12.071692,5074,0
322592523,-0.0017769637,-0.20819497,-0.2079273,5068,0,-1.1932411,-0.2511069,-8.666188,5068,0
322597606,0.042452145,-0.21375845,-0.22337532,5083,0,-0.5541332,-0.61329406,-12.261282,5083,0
322602674,-0.056357518,-0.18616223,-0.22697444,5068,0,1.4824638,-0.14963348,-9.225469,5068,0
322607744,-0.06881675,-0.13379265,-0.22372569,5070,0,-1.1738831,-0.23258016,-11.874803,5070,0
322612849,-0.14326364,-0.07163228,-0.21803978,5105,0,0.2598029,1.7646285,-7.9523616,5105,0
322617902,0.0067925127,-0.07216458,-0.2185965,5053,0,-0.48958835,-0.73196465,-12.778255,5053,0
322678789,-0.062907085,-0.010448541,-0.1714711,5068,0,-0.25934806,0.6238923,-9.883684,5068,0
322683864,-0.1579497,-0.04639564,-0.17801137,5075,0,0.93215877,-1.8090962,-11.543431,5075,0
322688947,-0.13552596,-0.0014385089,-0.1705937,5083,0,-0.7638463,1.9239506,-10.896611,5083,0
322694014,-0.11733727,0.014104129,-0.1462421,5067,0,0.31784877,-1.4779392,-10.535326,5067,0
322699098,-0.05757839,0.026443677,-0.16376145,5084,0,0.30876857,0.63578486,-11.291094,5084,0
322704163,-0.05426264,0.010121605,-0.1496878,5065,0,-1.0915279,0.4547609,-10.217586,5065,0
322709236,-0.05434617,0.024596842,-0.1438246,5073,0,1.7064337,-1.1184415,-11.612847,5073,0
322714318,-0.066648155,0.010880441,-0.14505848,5082,0,-2.2899673,1.6565554,-10.424545,5082,0
322719637,0.002512816,-0.0027528387,-0.13060944,5319,0,1.175674,-1.6497076,-11.121636,5319,0
322724680,-0.052637625,-0.038421314,-0.1300466,5043,0,-0.20197535,1.3857276,-11.680764,5043,0
322744756,0.022952672,0.027903719,-0.10811086,5081,0,-0.004337937,2.4319563,-11.326961,5081,0
322749844,0.004008829,0.034468193,-0.12138098,5088,0,0.6694648,-1.6159494,-12.350125,5088,0
322754907,0.00092917355,0.019756453,-0.107905634,5063,0,-1.1637943,1.0090557,-10.162784,5063,0
322759987,0.055075243,0.02837998,-0.093596995,5080,0,0.9812068,-0.7300793,-10.803525,5080,0
322765056,0.032836914,0.031104023,-0.089919426,5069,0,-0.4627693,0.1592337,-11.630495,5069,0
322770138,0.06352317,0.041647032,-0.09595889,5082,0,0.38695508,0.5436718,-10.765221,5082,0
322775212,0.02575589,0.016672457,-0.08767941,5074,0,-0.79397225,0.2980938,-10.300981,5074,0
322780286,0.02986428,0.04896371,-0.08651788,5074,0,0.8356556,-1.0649457,-10.958166,5074,0
322785360,0.027847806,0.07602967,-0.08328842,5074,0,-0.7169007,0.74147284,-10.536902,5074,0
322790428,-0.044767402,0.07120211,-0.10938794,5068,0,1.3408061,0.5241766,-11.11283,5068,0
322876697,0.029936248,-0.026049033,-0.054531045,5078,0,0.4567871,1.3061248,-11.182391,5078,0
322881773,-0.03262393,-0.018135015,-0.0655153,5076,0,0.16521463,-1.1113515,-11.476483,5076,0
322887101,0.027462292,-0.0016609958,-0.0715899,5328,0,-0.3019196,-0.10461031,-9.779079,5328,0
322892055,0.022347845,-0.023479156,-0.05006048,4954,0,0.6134175,1.5444715,-11.77156,4954,0
322897082,-0.043490764,-0.039065808,-0.06947445,5027,0,-0.7712808,-1.0077202,-11.071913,5027,0
322902097,0.0007253313,-0.04333975,-0.051585484,5015,0,0.77354676,-0.32336888,-10.947713,5015,0
322907142,0.013559993,-0.040341232,-0.03933785,5045,0,-0.30880648,0.9476535,-10.595069,5045,0
323018785,-0.051737633,0.021770442,-0.019920092,5081,0,-0.4352182,0.056814183,-10.909458,5081,0
323023854,-0.050413605,0.024796171,-0.0065074763,5069,0,-1.1726121,0.3051566,-10.819148,5069,0
323028936,-0.035089422,0.015782949,-0.021618957,5082,0,0.99663955,0.19118792,-12.218365,5082,0
323034008,-0.032460038,0.00058822817,-0.005905255,5072,0,-0.04204383,-0.58044696,-10.178526,5072,0
323039074,-0.004277376,-0.00906356,-0.01204697,5066,0,-0.37520972,0.29429114,-11.56447,5066,0
323044157,0.0033720941,-0.016375536,-0.007397805,5083,0,0.16904682,0.31322494,-11.108289,5083,0
323049493,-0.013465672,-0.015876345,-0.0074087405,5336,0,-0.08230644,-0.5374697,-11.244072,5336,0
323054486,0.03503268,-0.0073421225,-0.00786115,4993,0,0.09047252,0.58811814,-11.281996,4993,0
323059492,0.026075395,0.017628882,0.003709142,5006,0,-0.9137103,0.18698266,-10.219027,5006,0
323064453,0.018441247,0.009181167,-0.011638623,4961,0,0.7643319,-0.41971773,-11.412853,4961,0
323125340,0.01647567,-0.044062804,-0.00045038376,5063,0,-0.66293645,0.24141055,-9.931482,5063,0
323130633,0.0074589835,-0.05958567,0.008654879,5293,0,0.2637996,0.4099429,-11.538852,5293,0
323135674,-0.011552557,-0.079090476,0.009028429,5041,0,-0.56031215,-0.5777596,-10.292318,5041,0
323140721,0.015690621,-0.09115975,0.012983176,5047,0,0.41025716,0.0966639,-9.952119,5047,0
323145664,0.049203556,-0.10288315,0.014152421,4943,0,0.43490973,0.37621367,-9.966036,4943,0
323150736,-0.006717457,-0.09952825,0.00908239,5072,0,-0.8880948,-0.69694287,-10.245681,5072,0
323155791,0.063140124,-0.10273157,0.0062112613,5055,0,0.17908132,0.59325165,-9.3939,5055,0
323160890,0.027865564,-0.090703696,0.008814551,5099,0,0.051687814,-0.20240183,-8.796563,5099,0
323165940,-0.030213974,-0.11292518,0.0035925722,5050,0,-0.1753943,-0.25473025,-10.0802355,5050,0
323171021,0.00693908,-0.11737117,0.02001152,5081,0,-0.027939195,-0.03196023,-7.642312,5081,0
323176106,-0.04916167,-0.12548208,-0.008958151,5085,0,0.8860536,0.7702354,-11.482479,5085,0
323247147,-0.040943194,-0.031221276,0.01801001,5080,0,-0.44623646,-0.8015915,-8.988265,5080,0
323252208,0.055852275,0.012420134,0.029994713,5061,0,0.39878884,-0.45496643,-8.072941,5061,0
323257293,-0.06679464,-0.00412472,0.004597589,5085,0,-0.3831327,1.2000295,-10.061463,5085,0
