timestamp,timestamp_sample,control[0],control[1],control[2],control[3],control[4],control[5],control[6],control[7]
317891532,317891181,0.00094059645,-0.005602566,0.0007688401,0.0,0.0,0.0,0.0,-1.0
317892807,317892484,0.00043551959,-0.0057573034,-0.0023828573,0.0,0.0,0.0,0.0,-1.0
317895303,317894960,-0.0004390248,-0.0059124045,-0.0063961805,0.0,0.0,0.0,0.0,-1.0
317897803,317897465,-0.0003893176,-0.0058495975,-0.0054224725,0.0,0.0,0.0,0.0,-1.0
317901679,317901254,0.0021567445,-0.0053261113,-5.7867146e-05,0.0,0.0,0.0,0.0,-1.0
317909175,317908806,-0.0001039495,-0.005426606,0.0016142086,0.0,0.0,0.0,0.0,-1.0
318010579,318010219,0.00042958377,-0.0059664627,0.00038522336,0.0,0.0,0.0,0.0,-1.0
318013129,318012757,-8.5482425e-05,-0.0076588523,0.0006307756,0.0,0.0,0.0,0.0,-1.0
318018159,318017830,0.0007917574,-0.007109611,-0.00043383808,0.0,0.0,0.0,0.0,-1.0
318020731,318020384,0.00178924,-0.0047973986,-0.0011439938,0.0,0.0,0.0,0.0,-1.0
318024621,318024179,0.0017383624,-0.0017375577,-0.001142501,0.0,0.0,0.0,0.0,-1.0
318027034,318026710,0.00081011,-0.0019361756,-0.00015991229,0.0,0.0,0.0,0.0,-1.0
318030893,318030524,-0.0002062772,-0.0059167887,0.0004950868,0.0,0.0,0.0,0.0,-1.0
318034668,318034323,-0.00052898144,-0.009735669,0.00014338974,0.0,0.0,0.0,0.0,-1.0
318038451,318038129,0.001416845,-0.008310083,-0.00044675867,0.0,0.0,0.0,0.0,-1.0
318041018,318040679,0.002228257,-0.0047823517,-0.0010914933,0.0,0.0,0.0,0.0,-1.0
318044833,318044470,0.0018444423,-0.0008831878,-0.000458115,0.0,0.0,0.0,0.0,-1.0
318048643,318048314,0.0006473938,-0.0025976184,-7.098587e-05,0.0,0.0,0.0,0.0,-1.0
318052428,318052084,0.00022779989,-0.007826189,0.0006608378,0.0,0.0,0.0,0.0,-1.0
318055228,318054841,-0.00012160305,-0.00993341,5.3572883e-05,0.0,0.0,0.0,0.0,-1.0
318058939,318058616,0.0007173834,-0.007899238,-0.00062656717,0.0,0.0,0.0,0.0,-1.0
318062797,318062421,0.0016714409,-0.0029451936,-0.0011596364,0.0,0.0,0.0,0.0,-1.0
318067687,318067365,0.00038836707,-0.0019075949,0.00022925882,0.0,0.0,0.0,0.0,-1.0
318068984,318068614,8.885965e-05,-0.0027680467,0.00024639818,0.0,0.0,0.0,0.0,-1.0
318072714,318072389,0.00029832355,-0.0071527413,0.0001764799,0.0,0.0,0.0,0.0,-1.0
318077783,318077459,0.0012247759,-0.008398055,-0.0004519994,0.0,0.0,0.0,0.0,-1.0
318080418,318080002,0.0012887086,-0.0062687597,-0.0009900727,0.0,0.0,0.0,0.0,-1.0
318084132,318083798,0.0005641046,-0.003090291,-0.0013139743,0.0,0.0,0.0,0.0,-1.0
318089257,318088880,0.00036612788,-0.003661359,0.0009287445,0.0,0.0,0.0,0.0,-1.0
318090500,318090150,0.00057721126,-0.0045015984,0.0012685622,0.0,0.0,0.0,0.0,-1.0
318094303,318093949,0.0007642618,-0.0070961877,0.0008228565,0.0,0.0,0.0,0.0,-1.0
318099370,318099023,0.0012200931,-0.007149591,-0.0018341376,0.0,0.0,0.0,0.0,-1.0
318100648,318100300,0.0011693359,-0.0065223514,-0.0022768837,0.0,0.0,0.0,0.0,-1.0
318104425,318104104,0.0005581195,-0.0043914015,-0.0014381367,0.0,0.0,0.0,0.0,-1.0
318108227,318107902,0.00012306798,-0.0037939313,0.0010416893,0.0,0.0,0.0,0.0,-1.0
318113307,318112978,0.0009484551,-0.0048171943,0.0011761598,0.0,0.0,0.0,0.0,-1.0
318114613,318114247,0.001310534,-0.0053893374,0.0008393048,0.0,0.0,0.0,0.0,-1.0
318118457,318118063,0.0017037692,-0.0067698457,-0.0013133064,0.0,0.0,0.0,0.0,-1.0
318124720,318124396,0.00017109474,-0.005500633,-0.0013360085,0.0,0.0,0.0,0.0,-1.0
318126071,318125679,-0.00022343779,-0.0049205953,-0.0006411776,0.0,0.0,0.0,0.0,-1.0
318128615,318128207,-0.000465398,-0.004099908,0.0010488086,0.0,0.0,0.0,0.0,-1.0
318134882,318134552,0.001535284,-0.004907614,0.0010216221,0.0,0.0,0.0,0.0,-1.0
318136222,318135832,0.0017520974,-0.0055238293,0.000101701065,0.0,0.0,0.0,0.0,-1.0
318140276,318139840,0.001940786,-0.0071828407,-0.0025392403,0.0,0.0,0.0,0.0,-1.0
318142693,318142361,0.0010457198,-0.0072279596,-0.0025012076,0.0,0.0,0.0,0.0,-1.0
318146384,318146060,-0.00066480506,-0.005579607,-6.833327e-05,0.0,0.0,0.0,0.0,-1.0
318150274,318149906,-0.00031005166,-0.0029020207,0.0015741339,0.0,0.0,0.0,0.0,-1.0
318153901,318153580,0.0008443853,-0.0035477977,0.001572942,0.0,0.0,0.0,0.0,-1.0
318156487,318156116,0.0017819898,-0.0052059316,-6.0601895e-05,0.0,0.0,0.0,0.0,-1.0
318160269,318159938,0.0024243651,-0.007688686,-0.0021370824,0.0,0.0,0.0,0.0,-1.0
318164099,318163725,0.0009822128,-0.0075484132,-0.001972703,0.0,0.0,0.0,0.0,-1.0
318169155,318168802,-0.0014195633,-0.003152813,0.0013844314,0.0,0.0,0.0,0.0,-1.0
318171749,318171337,-0.0011880974,-0.0026030862,0.0022511675,0.0,0.0,0.0,0.0,-1.0
318174196,318173873,0.00036143215,-0.0037098322,0.0018412842,0.0,0.0,0.0,0.0,-1.0
318179286,318178948,0.00313595,-0.0077444594,-0.002231194,0.0,0.0,0.0,0.0,-1.0
318181834,318181507,0.0022925984,-0.008196787,-0.0030436756,0.0,0.0,0.0,0.0,-1.0
318185635,318185303,0.00022150563,-0.005560735,-0.0012738364,0.0,0.0,0.0,0.0,-1.0
318190758,318190371,-0.0010520339,-0.001867487,0.0017177233,0.0,0.0,0.0,0.0,-1.0
318191965,318191635,-0.00072623166,-0.0022048007,0.0019658802,0.0,0.0,0.0,0.0,-1.0
318195765,318195441,0.0011237197,-0.0057946863,0.0005908031,0.0,0.0,0.0,0.0,-1.0
318199621,318199246,0.0027274878,-0.0088092135,-0.0016583689,0.0,0.0,0.0,0.0,-1.0
318202142,318201785,0.0024255242,-0.007964296,-0.0024372393,0.0,0.0,0.0,0.0,-1.0
318205926,318205592,0.00038169566,-0.0038815814,-0.0011720601,0.0,0.0,0.0,0.0,-1.0
318209728,318209395,-0.0011199772,-0.00238575,0.00082898786,0.0,0.0,0.0,0.0,-1.0
318213529,318213200,-0.0003241761,-0.004976453,0.0018857525,0.0,0.0,0.0,0.0,-1.0
318216064,318215737,0.00094849087,-0.0073215687,0.0011340653,0.0,0.0,0.0,0.0,-1.0
318221362,318221036,0.0027323386,-0.007041409,-0.0015742676,0.0,0.0,0.0,0.0,-1.0
318223913,318223576,0.002431862,-0.004675279,-0.0021035552,0.0,0.0,0.0,0.0,-1.0
318227713,318227333,-9.834027e-07,-0.0024584446,-0.0015292647,0.0,0.0,0.0,0.0,-1.0
318230094,318229765,-0.0013737596,-0.0035301663,0.00063943915,0.0,0.0,0.0,0.0,-1.0
318233886,318233552,-0.00061602093,-0.0068406845,0.0015137562,0.0,0.0,0.0,0.0,-1.0
318237684,318237306,0.0017557616,-0.0083908085,0.0006859337,0.0,0.0,0.0,0.0,-1.0
318241454,318241114,0.0027293293,-0.005168141,-0.0015547711,0.0,0.0,0.0,0.0,-1.0
318245257,318244924,0.0012587243,-0.0020042825,-0.001638071,0.0,0.0,0.0,0.0,-1.0
318247775,318247453,6.918351e-05,-0.0026902282,-0.0011422624,0.0,0.0,0.0,0.0,-1.0
318251631,318251284,-0.0008357768,-0.006296601,0.0005857059,0.0,0.0,0.0,0.0,-1.0
318255403,318255074,-5.0878203e-05,-0.00877245,0.0017135155,0.0,0.0,0.0,0.0,-1.0
318257994,318257613,0.00081164594,-0.0077180234,0.0007367592,0.0,0.0,0.0,0.0,-1.0
318263003,318262679,0.0020984504,-0.0024946271,-0.0022652596,0.0,0.0,0.0,0.0,-1.0
318265547,318265217,0.0016471852,-0.0018376695,-0.002496833,0.0,0.0,0.0,0.0,-1.0
318271884,318271559,-0.00037406365,-0.007944767,0.0015019035,0.0,0.0,0.0,0.0,-1.0
318273162,318272829,-0.00045380965,-0.008801725,0.001698127,0.0,0.0,0.0,0.0,-1.0
318275687,318275366,1.6794453e-05,-0.008537795,0.0016429564,0.0,0.0,0.0,0.0,-1.0
318280785,318280439,0.0012759883,-0.0033029013,-0.0011521493,0.0,0.0,0.0,0.0,-1.0
318283389,318282996,0.0017849718,-0.0019110049,-0.0015679343,0.0,0.0,0.0,0.0,-1.0
318287182,318286788,0.0012517987,-0.0036461016,-0.0011681392,0.0,0.0,0.0,0.0,-1.0
318292192,318291857,0.0003925041,-0.008475328,0.0014018713,0.0,0.0,0.0,0.0,-1.0
318293456,318293128,0.00034526794,-0.008613234,0.0012904182,0.0,0.0,0.0,0.0,-1.0
318297252,318296930,-9.636926e-05,-0.0066554314,0.0002826906,0.0,0.0,0.0,0.0,-1.0
318301256,318300900,0.0007225449,-0.0028243046,-0.0010724649,0.0,0.0,0.0,0.0,-1.0
318303797,318303475,0.0014887792,-0.0019326329,-0.001535785,0.0,0.0,0.0,0.0,-1.0
318307569,318307235,0.0014492634,-0.0046087033,-0.00051216,0.0,0.0,0.0,0.0,-1.0
318311326,318310971,0.0006297439,-0.008035004,0.0006231502,0.0,0.0,0.0,0.0,-1.0
318316312,318315970,-0.0004405184,-0.006685648,-0.0005147845,0.0,0.0,0.0,0.0,-1.0
318317618,318317286,-0.0005668856,-0.005704906,-0.00080369145,0.0,0.0,0.0,0.0,-1.0
318321395,318321038,0.0003376337,-0.0033376855,-0.0013763768,0.0,0.0,0.0,0.0,-1.0
318328973,318328648,0.0020146184,-0.006142577,0.0007890885,0.0,0.0,0.0,0.0,-1.0
318331538,318331190,0.0010682725,-0.0071045174,0.0006224871,0.0,0.0,0.0,0.0,-1.0
318336584,318336260,-0.0010268408,-0.00624632,-0.0013103302,0.0,0.0,0.0,0.0,-1.0
318339131,318338796,-0.0005004815,-0.0049483003,-0.0015731028,0.0,0.0,0.0,0.0,-1.0
318342972,318342604,0.0010941979,-0.0034049551,-0.00030404978,0.0,0.0,0.0,0.0,-1.0
318348010,318347681,0.0019126596,-0.004568431,0.0016511368,0.0,0.0,0.0,0.0,-1.0
318349334,318348953,0.0016060121,-0.0051675625,0.001677854,0.0,0.0,0.0,0.0,-1.0
318353110,318352754,8.970574e-05,-0.006574717,-0.00024946072,0.0,0.0,0.0,0.0,-1.0
318356882,318356558,-0.0004426431,-0.006500879,-0.0016410357,0.0,0.0,0.0,0.0,-1.0
318359500,318359102,0.00037956267,-0.005910177,-0.0019763333,0.0,0.0,0.0,0.0,-1.0
318363316,318362909,0.0016325611,-0.004848971,0.00030169787,0.0,0.0,0.0,0.0,-1.0
318368318,318367976,0.0010989748,-0.0036428436,0.0016109049,0.0,0.0,0.0,0.0,-1.0
318370869,318370512,0.00019551933,-0.0039568553,0.00053825043,0.0,0.0,0.0,0.0,-1.0
318374678,318374321,0.00022610652,-0.006054939,-0.0019335615,0.0,0.0,0.0,0.0,-1.0
318377182,318376857,0.0005905771,-0.0073695383,-0.002507645,0.0,0.0,0.0,0.0,-1.0
318381029,318380669,0.001109413,-0.0069707762,-0.0001615358,0.0,0.0,0.0,0.0,-1.0
318385017,318384684,0.0011795512,-0.0046191644,0.0011918553,0.0,0.0,0.0,0.0,-1.0
318387496,318387175,0.00082535803,-0.0030633481,0.0019910715,0.0,0.0,0.0,0.0,-1.0
318392631,318392221,0.00037223086,-0.0042000418,-0.00067861116,0.0,0.0,0.0,0.0,-1.0
318395109,318394709,0.0006647806,-0.006417917,-0.0011766574,0.0,0.0,0.0,0.0,-1.0
318398797,318398424,0.0013764467,-0.008643716,-0.001554456,0.0,0.0,0.0,0.0,-1.0
318402567,318402230,0.0011793261,-0.006470632,0.0003673418,0.0,0.0,0.0,0.0,-1.0
318429216,318428871,-0.0013691945,-0.0021817437,0.00063601544,0.0,0.0,0.0,0.0,-1.0
318430480,318430140,-0.00071461726,-0.0030175843,0.00054997904,0.0,0.0,0.0,0.0,-1.0
318433063,318432678,0.0011354814,-0.0056461324,-8.6881395e-05,0.0,0.0,0.0,0.0,-1.0
318438082,318437754,0.0032700307,-0.0085407095,-0.000684004,0.0,0.0,0.0,0.0,-1.0
318440705,318440320,0.0021864763,-0.0069314493,-0.001529421,0.0,0.0,0.0,0.0,-1.0
318444430,318444100,-0.0012673142,-0.00325363,-0.0006377479,0.0,0.0,0.0,0.0,-1.0
318449525,318449169,-0.0014224806,-0.0032174324,0.000840774,0.0,0.0,0.0,0.0,-1.0
318450796,318450439,-0.000294062,-0.004139307,0.0009779738,0.0,0.0,0.0,0.0,-1.0
318454600,318454248,0.00310912,-0.007474001,0.0006305404,0.0,0.0,0.0,0.0,-1.0
318459708,318459325,0.0026777792,-0.00724879,-0.0014007569,0.0,0.0,0.0,0.0,-1.0
318460994,318460595,0.0017659027,-0.00614119,-0.0016286096,0.0,0.0,0.0,0.0,-1.0
318464971,318464631,-0.0016234397,-0.0029586537,-0.0014833383,0.0,0.0,0.0,0.0,-1.0
318469953,318469625,-0.00079446647,-0.0046357512,0.0010867906,0.0,0.0,0.0,0.0,-1.0
318472481,318472151,0.0014250249,-0.006351739,0.0017690574,0.0,0.0,0.0,0.0,-1.0
318474945,318474625,0.0029813377,-0.007332608,0.0014913518,0.0,0.0,0.0,0.0,-1.0
318478697,318478375,0.003168016,-0.0060223066,-0.0019053862,0.0,0.0,0.0,0.0,-1.0
318482606,318482224,-1.0288456e-05,-0.0040869145,-0.0030541623,0.0,0.0,0.0,0.0,-1.0
318486291,318485959,-0.0018342802,-0.004186275,-0.0009169254,0.0,0.0,0.0,0.0,-1.0
318490107,318489766,-3.9667877e-05,-0.0063393447,0.0025742115,0.0,0.0,0.0,0.0,-1.0
318492663,318492315,0.0016566792,-0.0071771294,0.0031433103,0.0,0.0,0.0,0.0,-1.0
318496503,318496128,0.0028737092,-0.006073466,4.09099e-05,0.0,0.0,0.0,0.0,-1.0
318500262,318499926,0.0014369895,-0.0037516928,-0.0032328356,0.0,0.0,0.0,0.0,-1.0
318504143,318503724,-0.00034701306,-0.004165291,-0.0022709656,0.0,0.0,0.0,0.0,-1.0
318506606,318506259,-0.00055520196,-0.0053916965,0.00031471995,0.0,0.0,0.0,0.0,-1.0
318510396,318510066,0.00019602815,-0.007458631,0.002691144,0.0,0.0,0.0,0.0,-1.0
318514227,318513885,0.001373116,-0.0066949464,0.0019738644,0.0,0.0,0.0,0.0,-1.0
318519300,318518945,0.0011934516,-0.002780104,-0.0027278455,0.0,0.0,0.0,0.0,-1.0
318520553,318520214,0.00085889257,-0.0024028416,-0.0032981217,0.0,0.0,0.0,0.0,-1.0
318524451,318524024,0.00048799007,-0.004208755,-0.0019891502,0.0,0.0,0.0,0.0,-1.0
318530696,318530363,0.00057606,-0.0079875225,0.0029725058,0.0,0.0,0.0,0.0,-1.0
318531977,318531632,0.0006230624,-0.007637331,0.0027866669,0.0,0.0,0.0,0.0,-1.0
318534555,318534169,0.0004759969,-0.006044086,0.00058210705,0.0,0.0,0.0,0.0,-1.0
318539567,318539243,0.0004974194,-0.0028084717,-0.0027154635,0.0,0.0,0.0,0.0,-1.0
318542195,318541787,0.0007182477,-0.003054708,-0.0020833055,0.0,0.0,0.0,0.0,-1.0
318546162,318545816,0.0017476213,-0.005745422,0.00081281393,0.0,0.0,0.0,0.0,-1.0
318549927,318549606,0.0008677303,-0.0077855294,0.00229316,0.0,0.0,0.0,0.0,-1.0
318552426,318552085,-0.00026003786,-0.007274816,0.00096366135,0.0,0.0,0.0,0.0,-1.0
318556146,318555822,-0.0003937399,-0.004890113,-0.0013040955,0.0,0.0,0.0,0.0,-1.0
318561307,318560888,0.0014626998,-0.003352603,-0.0020768603,0.0,0.0,0.0,0.0,-1.0
318562525,318562179,0.0022004691,-0.00360928,-0.00095203996,0.0,0.0,0.0,0.0,-1.0
318566274,318565891,0.0026039646,-0.0053350115,0.0013965108,0.0,0.0,0.0,0.0,-1.0
318570011,318569690,0.000514415,-0.0074536125,0.0010755922,0.0,0.0,0.0,0.0,-1.0
318573905,318573504,-0.0008224932,-0.0066861245,-0.0012649794,0.0,0.0,0.0,0.0,-1.0
318577633,318577301,-0.0003859254,-0.0046473593,-0.002254304,0.0,0.0,0.0,0.0,-1.0
318580182,318579840,0.0010684568,-0.0036501857,-0.0008115598,0.0,0.0,0.0,0.0,-1.0
318583975,318583644,0.0023437825,-0.0040377663,0.0011990393,0.0,0.0,0.0,0.0,-1.0
318587788,318587450,0.0013515676,-0.0056824763,0.0013013802,0.0,0.0,0.0,0.0,-1.0
318592852,318592526,-0.0009719548,-0.006545538,-0.001928106,0.0,0.0,0.0,0.0,-1.0
318594146,318593796,-0.0011317675,-0.0065976004,-0.0022974683,0.0,0.0,0.0,0.0,-1.0
318597925,318597599,0.00018523795,-0.005565303,-0.0013095039,0.0,0.0,0.0,0.0,-1.0
318601757,318601410,0.0022075004,-0.0040244195,0.0017026669,0.0,0.0,0.0,0.0,-1.0
318605543,318605214,0.002158459,-0.003947928,0.0017838822,0.0,0.0,0.0,0.0,-1.0
318632385,318632032,0.000249389,-0.0073513286,-0.0026027719,0.0,0.0,0.0,0.0,-1.0
318633638,318633297,0.00062443817,-0.007718301,-0.0025816148,0.0,0.0,0.0,0.0,-1.0
318636123,318635800,0.0012611388,-0.0077414,-0.0016304142,0.0,0.0,0.0,0.0,-1.0
318641120,318640793,0.0014912331,-0.0041029598,0.0020910553,0.0,0.0,0.0,0.0,-1.0
318643650,318643321,0.00063239015,-0.0025144115,0.0020802547,0.0,0.0,0.0,0.0,-1.0
318647404,318647078,-0.00053988805,-0.0036552672,-0.0003763366,0.0,0.0,0.0,0.0,-1.0
318652482,318652152,0.0014313153,-0.008168946,-0.0022860712,0.0,0.0,0.0,0.0,-1.0
318653749,318653422,0.0020249512,-0.008705782,-0.0020322655,0.0,0.0,0.0,0.0,-1.0
318657632,318657245,0.0022733768,-0.00697828,0.0001350557,0.0,0.0,0.0,0.0,-1.0
318661373,318661048,-4.6110155e-05,-0.0032016404,0.0014932677,0.0,0.0,0.0,0.0,-1.0
318663950,318663580,-0.0012560227,-0.001948384,0.0011769367,0.0,0.0,0.0,0.0,-1.0
318667775,318667383,-0.00094855786,-0.0036799198,-0.00021974796,0.0,0.0,0.0,0.0,-1.0
318672775,318672450,0.0030459405,-0.0080144545,-0.0010263113,0.0,0.0,0.0,0.0,-1.0
318675366,318675008,0.0037247464,-0.008008861,-0.0012083101,0.0,0.0,0.0,0.0,-1.0
318679136,318678792,0.00064924586,-0.0055101905,0.000350959,0.0,0.0,0.0,0.0,-1.0
318681655,318681331,-0.001472079,-0.0033433782,0.00050277653,0.0,0.0,0.0,0.0,-1.0
318685466,318685141,-0.0021793984,-0.0028983578,0.0001956087,0.0,0.0,0.0,0.0,-1.0
318689372,318688965,0.0011070331,-0.005865507,0.00028362134,0.0,0.0,0.0,0.0,-1.0
318693081,318692749,0.0038270932,-0.0077213477,-8.330304e-05,0.0,0.0,0.0,0.0,-1.0
318695677,318695340,0.0032336884,-0.007023622,-0.00054887123,0.0,0.0,0.0,0.0,-1.0
318699427,318699097,-0.00041208864,-0.0045711324,-0.0012046155,0.0,0.0,0.0,0.0,-1.0
318703280,318702900,-0.0026552973,-0.0032150564,-0.000625193,0.0,0.0,0.0,0.0,-1.0
318707070,318706710,-0.0011334692,-0.004878266,0.001355331,0.0,0.0,0.0,0.0,-1.0
318709853,318709488,0.0019382503,-0.006510418,0.0016228777,0.0,0.0,0.0,0.0,-1.0
318713558,318713236,0.004302436,-0.006954285,0.00014953315,0.0,0.0,0.0,0.0,-1.0
318717311,318716980,0.0015109037,-0.005669924,-0.0022292929,0.0,0.0,0.0,0.0,-1.0
318723659,318723287,-0.002248942,-0.003673799,-0.00050208374,0.0,0.0,0.0,0.0,-1.0
318727335,318727004,0.000121535784,-0.0058592567,0.0020245325,0.0,0.0,0.0,0.0,-1.0
318732419,318732079,0.003764604,-0.0068390253,0.00063972274,0.0,0.0,0.0,0.0,-1.0
318734934,318734615,0.003011917,-0.005729891,-0.0017175906,0.0,0.0,0.0,0.0,-1.0
318737532,318737152,0.0010433502,-0.0049100053,-0.003043456,0.0,0.0,0.0,0.0,-1.0
318742546,318742225,-0.0018667824,-0.004308056,-0.0015146409,0.0,0.0,0.0,0.0,-1.0
318745085,318744761,-0.0010327116,-0.0052405354,0.0013222044,0.0,0.0,0.0,0.0,-1.0
318748892,318748570,0.0019858116,-0.006641874,0.0030500076,0.0,0.0,0.0,0.0,-1.0
318752715,318752375,0.0029979097,-0.0059639155,0.00041488121,0.0,0.0,0.0,0.0,-1.0
318755258,318754913,0.0015835083,-0.004628236,-0.0024388235,0.0,0.0,0.0,0.0,-1.0
318759070,318758719,-0.0008849798,-0.004195504,-0.003821877,0.0,0.0,0.0,0.0,-1.0
318764142,318763793,-0.00014057462,-0.005582563,0.0011508482,0.0,0.0,0.0,0.0,-1.0
318766687,318766331,0.00055654376,-0.006337089,0.0033347537,0.0,0.0,0.0,0.0,-1.0
318769309,318768877,0.0011932271,-0.006636759,0.0036018156,0.0,0.0,0.0,0.0,-1.0
318773003,318772676,0.001347865,-0.0054590674,-0.0011016884,0.0,0.0,0.0,0.0,-1.0
318776844,318776502,0.00061402033,-0.0036426312,-0.003352403,0.0,0.0,0.0,0.0,-1.0
318780676,318780310,0.0003291955,-0.004070577,-0.0020893633,0.0,0.0,0.0,0.0,-1.0
318784429,318784104,0.0011360632,-0.006063589,0.0021635701,0.0,0.0,0.0,0.0,-1.0
318786963,318786636,0.0011612214,-0.0068938322,0.0028006881,0.0,0.0,0.0,0.0,-1.0
318791116,318790665,0.0002727763,-0.006460066,0.0008989025,0.0,0.0,0.0,0.0,-1.0
318793563,318793232,-6.0108414e-06,-0.0051941457,-0.0019444119,0.0,0.0,0.0,0.0,-1.0
318797366,318796979,0.00044915217,-0.0037229056,-0.0031791076,0.0,0.0,0.0,0.0,-1.0
318801026,318800685,0.0024332933,-0.0043644668,-0.00031117676,0.0,0.0,0.0,0.0,-1.0
318804768,318804443,0.0017268211,-0.0064980728,0.00247622,0.0,0.0,0.0,0.0,-1.0
318808515,318808193,-0.00048627902,-0.0074595017,0.0012648625,0.0,0.0,0.0,0.0,-1.0
318813606,318813282,-0.0007596164,-0.005062748,-0.0027626446,0.0,0.0,0.0,0.0,-1.0
318814865,318814540,2.5049294e-05,-0.004218434,-0.0025627,0.0,0.0,0.0,0.0,-1.0
318818670,318818343,0.0022733863,-0.0031069657,-0.000555354,0.0,0.0,0.0,0.0,-1.0
318825011,318824687,0.001243033,-0.0063853655,0.0019029292,0.0,0.0,0.0,0.0,-1.0
318828815,318828492,-0.0014376881,-0.007327788,-0.00028790595,0.0,0.0,0.0,0.0,-1.0
318833891,318833567,-0.0007111117,-0.0049041756,-0.0024146524,0.0,0.0,0.0,0.0,-1.0
318836484,318836111,0.0012220558,-0.0035636574,-0.00094999856,0.0,0.0,0.0,0.0,-1.0
318844044,318843717,0.0019333696,-0.0053552617,0.0012561411,0.0,0.0,0.0,0.0,-1.0
318846584,318846252,-0.00039998535,-0.0069174324,-0.0004412357,0.0,0.0,0.0,0.0,-1.0
318850386,318850058,-0.0021478157,-0.0076881815,-0.0025591783,0.0,0.0,0.0,0.0,-1.0
318855465,318855137,0.0012085134,-0.0044334996,-5.6837547e-05,0.0,0.0,0.0,0.0,-1.0
318856725,318856404,0.0020168035,-0.0034013276,0.00081974635,0.0,0.0,0.0,0.0,-1.0
318860537,318860211,0.0032253743,-0.0028184329,0.0022624861,0.0,0.0,0.0,0.0,-1.0
318864419,318864020,0.0009896377,-0.0051266733,0.000267785,0.0,0.0,0.0,0.0,-1.0
318868215,318867826,-0.0016697572,-0.0076899175,-0.001857448,0.0,0.0,0.0,0.0,-1.0
318911322,318910957,0.0018051437,-0.007935385,-0.0009269276,0.0,0.0,0.0,0.0,-1.0
318912561,318912239,0.0020875195,-0.007303009,-0.00025108087,0.0,0.0,0.0,0.0,-1.0
318916364,318916029,0.0013305197,-0.004052587,0.0010419319,0.0,0.0,0.0,0.0,-1.0
318920309,318919844,-0.00044930025,-0.002302243,0.0014312967,0.0,0.0,0.0,0.0,-1.0
318925238,318924909,-0.0005755698,-0.0055781985,-0.0006965602,0.0,0.0,0.0,0.0,-1.0
318926511,318926180,6.714725e-05,-0.006752083,-0.0008537488,0.0,0.0,0.0,0.0,-1.0
318930413,318929992,0.0024535905,-0.008205597,-0.0008335041,0.0,0.0,0.0,0.0,-1.0
318951894,318951550,0.0041145138,-0.006930968,-0.0005143319,0.0,0.0,0.0,0.0,-1.0
318957188,318956843,-0.000872606,-0.004334971,-0.0011388337,0.0,0.0,0.0,0.0,-1.0
318958516,318958140,-0.002283983,-0.003752781,-0.00081799034,0.0,0.0,0.0,0.0,-1.0
318962284,318961887,-0.0024403897,-0.0038873123,0.00067413726,0.0,0.0,0.0,0.0,-1.0
318965908,318965586,0.0016236734,-0.0056362576,0.0019604724,0.0,0.0,0.0,0.0,-1.0
318969740,318969351,0.0043335496,-0.0062924726,-4.4170152e-05,0.0,0.0,0.0,0.0,-1.0
318972192,318971846,0.0037715957,-0.0061249444,-0.0015115014,0.0,0.0,0.0,0.0,-1.0
318977271,318976924,-0.002157457,-0.005074018,-0.0029127146,0.0,0.0,0.0,0.0,-1.0
318979882,318979480,-0.0031132917,-0.004597752,-0.0004926866,0.0,0.0,0.0,0.0,-1.0
319026789,319026411,0.0011689741,-0.005563405,0.0025118839,0.0,0.0,0.0,0.0,-1.0
319028001,319027669,0.0011594435,-0.0055016894,0.0012158448,0.0,0.0,0.0,0.0,-1.0
319031821,319031479,0.0011507184,-0.0053468826,-0.0035667561,0.0,0.0,0.0,0.0,-1.0
319037091,319036759,0.0009089443,-0.004469427,-0.0017512698,0.0,0.0,0.0,0.0,-1.0
319038378,319038054,0.00085764256,-0.004432008,-0.0007027785,0.0,0.0,0.0,0.0,-1.0
319042150,319041793,0.00054385583,-0.0053924997,0.0031520375,0.0,0.0,0.0,0.0,-1.0
319045975,319045591,0.000113890805,-0.0061153676,0.0019122014,0.0,0.0,0.0,0.0,-1.0
319049674,319049318,0.00044859562,-0.006081257,-0.0011261235,0.0,0.0,0.0,0.0,-1.0
319053367,319053043,0.0012104217,-0.0046263826,-0.0037423056,0.0,0.0,0.0,0.0,-1.0
319057244,319056871,0.0019357823,-0.003843822,-3.6383266e-05,0.0,0.0,0.0,0.0,-1.0
319059771,319059394,0.0017627855,-0.004064788,0.0019238001,0.0,0.0,0.0,0.0,-1.0
319063515,319063191,4.3936097e-06,-0.005975112,0.002266102,0.0,0.0,0.0,0.0,-1.0
319067329,319066996,-0.0009724769,-0.007217008,-0.00055034587,0.0,0.0,0.0,0.0,-1.0
319072400,319072071,0.001012751,-0.0048872386,-0.0024221228,0.0,0.0,0.0,0.0,-1.0
319073667,319073342,0.0017148007,-0.004075002,-0.0019553467,0.0,0.0,0.0,0.0,-1.0
319077487,319077146,0.002559721,-0.0032703152,0.00062066317,0.0,0.0,0.0,0.0,-1.0
319083817,319083490,-0.0008804925,-0.0071667563,0.00027031294,0.0,0.0,0.0,0.0,-1.0
319085099,319084759,-0.0015520194,-0.007724878,-0.00062738865,0.0,0.0,0.0,0.0,-1.0
319087639,319087306,-0.0015277661,-0.007626159,-0.0015393589,0.0,0.0,0.0,0.0,-1.0
319092714,319092384,0.0018176686,-0.003997382,-0.00088554824,0.0,0.0,0.0,0.0,-1.0
319095319,319094917,0.0030261553,-0.002639097,0.0011267447,0.0,0.0,0.0,0.0,-1.0
319099068,319098712,0.0017187466,-0.0033220726,0.001188293,0.0,0.0,0.0,0.0,-1.0
319104118,319103789,-0.0013576107,-0.008037204,-0.0007577409,0.0,0.0,0.0,0.0,-1.0
319105384,319105058,-0.0014264703,-0.008500993,-0.0014431326,0.0,0.0,0.0,0.0,-1.0
319109190,319108866,-5.2285024e-05,-0.0072516776,-0.0013088917,0.0,0.0,0.0,0.0,-1.0
319112993,319112668,0.0022858747,-0.0033208714,0.00032284108,0.0,0.0,0.0,0.0,-1.0
319115526,319115204,0.0027486992,-0.0018829167,0.0017864819,0.0,0.0,0.0,0.0,-1.0
319127223,319126811,-0.0010602839,-0.008894715,-0.0016957213,0.0,0.0,0.0,0.0,-1.0
319129584,319129243,0.00026325704,-0.006920782,-0.0012627271,0.0,0.0,0.0,0.0,-1.0
319133333,319132994,0.0021710088,-0.0024250252,0.0011844739,0.0,0.0,0.0,0.0,-1.0
319137177,319136802,0.0019915008,-0.0016635581,0.0013828395,0.0,0.0,0.0,0.0,-1.0
319140925,319140579,0.00013129938,-0.0055008684,-0.00079670845,0.0,0.0,0.0,0.0,-1.0
319144710,319144384,-0.0005550806,-0.008830117,-0.0017793648,0.0,0.0,0.0,0.0,-1.0
319147247,319146920,0.00033963463,-0.008497002,-0.0007697034,0.0,0.0,0.0,0.0,-1.0
319151076,319150726,0.001984587,-0.0048201834,0.00032886877,0.0,0.0,0.0,0.0,-1.0
319154864,319154539,0.0010162272,-0.0019275134,0.0012576595,0.0,0.0,0.0,0.0,-1.0
319158723,319158346,-0.00065078563,-0.0032777174,0.00013490078,0.0,0.0,0.0,0.0,-1.0
319161333,319160884,-0.00045880687,-0.005707017,-0.00037530067,0.0,0.0,0.0,0.0,-1.0
319165057,319164683,0.0011710002,-0.008560808,-0.0008733235,0.0,0.0,0.0,0.0,-1.0
319168874,319168495,0.0017286887,-0.0070802104,-0.00060621253,0.0,0.0,0.0,0.0,-1.0
319173910,319173563,0.00020793454,-0.002807212,8.223405e-05,0.0,0.0,0.0,0.0,-1.0
319178972,319178636,-0.00027840983,-0.0042601237,0.00043340275,0.0,0.0,0.0,0.0,-1.0
319184034,319183711,0.0015509396,-0.0072863693,-0.00018435037,0.0,0.0,0.0,0.0,-1.0
319186601,319186247,0.002504459,-0.007281585,-0.00022103694,0.0,0.0,0.0,0.0,-1.0
319189224,319188818,0.0019823352,-0.0057883463,-0.00109757,0.0,0.0,0.0,0.0,-1.0
319194185,319193861,-0.0009531738,-0.0033334356,-9.5245596e-05,0.0,0.0,0.0,0.0,-1.0
319196781,319196404,-0.0012771556,-0.0037980243,0.00011542049,0.0,0.0,0.0,0.0,-1.0
319199306,319198939,-0.0005534174,-0.005177885,0.0005867073,0.0,0.0,0.0,0.0,-1.0
319204543,319204213,0.0027378409,-0.006085087,0.00060600473,0.0,0.0,0.0,0.0,-1.0
319207037,319206698,0.0031571959,-0.006119623,-0.0007487803,0.0,0.0,0.0,0.0,-1.0
319210863,319210511,0.0011312115,-0.005784458,-0.0021751407,0.0,0.0,0.0,0.0,-1.0
319214532,319214196,-0.0014369171,-0.0045287646,-0.0008710907,0.0,0.0,0.0,0.0,-1.0
319217075,319216703,-0.0017461708,-0.0041370336,0.00083522545,0.0,0.0,0.0,0.0,-1.0
319228440,319228112,0.002546979,-0.0061247507,-0.0021604784,0.0,0.0,0.0,0.0,-1.0
319231003,319230682,0.00048364856,-0.0064103263,-0.0020352306,0.0,0.0,0.0,0.0,-1.0
319236050,319235726,-0.0017123045,-0.0054441215,0.00022724266,0.0,0.0,0.0,0.0,-1.0
319238678,319238280,-0.00041915232,-0.004389004,0.0023709012,0.0,0.0,0.0,0.0,-1.0
319242441,319242079,0.0021349704,-0.003983174,0.0017772875,0.0,0.0,0.0,0.0,-1.0
319244931,319244606,0.0029373693,-0.004943579,0.00018986389,0.0,0.0,0.0,0.0,-1.0
319248791,319248413,0.0021904593,-0.006563906,-0.0026557734,0.0,0.0,0.0,0.0,-1.0
319252576,319252224,-0.0007696645,-0.006204801,-0.0026209422,0.0,0.0,0.0,0.0,-1.0
319256359,319256027,-0.0015740246,-0.004692655,0.00040145335,0.0,0.0,0.0,0.0,-1.0
319260213,319259837,7.608631e-05,-0.0038504126,0.0029289762,0.0,0.0,0.0,0.0,-1.0
319262694,319262369,0.0015743005,-0.004008526,0.0023222724,0.0,0.0,0.0,0.0,-1.0
319266563,319266180,0.002330575,-0.005534087,-0.001783211,0.0,0.0,0.0,0.0,-1.0
319270324,319269982,0.0014585445,-0.006540877,-0.0031745755,0.0,0.0,0.0,0.0,-1.0
319276648,319276322,-0.00020778477,-0.0047748117,0.0013195506,0.0,0.0,0.0,0.0,-1.0
319280460,319280134,-0.00020433567,-0.0038281295,0.0027064432,0.0,0.0,0.0,0.0,-1.0
319285721,319285400,0.0010674455,-0.005988595,-0.00026626932,0.0,0.0,0.0,0.0,-1.0
319287030,319286658,0.0013554834,-0.006446075,-0.0013228236,0.0,0.0,0.0,0.0,-1.0
319290806,319290442,0.001657579,-0.0061696814,-0.0026809531,0.0,0.0,0.0,0.0,-1.0
319296984,319296649,-3.1455274e-05,-0.0038971412,0.0010509754,0.0,0.0,0.0,0.0,-1.0
319298322,319297926,-0.000359427,-0.0039459066,0.0019392828,0.0,0.0,0.0,0.0,-1.0
319302060,319301695,-0.0002628406,-0.0053476314,0.0020751047,0.0,0.0,0.0,0.0,-1.0
319305826,319305501,0.00087976333,-0.0069612805,-0.00097418384,0.0,0.0,0.0,0.0,-1.0
319308373,319308037,0.001992979,-0.0068330043,-0.002098452,0.0,0.0,0.0,0.0,-1.0
319318567,319318195,-0.0005540607,-0.00468987,0.0013548719,0.0,0.0,0.0,0.0,-1.0
319322382,319322000,-0.0012286557,-0.007109998,0.00088863395,0.0,0.0,0.0,0.0,-1.0
319326195,319325809,0.0005139622,-0.007157771,-0.00063677016,0.0,0.0,0.0,0.0,-1.0
319329970,319329615,0.0026311334,-0.004550832,-0.0011315312,0.0,0.0,0.0,0.0,-1.0
319332484,319332148,0.0029868416,-0.0030863183,-0.0012287768,0.0,0.0,0.0,0.0,-1.0
319337547,319337223,0.00039281457,-0.00408367,0.0004643181,0.0,0.0,0.0,0.0,-1.0
319340163,319339755,-0.0011443647,-0.0062201186,0.000318039,0.0,0.0,0.0,0.0,-1.0
319343888,319343562,-0.0013836802,-0.008550658,0.00029578575,0.0,0.0,0.0,0.0,-1.0
319346430,319346101,0.00023832294,-0.0073713604,-0.00032545585,0.0,0.0,0.0,0.0,-1.0
319350244,319349905,0.0026107284,-0.0031438281,-0.00083651114,0.0,0.0,0.0,0.0,-1.0
319354116,319353713,0.0017939258,-0.0016323208,-0.00065310515,0.0,0.0,0.0,0.0,-1.0
319357838,319357515,-0.00010363823,-0.0050107413,7.1001494e-05,0.0,0.0,0.0,0.0,-1.0
319361710,319361335,-0.0014072971,-0.008732991,0.00024881552,0.0,0.0,0.0,0.0,-1.0
319364499,319364116,-0.0007788075,-0.008612169,0.00027624134,0.0,0.0,0.0,0.0,-1.0
319387021,319386696,0.0008795259,-0.0060566026,-0.000296468,0.0,0.0,0.0,0.0,-1.0
319389652,319389239,0.0014061589,-0.0029844902,9.262063e-05,0.0,0.0,0.0,0.0,-1.0
319392162,319391772,0.0013404975,-0.0016723129,-2.737974e-06,0.0,0.0,0.0,0.0,-1.0
319398438,319398111,0.00026254044,-0.0068360525,0.00031215244,0.0,0.0,0.0,0.0,-1.0
319399722,319399381,0.00012380528,-0.007833388,-1.49110365e-05,0.0,0.0,0.0,0.0,-1.0
319403524,319403195,0.00024153484,-0.0081131365,-0.00047190706,0.0,0.0,0.0,0.0,-1.0
319407327,319406992,0.00083653064,-0.004676566,-0.0006329005,0.0,0.0,0.0,0.0,-1.0
319409851,319409530,0.0012950881,-0.002941039,-0.00030585923,0.0,0.0,0.0,0.0,-1.0
319413652,319413333,0.001166691,-0.0027100767,0.00010010322,0.0,0.0,0.0,0.0,-1.0
319418736,319418409,0.00084643083,-0.0068830415,-9.4453055e-05,0.0,0.0,0.0,0.0,-1.0
319420009,319419681,0.0008832042,-0.0075909817,7.8983976e-05,0.0,0.0,0.0,0.0,-1.0
319423903,319423493,0.00082899467,-0.0074399337,-0.00054114865,0.0,0.0,0.0,0.0,-1.0
319431431,319431101,7.304142e-05,-0.002881534,-0.00045691445,0.0,0.0,0.0,0.0,-1.0
319433978,319433651,0.0002933747,-0.003519462,0.0004744196,0.0,0.0,0.0,0.0,-1.0
319439062,319438708,0.0011738978,-0.0064629903,0.00029886496,0.0,0.0,0.0,0.0,-1.0
319442853,319442514,0.0012626708,-0.006737741,-0.0005297172,0.0,0.0,0.0,0.0,-1.0
319445625,319445289,0.00094549777,-0.0062442967,-0.0013403137,0.0,0.0,0.0,0.0,-1.0
319448137,319447808,0.00048273962,-0.0056274706,-0.0017377218,0.0,0.0,0.0,0.0,-1.0
319451919,319451587,2.6205225e-05,-0.0045015737,0.00030091967,0.0,0.0,0.0,0.0,-1.0
319455765,319455380,0.00024792753,-0.0036336314,0.001487126,0.0,0.0,0.0,0.0,-1.0
319459412,319459073,0.0012660191,-0.00474906,0.0015143241,0.0,0.0,0.0,0.0,-1.0
319463164,319462820,0.0015866663,-0.0065330975,-0.0006574179,0.0,0.0,0.0,0.0,-1.0
319465762,319465386,0.0011857733,-0.0071919705,-0.0013370955,0.0,0.0,0.0,0.0,-1.0
319469476,319469154,5.6714533e-05,-0.0062127346,-0.0019710434,0.0,0.0,0.0,0.0,-1.0
319473344,319472962,-0.00053801126,-0.0042601624,0.0010882489,0.0,0.0,0.0,0.0,-1.0
319479626,319479304,0.0013268299,-0.0034770258,0.00080755365,0.0,0.0,0.0,0.0,-1.0
319483494,319483116,0.0017825866,-0.0061588604,-0.0016858949,0.0,0.0,0.0,0.0,-1.0
319488509,319488184,0.0008658338,-0.007740889,-0.0021473842,0.0,0.0,0.0,0.0,-1.0
319491136,319490729,-8.349633e-05,-0.0066209184,-0.00054575363,0.0,0.0,0.0,0.0,-1.0
319493688,319493290,-0.00057451247,-0.004270324,0.0012459954,0.0,0.0,0.0,0.0,-1.0
319499935,319499602,0.0008314835,-0.0031870191,0.0008234162,0.0,0.0,0.0,0.0,-1.0
319501213,319500886,0.0013023483,-0.0043311757,-0.00015216605,0.0,0.0,0.0,0.0,-1.0
319504994,319504675,0.0022571557,-0.0076449304,-0.0022470404,0.0,0.0,0.0,0.0,-1.0
319508812,319508483,0.001037806,-0.008000783,-0.002113333,0.0,0.0,0.0,0.0,-1.0
319511374,319511022,-7.596168e-05,-0.0061850757,-0.00018588218,0.0,0.0,0.0,0.0,-1.0
319515215,319514843,-0.0011706155,-0.0027671563,0.0018409772,0.0,0.0,0.0,0.0,-1.0
319535599,319535252,-0.0012114216,-0.002892601,0.0016530782,0.0,0.0,0.0,0.0,-1.0
319540593,319540260,0.0013147333,-0.005635973,0.0009083356,0.0,0.0,0.0,0.0,-1.0
319543164,319542778,0.002622308,-0.0075425627,-0.00055922446,0.0,0.0,0.0,0.0,-1.0
319546866,319546543,0.002536532,-0.0072671995,-0.0021835477,0.0,0.0,0.0,0.0,-1.0
319549416,319549079,0.0012701267,-0.0051444364,-0.0016408487,0.0,0.0,0.0,0.0,-1.0
319553238,319552890,-0.0009063958,-0.0023730397,-0.00020533847,0.0,0.0,0.0,0.0,-1.0
319557081,319556700,-0.001563206,-0.0040981164,0.0017886693,0.0,0.0,0.0,0.0,-1.0
319562098,319561766,0.0012652171,-0.007990196,0.00044065015,0.0,0.0,0.0,0.0,-1.0
319564710,319564312,0.002740715,-0.007438389,-0.000892925,0.0,0.0,0.0,0.0,-1.0
319567235,319566850,0.002899547,-0.0055938037,-0.0021010232,0.0,0.0,0.0,0.0,-1.0
319571002,319570646,0.0009614784,-0.0031733247,-0.0022249024,0.0,0.0,0.0,0.0,-1.0
319574819,319574453,-0.001096852,-0.0036239207,0.00040627635,0.0,0.0,0.0,0.0,-1.0
319581125,319580795,0.0008208464,-0.0077446876,0.0017646881,0.0,0.0,0.0,0.0,-1.0
319584931,319584601,0.0027527667,-0.0065526543,-0.00067629915,0.0,0.0,0.0,0.0,-1.0
319591302,319590944,0.00061932567,-0.0022619246,-0.0016169358,0.0,0.0,0.0,0.0,-1.0
319592567,319592223,2.565191e-05,-0.002610369,-0.0008421626,0.0,0.0,0.0,0.0,-1.0
319595085,319594761,-0.0008118309,-0.004590608,0.0008353769,0.0,0.0,0.0,0.0,-1.0
319601427,319601095,0.0008531463,-0.00836501,0.001549676,0.0,0.0,0.0,0.0,-1.0
319602692,319602366,0.0014867982,-0.007669905,0.00090313185,0.0,0.0,0.0,0.0,-1.0
319606488,319606166,0.0022501652,-0.0039316704,-0.001606808,0.0,0.0,0.0,0.0,-1.0
319610569,319610220,0.0010893231,-0.0017570858,-0.0018023957,0.0,0.0,0.0,0.0,-1.0
319613127,319612753,0.00033249636,-0.0031689373,-0.0011678291,0.0,0.0,0.0,0.0,-1.0
319616948,319616569,-0.0004894162,-0.007542433,0.0011695307,0.0,0.0,0.0,0.0,-1.0
319621777,319621454,0.0005389251,-0.007968783,0.0011293361,0.0,0.0,0.0,0.0,-1.0
319623026,319622704,0.0007500923,-0.0069842413,0.0004737137,0.0,0.0,0.0,0.0,-1.0
319626884,319626513,0.0013650488,-0.0033324636,-0.0020905705,0.0,0.0,0.0,0.0,-1.0
319630629,319630285,0.0017658332,-0.0021892826,-0.0014772905,0.0,0.0,0.0,0.0,-1.0
319634467,319634098,0.0013622305,-0.005683056,0.00036585875,0.0,0.0,0.0,0.0,-1.0
319636995,319636621,0.00046807298,-0.007989962,0.0011652744,0.0,0.0,0.0,0.0,-1.0
319642010,319641689,-0.00034723306,-0.0068183015,0.0002486988,0.0,0.0,0.0,0.0,-1.0
319644648,319644276,0.00018805324,-0.004226828,-0.0006330113,0.0,0.0,0.0,0.0,-1.0
319648372,319648031,0.0014634343,-0.001968462,-0.0014435429,0.0,0.0,0.0,0.0,-1.0
319652209,319651839,0.002025068,-0.004411256,-0.0006428748,0.0,0.0,0.0,0.0,-1.0
319654767,319654386,0.0014915505,-0.006837585,0.001029031,0.0,0.0,0.0,0.0,-1.0
319658570,319658199,0.000381876,-0.007931124,0.00085055147,0.0,0.0,0.0,0.0,-1.0
319662327,319661987,-0.0004666876,-0.005882015,-0.00037929424,0.0,0.0,0.0,0.0,-1.0
319666182,319665794,0.00023982931,-0.0034932215,-0.0013291145,0.0,0.0,0.0,0.0,-1.0
319668673,319668331,0.0011139492,-0.0031997552,-0.0008979817,0.0,0.0,0.0,0.0,-1.0
319672470,319672136,0.0019586505,-0.005029418,0.00070287084,0.0,0.0,0.0,0.0,-1.0
319676355,319675959,0.0013759203,-0.006908905,0.00064368016,0.0,0.0,0.0,0.0,-1.0
319682617,319682295,-0.0005109478,-0.00579129,-0.0014503746,0.0,0.0,0.0,0.0,-1.0
319686415,319686092,0.00068496383,-0.0040723663,-0.0005979218,0.0,0.0,0.0,0.0,-1.0
319693005,319692667,0.001798009,-0.004499323,0.0015007819,0.0,0.0,0.0,0.0,-1.0
319697997,319697659,-0.00014965842,-0.0060026133,-0.0006263693,0.0,0.0,0.0,0.0,-1.0
319700582,319700209,-0.00021151808,-0.0066631967,-0.0015916697,0.0,0.0,0.0,0.0,-1.0
319704226,319703902,0.00024308459,-0.006584943,-0.0016587861,0.0,0.0,0.0,0.0,-1.0
319707982,319707657,0.0011621768,-0.0052230298,0.00029292816,0.0,0.0,0.0,0.0,-1.0
319710607,319710196,0.0012880146,-0.003794944,0.0014006798,0.0,0.0,0.0,0.0,-1.0
319714361,319714003,0.0009892809,-0.0035683047,0.0012108124,0.0,0.0,0.0,0.0,-1.0
319718151,319717807,0.0004203608,-0.0053423997,-0.0005466802,0.0,0.0,0.0,0.0,-1.0
319721956,319721614,0.0007701417,-0.007820859,-0.0018004216,0.0,0.0,0.0,0.0,-1.0
319724533,319724155,0.0009039879,-0.008020828,-0.0011626402,0.0,0.0,0.0,0.0,-1.0
319728345,319727957,0.000761868,-0.0053563025,0.00041074026,0.0,0.0,0.0,0.0,-1.0
319732085,319731765,8.853187e-05,-0.0023653246,0.0015163957,0.0,0.0,0.0,0.0,-1.0
319737163,319736837,0.00080433034,-0.003990302,-0.0006428906,0.0,0.0,0.0,0.0,-1.0
319738447,319738105,0.001069311,-0.005314133,-0.00091049605,0.0,0.0,0.0,0.0,-1.0
319742245,319741921,0.0017443881,-0.0086448165,-0.0018875253,0.0,0.0,0.0,0.0,-1.0
319747322,319746989,0.00085647026,-0.0062188487,-0.00019381852,0.0,0.0,0.0,0.0,-1.0
319749841,319749522,-0.00021922466,-0.0032926986,0.000624763,0.0,0.0,0.0,0.0,-1.0
319753665,319753330,-0.00042685308,-0.0016696128,0.001303873,0.0,0.0,0.0,0.0,-1.0
319759996,319759672,0.0026645947,-0.007602384,-0.00081006775,0.0,0.0,0.0,0.0,-1.0
319763878,319763487,0.0026728122,-0.009000362,-0.0014407388,0.0,0.0,0.0,0.0,-1.0
319798052,319797731,0.0020281896,-0.0066528795,0.0014391621,0.0,0.0,0.0,0.0,-1.0
319801891,319801538,0.0035382402,-0.008073378,-0.0008233216,0.0,0.0,0.0,0.0,-1.0
319805669,319805350,0.0014592238,-0.005914115,-0.0020809057,0.0,0.0,0.0,0.0,-1.0
319809539,319809155,-0.0018373783,-0.00328511,-0.0015083086,0.0,0.0,0.0,0.0,-1.0
319812020,319811690,-0.0022711453,-0.0029342342,8.716756e-05,0.0,0.0,0.0,0.0,-1.0
319815812,319815493,0.0005357624,-0.0054818178,0.002410937,0.0,0.0,0.0,0.0,-1.0
319819632,319819298,0.0032796494,-0.007408996,0.001036643,0.0,0.0,0.0,0.0,-1.0
319823499,319823110,0.00273735,-0.006182523,-0.0020172454,0.0,0.0,0.0,0.0,-1.0
319826047,319825659,0.00082525105,-0.0045113345,-0.0031421452,0.0,0.0,0.0,0.0,-1.0
319829776,319829448,-0.0018002051,-0.0035460037,-0.0015684644,0.0,0.0,0.0,0.0,-1.0
319833644,319833253,-0.0012912713,-0.004918247,0.0020172175,0.0,0.0,0.0,0.0,-1.0
319838649,319838327,0.0024495143,-0.0069508315,0.0022175827,0.0,0.0,0.0,0.0,-1.0
319839922,319839597,0.0029801195,-0.006747997,0.0010361694,0.0,0.0,0.0,0.0,-1.0
319843760,319843420,0.0021297194,-0.004761362,-0.0026100434,0.0,0.0,0.0,0.0,-1.0
319848807,319848476,-0.00046875753,-0.003573835,-0.002785037,0.0,0.0,0.0,0.0,-1.0
319851368,319851015,-0.0006867092,-0.0046982053,0.00027534674,0.0,0.0,0.0,0.0,-1.0
319853900,319853577,-2.7646747e-05,-0.0064117587,0.0029951409,0.0,0.0,0.0,0.0,-1.0
319861667,319861338,0.0014566125,-0.004925725,-0.000800095,0.0,0.0,0.0,0.0,-1.0
319865439,319865066,0.0013441264,-0.0032759553,-0.003746302,0.0,0.0,0.0,0.0,-1.0
319869168,319868813,0.0010914104,-0.0043558707,-0.0013517585,0.0,0.0,0.0,0.0,-1.0
319871672,319871347,0.0005973893,-0.006187017,0.0010315544,0.0,0.0,0.0,0.0,-1.0
319875525,319875137,0.00025558527,-0.0074270894,0.003222894,0.0,0.0,0.0,0.0,-1.0
319880518,319880192,0.0002624106,-0.005008119,-0.0009349288,0.0,0.0,0.0,0.0,-1.0
319883073,319882728,0.00063920603,-0.0035954479,-0.00249673,0.0,0.0,0.0,0.0,-1.0
319885663,319885293,0.0011357119,-0.0031377336,-0.0031254794,0.0,0.0,0.0,0.0,-1.0
319897056,319896690,-0.0009368872,-0.0065321685,0.0012016908,0.0,0.0,0.0,0.0,-1.0
319899561,319899222,-0.0010125728,-0.0053748027,-0.00035972422,0.0,0.0,0.0,0.0,-1.0
319903393,319903028,0.00092496397,-0.0036860383,-0.0027488128,0.0,0.0,0.0,0.0,-1.0
319907160,319906832,0.0028243982,-0.0042319917,-0.0008325007,0.0,0.0,0.0,0.0,-1.0
319911043,319910646,0.0020703427,-0.0054479013,0.0015814453,0.0,0.0,0.0,0.0,-1.0
319913501,319913175,0.00026829037,-0.0063382685,0.0018599223,0.0,0.0,0.0,0.0,-1.0
319917358,319917001,-0.0018857202,-0.006690519,5.6423156e-05,0.0,0.0,0.0,0.0,-1.0
319921133,319920789,-0.0009724659,-0.0056233276,-0.001466939,0.0,0.0,0.0,0.0,-1.0
319925006,319924612,0.0019804926,-0.0043066912,-0.0012237324,0.0,0.0,0.0,0.0,-1.0
319927501,319927142,0.0032488203,-0.0039618188,0.00059186964,0.0,0.0,0.0,0.0,-1.0
319931296,319930939,0.002030382,-0.005358577,0.0013484553,0.0,0.0,0.0,0.0,-1.0
319935071,319934742,-0.0008566862,-0.0065405252,-0.00043008575,0.0,0.0,0.0,0.0,-1.0
319941607,319941284,0.0005060344,-0.005569062,-0.0016750585,0.0,0.0,0.0,0.0,-1.0
319945354,319945017,0.002523346,-0.004019905,0.0008200217,0.0,0.0,0.0,0.0,-1.0
319950356,319950011,0.0015144837,-0.0034623602,0.0011281162,0.0,0.0,0.0,0.0,-1.0
319952959,319952582,0.00010608632,-0.0047400445,0.00013201968,0.0,0.0,0.0,0.0,-1.0
319956706,319956344,-0.001399816,-0.007328646,-0.001982607,0.0,0.0,0.0,0.0,-1.0
319961707,319961385,0.00077844685,-0.00689074,-0.00059575005,0.0,0.0,0.0,0.0,-1.0
319962981,319962655,0.0013742717,-0.005893994,1.3295942e-05,0.0,0.0,0.0,0.0,-1.0
319966840,319966468,0.0019165481,-0.0030296752,0.002302259,0.0,0.0,0.0,0.0,-1.0
319970624,319970289,0.0006891309,-0.002489061,0.0005601325,0.0,0.0,0.0,0.0,-1.0
319973136,319972801,-0.0002988623,-0.004535267,-0.0013011164,0.0,0.0,0.0,0.0,-1.0
319977004,319976630,-0.00014148363,-0.007874441,-0.0018784946,0.0,0.0,0.0,0.0,-1.0
319982032,319981683,0.0017603585,-0.0071899313,0.00031209984,0.0,0.0,0.0,0.0,-1.0
319984593,319984255,0.001728156,-0.004340084,0.0010841774,0.0,0.0,0.0,0.0,-1.0
319987142,319986765,0.0008333066,-0.0020692637,0.0010764379,0.0,0.0,0.0,0.0,-1.0
319990910,319990563,-0.00067891396,-0.00224745,0.00024823542,0.0,0.0,0.0,0.0,-1.0
319994714,319994375,-0.000108694185,-0.0059580025,-0.0015202247,0.0,0.0,0.0,0.0,-1.0
319998501,319998174,0.0021465505,-0.009034789,-0.00089807966,0.0,0.0,0.0,0.0,-1.0
320002337,320001981,0.0024063748,-0.0071783443,-0.00031066433,0.0,0.0,0.0,0.0,-1.0
320004849,320004519,0.00083673926,-0.004165871,0.0008655904,0.0,0.0,0.0,0.0,-1.0
320008692,320008340,-0.0012859596,-0.001658963,0.0003307757,0.0,0.0,0.0,0.0,-1.0
320012455,320012130,-0.00025430621,-0.0042078854,-0.00045454685,0.0,0.0,0.0,0.0,-1.0
320015008,320014672,0.001720129,-0.0067413184,-0.0009350939,0.0,0.0,0.0,0.0,-1.0
320019028,320018681,0.0031170289,-0.008770946,-0.00049789174,0.0,0.0,0.0,0.0,-1.0
320022794,320022469,0.0015355382,-0.006625222,-0.00012280169,0.0,0.0,0.0,0.0,-1.0
320026671,320026277,-0.0015651133,-0.003025002,-0.0004804624,0.0,0.0,0.0,0.0,-1.0
320029145,320028791,-0.002158398,-0.0021457446,-0.0002739477,0.0,0.0,0.0,0.0,-1.0
320032837,320032467,0.0005189378,-0.004162338,0.00038829417,0.0,0.0,0.0,0.0,-1.0
320036563,320036228,0.0038206964,-0.0074612917,0.0004586576,0.0,0.0,0.0,0.0,-1.0
320042903,320042577,0.00026471182,-0.0058135614,-0.0013393306,0.0,0.0,0.0,0.0,-1.0
320044177,320043847,-0.0010709754,-0.0046691126,-0.0015354609,0.0,0.0,0.0,0.0,-1.0
320046707,320046382,-0.0027109217,-0.0029892928,-0.0013258808,0.0,0.0,0.0,0.0,-1.0
320051795,320051473,0.0001772841,-0.00414208,0.0019252346,0.0,0.0,0.0,0.0,-1.0
320054361,320054005,0.003060729,-0.006133658,0.0019598894,0.0,0.0,0.0,0.0,-1.0
320058178,320057814,0.0037356117,-0.0077885413,0.00013976067,0.0,0.0,0.0,0.0,-1.0
320064498,320064151,-0.001987555,-0.0040973458,-0.003015369,0.0,0.0,0.0,0.0,-1.0
320068278,320067948,-0.002434842,-0.0032946244,-0.00010935655,0.0,0.0,0.0,0.0,-1.0
320072097,320071756,0.00086655555,-0.0051030824,0.003149389,0.0,0.0,0.0,0.0,-1.0
320074678,320074309,0.0031002935,-0.006509555,0.0030614072,0.0,0.0,0.0,0.0,-1.0
320078427,320078102,0.003262996,-0.006519007,-0.00033282998,0.0,0.0,0.0,0.0,-1.0
320083506,320083173,-0.00061613234,-0.004377554,-0.0041938606,0.0,0.0,0.0,0.0,-1.0
320086060,320085709,-0.0017735622,-0.0041939104,-0.0021406654,0.0,0.0,0.0,0.0,-1.0
320088665,320088278,-0.0014052078,-0.0047049727,0.0014092611,0.0,0.0,0.0,0.0,-1.0
320092399,320092054,0.0009603439,-0.005731537,0.003831006,0.0,0.0,0.0,0.0,-1.0
320096253,320095865,0.00280417,-0.005879539,0.0013538228,0.0,0.0,0.0,0.0,-1.0
320098756,320098396,0.0021074957,-0.005231092,-0.0020401392,0.0,0.0,0.0,0.0,-1.0
320104033,320103693,-0.0008200826,-0.004792881,-0.003587567,0.0,0.0,0.0,0.0,-1.0
320107748,320107418,-0.00021441186,-0.0048435237,0.00076535746,0.0,0.0,0.0,0.0,-1.0
320110292,320109945,0.0010488728,-0.005095409,0.0033646554,0.0,0.0,0.0,0.0,-1.0
320114018,320113663,0.0015211756,-0.006116135,0.0029977197,0.0,0.0,0.0,0.0,-1.0
320119044,320118698,0.0005129447,-0.0055568856,-0.0026622,0.0,0.0,0.0,0.0,-1.0
320120325,320119971,0.00047090376,-0.005093846,-0.003577039,0.0,0.0,0.0,0.0,-1.0
320124179,320123780,0.00089537003,-0.0045565898,-0.0031458177,0.0,0.0,0.0,0.0,-1.0
320127900,320127576,0.0016535857,-0.00557515,0.0021985124,0.0,0.0,0.0,0.0,-1.0
320130433,320130111,0.0010471917,-0.0059648682,0.003191042,0.0,0.0,0.0,0.0,-1.0
320134257,320133921,-0.00054504373,-0.0057775574,0.0016954485,0.0,0.0,0.0,0.0,-1.0
320138049,320137725,-0.0002995674,-0.0047886497,-0.002217433,0.0,0.0,0.0,0.0,-1.0
320141914,320141532,0.00203529,-0.0043146494,-0.0026800015,0.0,0.0,0.0,0.0,-1.0
320145661,320145335,0.0025805144,-0.004968614,0.00058918295,0.0,0.0,0.0,0.0,-1.0
320148201,320147876,0.001628493,-0.0055491445,0.002600567,0.0,0.0,0.0,0.0,-1.0
320152011,320151681,-0.0010545679,-0.0060491925,0.002164521,0.0,0.0,0.0,0.0,-1.0
320155855,320155487,-0.0018244785,-0.0053772973,-0.0013674886,0.0,0.0,0.0,0.0,-1.0
320159649,320159292,0.000969328,-0.00482047,-0.0023629544,0.0,0.0,0.0,0.0,-1.0
320162173,320161829,0.0027445243,-0.0044082412,-0.0013849825,0.0,0.0,0.0,0.0,-1.0
320166044,320165642,0.0028338116,-0.004358716,0.00139005,0.0,0.0,0.0,0.0,-1.0
320169810,320169442,0.0002617684,-0.005673399,0.00138863,0.0,0.0,0.0,0.0,-1.0
320173657,320173253,-0.0020131308,-0.0068744402,-0.00051209296,0.0,0.0,0.0,0.0,-1.0
320176108,320175782,-0.0014635457,-0.006554845,-0.001695993,0.0,0.0,0.0,0.0,-1.0
320179926,320179591,0.0016352304,-0.004652647,-0.000817702,0.0,0.0,0.0,0.0,-1.0
320184063,320183691,0.0036538814,-0.0031002401,0.0003812395,0.0,0.0,0.0,0.0,-1.0
320186449,320186130,0.002492693,-0.0033384722,0.0011645694,0.0,0.0,0.0,0.0,-1.0
320201494,320201164,0.003211061,-0.0041295476,0.000985492,0.0,0.0,0.0,0.0,-1.0
320204018,320203694,0.0035513586,-0.0029408408,0.0014806007,0.0,0.0,0.0,0.0,-1.0
320207844,320207498,0.00083507394,-0.0036235251,0.00019332612,0.0,0.0,0.0,0.0,-1.0
320211659,320211307,-0.0015772044,-0.0066415346,-0.0015337745,0.0,0.0,0.0,0.0,-1.0
320215435,320215111,-0.0002725922,-0.0081714755,-0.001483852,0.0,0.0,0.0,0.0,-1.0
320217975,320217647,0.001677988,-0.007032459,0.0001643184,0.0,0.0,0.0,0.0,-1.0
320221825,320221458,0.0027069375,-0.003344665,0.0017235655,0.0,0.0,0.0,0.0,-1.0
320225603,320225260,0.00082274916,-0.002278534,0.0004952028,0.0,0.0,0.0,0.0,-1.0
320229411,320229082,-0.0006535623,-0.0049309228,-0.0013875262,0.0,0.0,0.0,0.0,-1.0
320231985,320231611,-0.0006096829,-0.00728684,-0.0019885672,0.0,0.0,0.0,0.0,-1.0
320235778,320235411,0.0013364389,-0.007966269,-0.00066742836,0.0,0.0,0.0,0.0,-1.0
320239593,320239225,0.0025255303,-0.005448693,0.0011756807,0.0,0.0,0.0,0.0,-1.0
320245905,320245559,-0.00083715504,-0.0026564675,7.5146476e-05,0.0,0.0,0.0,0.0,-1.0
320249757,320249366,-0.0009287551,-0.0049669705,-0.0015017638,0.0,0.0,0.0,0.0,-1.0
320254766,320254442,0.002176565,-0.008454209,-0.00046920334,0.0,0.0,0.0,0.0,-1.0
320257370,320256983,0.0027494396,-0.0074684615,0.0004990244,0.0,0.0,0.0,0.0,-1.0
320261235,320260792,0.0009025948,-0.0037677211,0.00054414565,0.0,0.0,0.0,0.0,-1.0
320266414,320266084,-0.0020001696,-0.0024168547,-0.000872928,0.0,0.0,0.0,0.0,-1.0
320267707,320267332,-0.0016382311,-0.003181207,-0.0010594486,0.0,0.0,0.0,0.0,-1.0
320271517,320271170,0.0015161606,-0.0063727605,-2.7908723e-05,0.0,0.0,0.0,0.0,-1.0
320275151,320274821,0.003598018,-0.007973826,0.00035716975,0.0,0.0,0.0,0.0,-1.0
320277742,320277369,0.002251695,-0.0071366914,-0.00016781571,0.0,0.0,0.0,0.0,-1.0
320281441,320281109,-0.0013642063,-0.004251463,-0.0010648399,0.0,0.0,0.0,0.0,-1.0
320286484,320286155,-0.0013052276,-0.0030820486,-2.8286304e-05,0.0,0.0,0.0,0.0,-1.0
320289117,320288699,0.0013364123,-0.0041894494,0.00041787993,0.0,0.0,0.0,0.0,-1.0
320291561,320291237,0.003387893,-0.0060566063,0.001259847,0.0,0.0,0.0,0.0,-1.0
320305505,320305184,-0.001749959,-0.0037962392,0.00011009744,0.0,0.0,0.0,0.0,-1.0
320309370,320309018,0.0017480921,-0.004627331,0.0027309495,0.0,0.0,0.0,0.0,-1.0
320313120,320312794,0.0039103637,-0.0065943417,0.0013819975,0.0,0.0,0.0,0.0,-1.0
320317015,320316609,0.0019353895,-0.0068435874,-0.0024957259,0.0,0.0,0.0,0.0,-1.0
320319472,320319140,-0.00077498006,-0.0055308347,-0.003504886,0.0,0.0,0.0,0.0,-1.0
320323341,320322951,-0.0025095574,-0.004118892,-0.0008721659,0.0,0.0,0.0,0.0,-1.0
320327079,320326751,0.00023153913,-0.003756303,0.002422396,0.0,0.0,0.0,0.0,-1.0
320330984,320330564,0.0034655188,-0.0051490087,0.00325271,0.0,0.0,0.0,0.0,-1.0
320333423,320333097,0.003127951,-0.006142287,0.00025253903,0.0,0.0,0.0,0.0,-1.0
320337296,320336908,0.00029432293,-0.0065609664,-0.0031615447,0.0,0.0,0.0,0.0,-1.0
320341116,320340727,-0.0012414843,-0.0054044677,-0.0031547074,0.0,0.0,0.0,0.0,-1.0
320346327,320345993,0.00014486363,-0.004401623,0.0027635314,0.0,0.0,0.0,0.0,-1.0
320347615,320347293,0.00066186115,-0.0042627244,0.0035949615,0.0,0.0,0.0,0.0,-1.0
320351369,320351027,0.0018623427,-0.0049011647,0.0024221502,0.0,0.0,0.0,0.0,-1.0
320356470,320356115,0.00095983036,-0.0062168874,-0.0037267467,0.0,0.0,0.0,0.0,-1.0
320359000,320358590,0.00022636,-0.006004528,-0.004558611,0.0,0.0,0.0,0.0,-1.0
320362644,320362303,-0.00021794702,-0.004826103,-0.0010332889,0.0,0.0,0.0,0.0,-1.0
320365180,320364828,1.2394639e-06,-0.004380595,0.0020865966,0.0,0.0,0.0,0.0,-1.0
320368971,320368620,0.0008199338,-0.0048221727,0.004045489,0.0,0.0,0.0,0.0,-1.0
320372745,320372421,0.0007764314,-0.0056014317,-0.00025801244,0.0,0.0,0.0,0.0,-1.0
320376573,320376226,0.00056858413,-0.005905648,-0.0034640513,0.0,0.0,0.0,0.0,-1.0
320379119,320378763,0.0008738653,-0.005505283,-0.003569355,0.0,0.0,0.0,0.0,-1.0
320382898,320382572,0.0016927666,-0.0048215273,0.0006065435,0.0,0.0,0.0,0.0,-1.0
320386749,320386377,0.0007558277,-0.004915716,0.0031787907,0.0,0.0,0.0,0.0,-1.0
320393047,320392720,-0.00037648444,-0.0063011562,-0.00084233884,0.0,0.0,0.0,0.0,-1.0
320396845,320396524,0.0010222977,-0.005951,-0.0030418618,0.0,0.0,0.0,0.0,-1.0
320401952,320401603,0.0028467088,-0.003382571,-0.00021484801,0.0,0.0,0.0,0.0,-1.0
320404460,320404139,0.0017269426,-0.0035737073,0.0017039444,0.0,0.0,0.0,0.0,-1.0
320407007,320406673,-0.00027563714,-0.0052294214,0.0022004677,0.0,0.0,0.0,0.0,-1.0
320413352,320413018,-0.0005429466,-0.006769334,-0.0011637287,0.0,0.0,0.0,0.0,-1.0
320414680,320414319,0.0003114654,-0.006116485,-0.0017368913,0.0,0.0,0.0,0.0,-1.0
320418494,320418119,0.002870594,-0.004006541,-0.0012039641,0.0,0.0,0.0,0.0,-1.0
320422239,320421914,0.003016633,-0.0033573974,0.0009836465,0.0,0.0,0.0,0.0,-1.0
320424812,320424437,0.0011388436,-0.004178171,0.000846791,0.0,0.0,0.0,0.0,-1.0
320428870,320428531,-0.0022280645,-0.006747175,0.00010882116,0.0,0.0,0.0,0.0,-1.0
320433805,320433483,6.7782465e-05,-0.0072147995,-0.00092970155,0.0,0.0,0.0,0.0,-1.0
320435095,320434728,0.0013818182,-0.00633516,-0.00070699473,0.0,0.0,0.0,0.0,-1.0
320438882,320438486,0.0032937173,-0.003023283,0.0001821234,0.0,0.0,0.0,0.0,-1.0
320442553,320442226,0.0020609752,-0.0024893575,0.00038825223,0.0,0.0,0.0,0.0,-1.0
320446339,320446002,-0.00087338174,-0.0059211003,-0.0002877053,0.0,0.0,0.0,0.0,-1.0
320450159,320449807,-0.0018497803,-0.008888536,-0.0008776129,0.0,0.0,0.0,0.0,-1.0
320453934,320453614,0.0009105596,-0.0072197802,-0.0003001175,0.0,0.0,0.0,0.0,-1.0
320456481,320456152,0.0025911073,-0.0040934035,0.00037196104,0.0,0.0,0.0,0.0,-1.0
320460398,320459966,0.0028832718,-0.0014005,0.0011271479,0.0,0.0,0.0,0.0,-1.0
320464116,320463763,5.367368e-05,-0.003879017,-0.00037462858,0.0,0.0,0.0,0.0,-1.0
320466644,320466310,-0.0015979371,-0.006774683,-0.0010464522,0.0,0.0,0.0,0.0,-1.0
320470452,320470113,-0.00088166416,-0.0090544475,-0.00075043825,0.0,0.0,0.0,0.0,-1.0
320474237,320473912,0.0019506188,-0.0064201136,0.000954444,0.0,0.0,0.0,0.0,-1.0
320478059,320477716,0.0023936278,-0.002162485,0.000835823,0.0,0.0,0.0,0.0,-1.0
320480647,320480317,0.0016551315,-0.0014452818,0.00047712514,0.0,0.0,0.0,0.0,-1.0
320484407,320484062,-0.00025151987,-0.0041358145,-0.00090985093,0.0,0.0,0.0,0.0,-1.0
320488205,320487873,-0.0004004407,-0.008218247,-0.001041823,0.0,0.0,0.0,0.0,-1.0
320494531,320494210,0.0018266427,-0.006234075,0.00057521305,0.0,0.0,0.0,0.0,-1.0
320498389,320498023,0.0013170656,-0.002479163,0.00032690767,0.0,0.0,0.0,0.0,-1.0
320504684,320504359,-0.00036022972,-0.0047986545,-0.00085610023,0.0,0.0,0.0,0.0,-1.0
320505953,320505629,-0.00019710639,-0.006215159,-0.00080101966,0.0,0.0,0.0,0.0,-1.0
320508498,320508171,0.000810432,-0.007906103,0.00013546576,0.0,0.0,0.0,0.0,-1.0
320515005,320514679,0.0014893266,-0.005242867,-0.0002967853,0.0,0.0,0.0,0.0,-1.0
320516363,320515964,0.000991621,-0.004382535,-0.0007230015,0.0,0.0,0.0,0.0,-1.0
320520137,320519728,-0.00030592957,-0.0032548371,-0.0006474542,0.0,0.0,0.0,0.0,-1.0
320523779,320523436,-0.00034118388,-0.0043479614,-5.9886057e-05,0.0,0.0,0.0,0.0,-1.0
320526260,320525941,0.0007366549,-0.005915613,0.0009477363,0.0,0.0,0.0,0.0,-1.0
320530118,320529742,0.0026462898,-0.0072773565,0.0005785847,0.0,0.0,0.0,0.0,-1.0
320535130,320534807,0.0011848737,-0.0059140516,-0.0011484765,0.0,0.0,0.0,0.0,-1.0
320536457,320536076,0.00017186951,-0.005210814,-0.0015641833,0.0,0.0,0.0,0.0,-1.0
320540227,320539880,-0.0018147321,-0.0036878015,-0.0008710126,0.0,0.0,0.0,0.0,-1.0
320544009,320543687,-0.00016966497,-0.004051503,0.00094395375,0.0,0.0,0.0,0.0,-1.0
320547818,320547491,0.0025591506,-0.0054538897,0.0014400881,0.0,0.0,0.0,0.0,-1.0
320551666,320551308,0.0027818396,-0.006701634,-0.0004748716,0.0,0.0,0.0,0.0,-1.0
320555429,320555105,2.8397884e-05,-0.006652787,-0.0023104704,0.0,0.0,0.0,0.0,-1.0
320558040,320557664,-0.0014252908,-0.0056197806,-0.0014950905,0.0,0.0,0.0,0.0,-1.0
320561856,320561458,-0.0010032803,-0.00364363,0.00054550444,0.0,0.0,0.0,0.0,-1.0
320565674,320565273,0.0019814195,-0.0036495524,0.0028219945,0.0,0.0,0.0,0.0,-1.0
320568136,320567794,0.003270581,-0.004987785,0.0016447287,0.0,0.0,0.0,0.0,-1.0
320582081,320581762,3.2534637e-05,-0.0034944015,0.0018949818,0.0,0.0,0.0,0.0,-1.0
320585881,320585558,0.0009205579,-0.003243731,0.0027605114,0.0,0.0,0.0,0.0,-1.0
320589705,320589359,0.0019861988,-0.0055979514,-0.00020493257,0.0,0.0,0.0,0.0,-1.0
320592596,320592205,0.0015928149,-0.0072646234,-0.0026045782,0.0,0.0,0.0,0.0,-1.0
320596203,320595883,0.00059637584,-0.0070614144,-0.002939342,0.0,0.0,0.0,0.0,-1.0
320600031,320599690,-0.00078513473,-0.004407041,-0.00031723274,0.0,0.0,0.0,0.0,-1.0
320604959,320604627,0.00076117134,-0.0028370894,0.0035372693,0.0,0.0,0.0,0.0,-1.0
320607450,320607130,0.0016486514,-0.0041915346,0.0018885955,0.0,0.0,0.0,0.0,-1.0
320610033,320609655,0.001622272,-0.0061042253,-0.0005703355,0.0,0.0,0.0,0.0,-1.0
320616337,320615999,0.00091880106,-0.006752746,-0.0030685465,0.0,0.0,0.0,0.0,-1.0
320617646,320617275,0.0007746352,-0.0060902783,-0.0017885844,0.0,0.0,0.0,0.0,-1.0
320621420,320621075,3.0818068e-05,-0.0035961762,0.0018188845,0.0,0.0,0.0,0.0,-1.0
320626471,320626148,-0.00044308943,-0.0042618383,0.0021389606,0.0,0.0,0.0,0.0,-1.0
320627786,320627417,-0.00014013232,-0.0051324037,0.0010912743,0.0,0.0,0.0,0.0,-1.0
320631570,320631226,0.0018538861,-0.0072581624,-0.0021628076,0.0,0.0,0.0,0.0,-1.0
320637939,320637567,0.0016241436,-0.004564367,-0.0015365131,0.0,0.0,0.0,0.0,-1.0
320641763,320641372,-0.00023056717,-0.0032561428,0.001931512,0.0,0.0,0.0,0.0,-1.0
320645502,320645178,-0.0010848764,-0.0052001257,0.0020079648,0.0,0.0,0.0,0.0,-1.0
320649360,320648993,-7.20155e-05,-0.0070699775,9.6381016e-05,0.0,0.0,0.0,0.0,-1.0
320653167,320652810,0.0021174785,-0.0061032064,-0.0026416772,0.0,0.0,0.0,0.0,-1.0
320656915,320656595,0.0029571166,-0.0040746005,-0.0010780027,0.0,0.0,0.0,0.0,-1.0
320660801,320660404,0.0007709463,-0.0036225398,0.0006991054,0.0,0.0,0.0,0.0,-1.0
320663272,320662938,-0.001063722,-0.004727558,0.0015567672,0.0,0.0,0.0,0.0,-1.0
320667126,320666745,-0.00127139,-0.0070290873,0.00071464403,0.0,0.0,0.0,0.0,-1.0
320669639,320669304,-9.933219e-05,-0.007805049,8.225215e-05,0.0,0.0,0.0,0.0,-1.0
320673712,320673319,0.0024039517,-0.0051975437,-0.0011675381,0.0,0.0,0.0,0.0,-1.0
320677419,320677093,0.0029568335,-0.002637787,-0.00084331626,0.0,0.0,0.0,0.0,-1.0
320681185,320680839,0.0011870903,-0.0041221012,-4.0800038e-05,0.0,0.0,0.0,0.0,-1.0
320708934,320708610,0.00021443985,-0.0075350376,0.00070434896,0.0,0.0,0.0,0.0,-1.0
320711491,320711148,0.0012953337,-0.0048680664,0.0004786667,0.0,0.0,0.0,0.0,-1.0
320717828,320717490,0.0017780587,-0.0020638611,-0.0007743504,0.0,0.0,0.0,0.0,-1.0
320719191,320718781,0.0013568692,-0.0028186683,-0.0008185161,0.0,0.0,0.0,0.0,-1.0
320722942,320722569,-0.00014836507,-0.0068069263,-0.00062427245,0.0,0.0,0.0,0.0,-1.0
320726761,320726379,-0.0002560515,-0.008756274,0.00036688117,0.0,0.0,0.0,0.0,-1.0
320729245,320728916,9.514739e-05,-0.0074132504,0.00026397122,0.0,0.0,0.0,0.0,-1.0
320733055,320732715,0.0012122706,-0.0035133548,0.0001708244,0.0,0.0,0.0,0.0,-1.0
320738126,320737788,0.0011424008,-0.002918699,-0.0006804027,0.0,0.0,0.0,0.0,-1.0
320740694,320740346,0.0007025156,-0.0050743446,-0.00038142383,0.0,0.0,0.0,0.0,-1.0
320743240,320742876,0.0002731933,-0.0071535273,0.00013253672,0.0,0.0,0.0,0.0,-1.0
320746993,320746668,0.00014961441,-0.007936885,0.00034088796,0.0,0.0,0.0,0.0,-1.0
320750839,320750472,0.00068624254,-0.0054703737,-0.00014585363,0.0,0.0,0.0,0.0,-1.0
320754688,320754307,0.000849167,-0.002925492,-0.00034249303,0.0,0.0,0.0,0.0,-1.0
320758642,320758316,0.00084859575,-0.0032655264,-0.0004925487,0.0,0.0,0.0,0.0,-1.0
320761185,320760831,0.0008231745,-0.00485991,-0.00011472802,0.0,0.0,0.0,0.0,-1.0
320765003,320764622,0.0010836315,-0.0070113256,0.00011151714,0.0,0.0,0.0,0.0,-1.0
320768687,320768338,0.0007746564,-0.0071713724,-0.00058630353,0.0,0.0,0.0,0.0,-1.0
320771219,320770862,0.00040806335,-0.0061377035,-0.00057855033,0.0,0.0,0.0,0.0,-1.0
320774899,320774573,0.0004090456,-0.004214385,-0.00034234516,0.0,0.0,0.0,0.0,-1.0
320778725,320778386,0.0005160861,-0.0037352818,0.0007853837,0.0,0.0,0.0,0.0,-1.0
320782569,320782189,0.0010818256,-0.0048868083,0.0009006664,0.0,0.0,0.0,0.0,-1.0
320785061,320784727,0.0016860971,-0.006167421,0.0005352066,0.0,0.0,0.0,0.0,-1.0
320788872,320788533,0.0011738602,-0.006945122,-0.001398,0.0,0.0,0.0,0.0,-1.0
320792708,320792343,0.0003342001,-0.006026296,-0.0015232585,0.001,0.0,0.0,0.0,-1.0
321813914,321813585,-0.0013998202,-0.0069996784,-0.0007384937,0.001,0.0,0.0,0.0,-1.0
321817727,321817405,0.0009907754,-0.0076625366,0.0015946309,0.001,0.0,0.0,0.0,-1.0
321824242,321823910,0.0014529391,-0.0027443173,-1.8374192e-05,0.001,0.0,0.0,0.0,-1.0
321825489,321825167,0.0007498546,-0.0021796688,-0.0009865471,0.001,0.0,0.0,0.0,-1.0
321828074,321827702,-0.0003455485,-0.0025686643,-0.0020078968,0.001,0.0,0.0,0.0,-1.0
321832980,321832659,0.0002001052,-0.006514112,-0.00055968366,0.001,0.0,0.0,0.0,-1.0
321835566,321835212,0.0013219576,-0.007957192,0.0015649464,0.001,0.0,0.0,0.0,-1.0
321839314,321838969,0.0020138547,-0.0075075934,0.0015020812,0.001,0.0,0.0,0.0,-1.0
321843100,321842763,0.000826435,-0.004218485,-0.0007310213,0.001,0.0,0.0,0.0,-1.0
321845619,321845300,-0.0002467872,-0.002610673,-0.0019877907,0.001,0.0,0.0,0.0,-1.0
321849441,321849112,2.9429186e-05,-0.0032360952,-0.0012576681,0.001,0.0,0.0,0.0,-1.0
321854507,321854182,0.0021602786,-0.0066305464,0.001497283,0.001,0.0,0.0,0.0,-1.0
321857045,321856717,0.0019641716,-0.0074282256,0.0017478003,0.001,0.0,0.0,0.0,-1.0
321859684,321859284,0.0009814266,-0.007165705,0.00047287354,0.001,0.0,0.0,0.0,-1.0
321864655,321864331,-0.0008686282,-0.0039167246,-0.0022870176,0.001,0.0,0.0,0.0,-1.0
321867206,321866875,-0.00023902101,-0.0028995196,-0.001432104,0.001,0.0,0.0,0.0,-1.0
321871032,321870685,0.0022883008,-0.003608216,0.0011033829,0.001,0.0,0.0,0.0,-1.0
321874807,321874483,0.0021864602,-0.0058022165,0.0017462106,0.001,0.0,0.0,0.0,-1.0
321877394,321877024,0.0010018068,-0.0072960528,-2.5643016e-05,0.001,0.0,0.0,0.0,-1.0
321881203,321880833,-0.00059845473,-0.0075755413,-0.0021488888,0.001,0.0,0.0,0.0,-1.0
321884952,321884629,-0.00061554706,-0.0043483637,-0.0016721667,0.001,0.0,0.0,0.0,-1.0
321887495,321887165,0.00065461686,-0.0024703755,0.00021201605,0.001,0.0,0.0,0.0,-1.0
321891445,321890981,0.002461408,-0.0024623433,0.0019342778,0.001,0.0,0.0,0.0,-1.0
321896392,321896051,0.0014186135,-0.0072774594,-0.00038503986,0.001,0.0,0.0,0.0,-1.0
321898916,321898585,0.00020513221,-0.0084335115,-0.00235335,0.001,0.0,0.0,0.0,-1.0
321901750,321901382,-0.0010279296,-0.0077745,-0.003274678,0.001,0.0,0.0,0.0,-1.0
321905436,321905115,-0.00036207808,-0.003965754,-0.00054865907,0.001,0.0,0.0,0.0,-1.0
321909209,321908863,0.0015861494,-0.001817008,0.0025515507,0.001,0.0,0.0,0.0,-1.0
321915439,321915116,0.0012626066,-0.0068536676,-0.0005700664,0.001,0.0,0.0,0.0,-1.0
321920598,321920248,-0.00024713497,-0.007843726,-0.0032707283,0.001,0.0,0.0,0.0,-1.0
321925547,321925225,0.00080020085,-0.003325057,0.0003828916,0.001,0.0,0.0,0.0,-1.0
321926877,321926504,0.0011097494,-0.0023734923,0.0018725282,0.001,0.0,0.0,0.0,-1.0
321930660,321930311,0.0017638551,-0.0021796348,0.0026166993,0.001,0.0,0.0,0.0,-1.0
