timestamp,roll_body,pitch_body,yaw_body,yaw_sp_move_rate,q_d[0],q_d[1],q_d[2],q_d[3],thrust_body[0],thrust_body[1],thrust_body[2],roll_reset_integral,pitch_reset_integral,yaw_reset_integral,fw_control_yaw,apply_flaps
317889283,0.0,0.0,1.6285019,0.0,0.6864133,0.0,0.0,0.72721165,0.0,0.0,-0.0,0,0,0,0,0
317894447,0.0,0.0,1.6286207,0.0,0.6863701,0.0,0.0,0.7272524,0.0,0.0,-0.0,0,0,0,0,0
318011029,0.0,0.0,1.6286452,0.0,0.6863612,0.0,0.0,0.72726077,0.0,0.0,-0.0,0,0,0,0,0
318016192,0.0,0.0,1.6286354,0.0,0.68636477,0.0,0.0,0.7272575,0.0,0.0,-0.0,0,0,0,0,0
318021303,0.0,0.0,1.6286627,0.0,0.6863548,0.0,0.0,0.72726685,0.0,0.0,-0.0,0,0,0,0,0
318026398,0.0,0.0,1.6286712,0.0,0.6863518,0.0,0.0,0.72726977,0.0,0.0,-0.0,0,0,0,0,0
318031429,0.0,0.0,1.6286569,0.0,0.68635696,0.0,0.0,0.7272649,0.0,0.0,-0.0,0,0,0,0,0
318036418,0.0,0.0,1.6286507,0.0,0.6863592,0.0,0.0,0.72726274,0.0,0.0,-0.0,0,0,0,0,0
318041582,0.0,0.0,1.6286758,0.0,0.68635005,0.0,0.0,0.7272714,0.0,0.0,-0.0,0,0,0,0,0
318046552,0.0,0.0,1.6286762,0.0,0.6863499,0.0,0.0,0.72727144,0.0,0.0,-0.0,0,0,0,0,0
318051678,0.0,0.0,1.6286571,0.0,0.6863569,0.0,0.0,0.7272649,0.0,0.0,-0.0,0,0,0,0,0
318057046,0.0,0.0,1.6286595,0.0,0.686356,0.0,0.0,0.7272657,0.0,0.0,-0.0,0,0,0,0,0
318061869,0.0,0.0,1.6286803,0.0,0.68634844,0.0,0.0,0.72727287,0.0,0.0,-0.0,0,0,0,0,0
318066932,0.0,0.0,1.6286762,0.0,0.6863499,0.0,0.0,0.72727144,0.0,0.0,-0.0,0,0,0,0,0
318071890,0.0,0.0,1.6286684,0.0,0.6863527,0.0,0.0,0.7272688,0.0,0.0,-0.0,0,0,0,0,0
318076897,0.0,0.0,1.6286693,0.0,0.68635243,0.0,0.0,0.7272691,0.0,0.0,-0.0,0,0,0,0,0
318081988,0.0,0.0,1.6286975,0.0,0.6863422,0.0,0.0,0.72727877,0.0,0.0,-0.0,0,0,0,0,0
318087501,0.0,0.0,1.6286964,0.0,0.68634254,0.0,0.0,0.7272784,0.0,0.0,-0.0,0,0,0,0,0
318092426,0.0,0.0,1.6286607,0.0,0.6863556,0.0,0.0,0.72726613,0.0,0.0,-0.0,0,0,0,0,0
318097384,0.0,0.0,1.628667,0.0,0.68635327,0.0,0.0,0.7272683,0.0,0.0,-0.0,0,0,0,0,0
318102577,0.0,0.0,1.6287185,0.0,0.68633455,0.0,0.0,0.727286,0.0,0.0,-0.0,0,0,0,0,0
318107508,0.0,0.0,1.6287069,0.0,0.6863387,0.0,0.0,0.72728205,0.0,0.0,-0.0,0,0,0,0,0
318112680,0.0,0.0,1.6286702,0.0,0.6863521,0.0,0.0,0.7272694,0.0,0.0,-0.0,0,0,0,0,0
318117731,0.0,0.0,1.6286799,0.0,0.68634856,0.0,0.0,0.72727275,0.0,0.0,-0.0,0,0,0,0,0
318122831,0.0,0.0,1.6287249,0.0,0.6863322,0.0,0.0,0.7272882,0.0,0.0,-0.0,0,0,0,0,0
318128133,0.0,0.0,1.6287127,0.0,0.68633664,0.0,0.0,0.727284,0.0,0.0,-0.0,0,0,0,0,0
318132924,0.0,0.0,1.6286575,0.0,0.6863567,0.0,0.0,0.727265,0.0,0.0,-0.0,0,0,0,0,0
318138039,0.0,0.0,1.6286768,0.0,0.6863497,0.0,0.0,0.7272717,0.0,0.0,-0.0,0,0,0,0,0
318143115,0.0,0.0,1.6287335,0.0,0.68632907,0.0,0.0,0.7272911,0.0,0.0,-0.0,0,0,0,0,0
318148051,0.0,0.0,1.6287113,0.0,0.6863371,0.0,0.0,0.72728354,0.0,0.0,-0.0,0,0,0,0,0
318153066,0.0,0.0,1.6286678,0.0,0.68635297,0.0,0.0,0.7272686,0.0,0.0,-0.0,0,0,0,0,0
318158441,0.0,0.0,1.6286845,0.0,0.6863469,0.0,0.0,0.72727436,0.0,0.0,-0.0,0,0,0,0,0
318163159,0.0,0.0,1.628731,0.0,0.68632996,0.0,0.0,0.7272903,0.0,0.0,-0.0,0,0,0,0,0
318168375,0.0,0.0,1.6287209,0.0,0.68633366,0.0,0.0,0.7272868,0.0,0.0,-0.0,0,0,0,0,0
318173491,0.0,0.0,1.628668,0.0,0.6863529,0.0,0.0,0.72726864,0.0,0.0,-0.0,0,0,0,0,0
318178443,0.0,0.0,1.6286888,0.0,0.68634534,0.0,0.0,0.7272758,0.0,0.0,-0.0,0,0,0,0,0
318183613,0.0,0.0,1.6287462,0.0,0.6863245,0.0,0.0,0.72729546,0.0,0.0,-0.0,0,0,0,0,0
318188940,0.0,0.0,1.6287308,0.0,0.6863301,0.0,0.0,0.7272902,0.0,0.0,-0.0,0,0,0,0,0
318193768,0.0,0.0,1.6286834,0.0,0.6863473,0.0,0.0,0.727274,0.0,0.0,-0.0,0,0,0,0,0
318198797,0.0,0.0,1.6287035,0.0,0.68634,0.0,0.0,0.72728086,0.0,0.0,-0.0,0,0,0,0,0
318204033,0.0,0.0,1.6287534,0.0,0.68632185,0.0,0.0,0.72729796,0.0,0.0,-0.0,0,0,0,0,0
318208945,0.0,0.0,1.628742,0.0,0.686326,0.0,0.0,0.727294,0.0,0.0,-0.0,0,0,0,0,0
318214020,0.0,0.0,1.6286922,0.0,0.68634415,0.0,0.0,0.7272769,0.0,0.0,-0.0,0,0,0,0,0
318219581,0.0,0.0,1.6287,0.0,0.6863413,0.0,0.0,0.7272796,0.0,0.0,-0.0,0,0,0,0,0
318224314,0.0,0.0,1.6287459,0.0,0.6863246,0.0,0.0,0.72729534,0.0,0.0,-0.0,0,0,0,0,0
318229300,0.0,0.0,1.6287512,0.0,0.6863227,0.0,0.0,0.7272972,0.0,0.0,-0.0,0,0,0,0,0
318234289,0.0,0.0,1.6287124,0.0,0.68633676,0.0,0.0,0.7272839,0.0,0.0,-0.0,0,0,0,0,0
318239295,0.0,0.0,1.6287109,0.0,0.68633735,0.0,0.0,0.72728336,0.0,0.0,-0.0,0,0,0,0,0
318245115,0.0,0.0,1.6287482,0.0,0.68632376,0.0,0.0,0.7272962,0.0,0.0,-0.0,0,0,0,0,0
318249469,0.0,0.0,1.6287632,0.0,0.6863183,0.0,0.0,0.72730136,0.0,0.0,-0.0,0,0,0,0,0
318254608,0.0,0.0,1.6287153,0.0,0.6863357,0.0,0.0,0.72728485,0.0,0.0,-0.0,0,0,0,0,0
318260048,0.0,0.0,1.6287156,0.0,0.68633556,0.0,0.0,0.727285,0.0,0.0,-0.0,0,0,0,0,0
318264838,0.0,0.0,1.6287715,0.0,0.68631524,0.0,0.0,0.72730416,0.0,0.0,-0.0,0,0,0,0,0
318269930,0.0,0.0,1.6287619,0.0,0.68631876,0.0,0.0,0.7273009,0.0,0.0,-0.0,0,0,0,0,0
318274967,0.0,0.0,1.6287158,0.0,0.68633556,0.0,0.0,0.727285,0.0,0.0,-0.0,0,0,0,0,0
318280038,0.0,0.0,1.6287252,0.0,0.6863321,0.0,0.0,0.72728825,0.0,0.0,-0.0,0,0,0,0,0
318285156,0.0,0.0,1.6287596,0.0,0.6863196,0.0,0.0,0.7273001,0.0,0.0,-0.0,0,0,0,0,0
318290453,0.0,0.0,1.6287473,0.0,0.68632406,0.0,0.0,0.7272959,0.0,0.0,-0.0,0,0,0,0,0
318295229,0.0,0.0,1.628719,0.0,0.6863344,0.0,0.0,0.72728616,0.0,0.0,-0.0,0,0,0,0,0
318300636,0.0,0.0,1.6287299,0.0,0.6863304,0.0,0.0,0.7272899,0.0,0.0,-0.0,0,0,0,0,0
318305450,0.0,0.0,1.6287581,0.0,0.6863201,0.0,0.0,0.7272996,0.0,0.0,-0.0,0,0,0,0,0
318310552,0.0,0.0,1.6287446,0.0,0.6863251,0.0,0.0,0.7272949,0.0,0.0,-0.0,0,0,0,0,0
318315481,0.0,0.0,1.6287402,0.0,0.6863266,0.0,0.0,0.7272934,0.0,0.0,-0.0,0,0,0,0,0
318320598,0.0,0.0,1.6287639,0.0,0.68631804,0.0,0.0,0.72730154,0.0,0.0,-0.0,0,0,0,0,0
318326037,0.0,0.0,1.628766,0.0,0.68631727,0.0,0.0,0.72730225,0.0,0.0,-0.0,0,0,0,0,0
318330667,0.0,0.0,1.6287438,0.0,0.6863254,0.0,0.0,0.7272947,0.0,0.0,-0.0,0,0,0,0,0
318335832,0.0,0.0,1.6287563,0.0,0.6863208,0.0,0.0,0.7272989,0.0,0.0,-0.0,0,0,0,0,0
318340872,0.0,0.0,1.6287805,0.0,0.686312,0.0,0.0,0.72730726,0.0,0.0,-0.0,0,0,0,0,0
318346057,0.0,0.0,1.6287613,0.0,0.686319,0.0,0.0,0.7273007,0.0,0.0,-0.0,0,0,0,0,0
318351073,0.0,0.0,1.6287302,0.0,0.6863303,0.0,0.0,0.72729003,0.0,0.0,-0.0,0,0,0,0,0
318356325,0.0,0.0,1.6287547,0.0,0.6863214,0.0,0.0,0.72729844,0.0,0.0,-0.0,0,0,0,0,0
318361425,0.0,0.0,1.6287831,0.0,0.68631107,0.0,0.0,0.72730815,0.0,0.0,-0.0,0,0,0,0,0
318366449,0.0,0.0,1.6287438,0.0,0.6863254,0.0,0.0,0.7272947,0.0,0.0,-0.0,0,0,0,0,0
318371454,0.0,0.0,1.6287291,0.0,0.6863307,0.0,0.0,0.72728956,0.0,0.0,-0.0,0,0,0,0,0
318376414,0.0,0.0,1.6287835,0.0,0.6863109,0.0,0.0,0.7273083,0.0,0.0,-0.0,0,0,0,0,0
318381556,0.0,0.0,1.6287785,0.0,0.68631274,0.0,0.0,0.7273066,0.0,0.0,-0.0,0,0,0,0,0
318386655,0.0,0.0,1.6287314,0.0,0.68632984,0.0,0.0,0.7272904,0.0,0.0,-0.0,0,0,0,0,0
318392310,0.0,0.0,1.628728,0.0,0.6863311,0.0,0.0,0.72728926,0.0,0.0,-0.0,0,0,0,0,0
318396711,0.0,0.0,1.6287566,0.0,0.68632066,0.0,0.0,0.7272991,0.0,0.0,-0.0,0,0,0,0,0
318401737,0.0,0.0,1.6287589,0.0,0.6863198,0.0,0.0,0.72729987,0.0,0.0,-0.0,0,0,0,0,0
318427176,0.0,0.0,1.6287357,0.0,0.6863283,0.0,0.0,0.7272919,0.0,0.0,-0.0,0,0,0,0,0
318432385,0.0,0.0,1.6287231,0.0,0.6863328,0.0,0.0,0.7272876,0.0,0.0,-0.0,0,0,0,0,0
318437395,0.0,0.0,1.6287295,0.0,0.68633056,0.0,0.0,0.72728974,0.0,0.0,-0.0,0,0,0,0,0
318442529,0.0,0.0,1.6287671,0.0,0.68631685,0.0,0.0,0.7273027,0.0,0.0,-0.0,0,0,0,0,0
318447560,0.0,0.0,1.6287513,0.0,0.6863226,0.0,0.0,0.72729725,0.0,0.0,-0.0,0,0,0,0,0
318452731,0.0,0.0,1.6287212,0.0,0.68633354,0.0,0.0,0.72728693,0.0,0.0,-0.0,0,0,0,0,0
318458018,0.0,0.0,1.6287339,0.0,0.68632895,0.0,0.0,0.7272912,0.0,0.0,-0.0,0,0,0,0,0
318462778,0.0,0.0,1.6287726,0.0,0.6863149,0.0,0.0,0.7273045,0.0,0.0,-0.0,0,0,0,0,0
318468214,0.0,0.0,1.6287649,0.0,0.6863177,0.0,0.0,0.72730184,0.0,0.0,-0.0,0,0,0,0,0
318472942,0.0,0.0,1.6287228,0.0,0.686333,0.0,0.0,0.7272874,0.0,0.0,-0.0,0,0,0,0,0
318477843,0.0,0.0,1.6287359,0.0,0.68632823,0.0,0.0,0.727292,0.0,0.0,-0.0,0,0,0,0,0
318483183,0.0,0.0,1.6288,0.0,0.6863049,0.0,0.0,0.727314,0.0,0.0,-0.0,0,0,0,0,0
318487971,0.0,0.0,1.6287851,0.0,0.6863103,0.0,0.0,0.72730887,0.0,0.0,-0.0,0,0,0,0,0
318493062,0.0,0.0,1.6287094,0.0,0.6863378,0.0,0.0,0.7272829,0.0,0.0,-0.0,0,0,0,0,0
318498597,0.0,0.0,1.628735,0.0,0.6863286,0.0,0.0,0.72729164,0.0,0.0,-0.0,0,0,0,0,0
318503218,0.0,0.0,1.6288054,0.0,0.68630296,0.0,0.0,0.7273158,0.0,0.0,-0.0,0,0,0,0,0
318508384,0.0,0.0,1.6287639,0.0,0.68631804,0.0,0.0,0.72730154,0.0,0.0,-0.0,0,0,0,0,0
318513585,0.0,0.0,1.6286982,0.0,0.6863419,0.0,0.0,0.727279,0.0,0.0,-0.0,0,0,0,0,0
318518502,0.0,0.0,1.6287398,0.0,0.6863268,0.0,0.0,0.7272933,0.0,0.0,-0.0,0,0,0,0,0
318523907,0.0,0.0,1.6288054,0.0,0.68630296,0.0,0.0,0.7273158,0.0,0.0,-0.0,0,0,0,0,0
318528658,0.0,0.0,1.6287521,0.0,0.68632233,0.0,0.0,0.72729754,0.0,0.0,-0.0,0,0,0,0,0
318533976,0.0,0.0,1.6287097,0.0,0.68633777,0.0,0.0,0.72728294,0.0,0.0,-0.0,0,0,0,0,0
318538790,0.0,0.0,1.6287613,0.0,0.686319,0.0,0.0,0.7273007,0.0,0.0,-0.0,0,0,0,0,0
318543863,0.0,0.0,1.6287827,0.0,0.6863112,0.0,0.0,0.72730803,0.0,0.0,-0.0,0,0,0,0,0
318549115,0.0,0.0,1.6287237,0.0,0.68633264,0.0,0.0,0.72728777,0.0,0.0,-0.0,0,0,0,0,0
318554047,0.0,0.0,1.6287175,0.0,0.6863349,0.0,0.0,0.7272856,0.0,0.0,-0.0,0,0,0,0,0
318559436,0.0,0.0,1.628778,0.0,0.6863129,0.0,0.0,0.7273064,0.0,0.0,-0.0,0,0,0,0,0
318564074,0.0,0.0,1.6287681,0.0,0.6863165,0.0,0.0,0.72730297,0.0,0.0,-0.0,0,0,0,0,0
318569160,0.0,0.0,1.6287324,0.0,0.6863295,0.0,0.0,0.72729075,0.0,0.0,-0.0,0,0,0,0,0
318574696,0.0,0.0,1.6287625,0.0,0.6863185,0.0,0.0,0.72730106,0.0,0.0,-0.0,0,0,0,0,0
318579348,0.0,0.0,1.6287929,0.0,0.6863075,0.0,0.0,0.7273115,0.0,0.0,-0.0,0,0,0,0,0
318584464,0.0,0.0,1.6287596,0.0,0.6863196,0.0,0.0,0.7273001,0.0,0.0,-0.0,0,0,0,0,0
318589967,0.0,0.0,1.6287462,0.0,0.6863245,0.0,0.0,0.72729546,0.0,0.0,-0.0,0,0,0,0,0
318594684,0.0,0.0,1.6287943,0.0,0.68630695,0.0,0.0,0.72731197,0.0,0.0,-0.0,0,0,0,0,0
318599800,0.0,0.0,1.628792,0.0,0.6863078,0.0,0.0,0.7273112,0.0,0.0,-0.0,0,0,0,0,0
318605086,0.0,0.0,1.6287377,0.0,0.6863276,0.0,0.0,0.72729254,0.0,0.0,-0.0,0,0,0,0,0
318630342,0.0,0.0,1.6287706,0.0,0.6863156,0.0,0.0,0.72730386,0.0,0.0,-0.0,0,0,0,0,0
318635298,0.0,0.0,1.6288185,0.0,0.6862982,0.0,0.0,0.7273203,0.0,0.0,-0.0,0,0,0,0,0
318640636,0.0,0.0,1.6287801,0.0,0.68631214,0.0,0.0,0.7273071,0.0,0.0,-0.0,0,0,0,0,0
318645287,0.0,0.0,1.6287472,0.0,0.6863241,0.0,0.0,0.7272958,0.0,0.0,-0.0,0,0,0,0,0
318650433,0.0,0.0,1.6287825,0.0,0.68631124,0.0,0.0,0.7273079,0.0,0.0,-0.0,0,0,0,0,0
318655422,0.0,0.0,1.6288087,0.0,0.6863017,0.0,0.0,0.7273169,0.0,0.0,-0.0,0,0,0,0,0
318660900,0.0,0.0,1.6287767,0.0,0.6863134,0.0,0.0,0.72730595,0.0,0.0,-0.0,0,0,0,0,0
318665930,0.0,0.0,1.6287572,0.0,0.6863205,0.0,0.0,0.7272993,0.0,0.0,-0.0,0,0,0,0,0
318670793,0.0,0.0,1.6287694,0.0,0.686316,0.0,0.0,0.72730345,0.0,0.0,-0.0,0,0,0,0,0
318675896,0.0,0.0,1.6287906,0.0,0.6863083,0.0,0.0,0.7273107,0.0,0.0,-0.0,0,0,0,0,0
318681101,0.0,0.0,1.6287732,0.0,0.68631464,0.0,0.0,0.72730476,0.0,0.0,-0.0,0,0,0,0,0
318685939,0.0,0.0,1.6287613,0.0,0.686319,0.0,0.0,0.7273007,0.0,0.0,-0.0,0,0,0,0,0
318691134,0.0,0.0,1.6287485,0.0,0.68632364,0.0,0.0,0.7272963,0.0,0.0,-0.0,0,0,0,0,0
318696138,0.0,0.0,1.6287591,0.0,0.68631977,0.0,0.0,0.7272999,0.0,0.0,-0.0,0,0,0,0,0
318701293,0.0,0.0,1.6287844,0.0,0.6863106,0.0,0.0,0.7273086,0.0,0.0,-0.0,0,0,0,0,0
318706244,0.0,0.0,1.6287612,0.0,0.686319,0.0,0.0,0.7273006,0.0,0.0,-0.0,0,0,0,0,0
318711465,0.0,0.0,1.6287273,0.0,0.68633133,0.0,0.0,0.727289,0.0,0.0,-0.0,0,0,0,0,0
318716469,0.0,0.0,1.6287543,0.0,0.68632156,0.0,0.0,0.72729826,0.0,0.0,-0.0,0,0,0,0,0
318721807,0.0,0.0,1.6288033,0.0,0.68630373,0.0,0.0,0.72731507,0.0,0.0,-0.0,0,0,0,0,0
318726517,0.0,0.0,1.6287689,0.0,0.6863162,0.0,0.0,0.7273033,0.0,0.0,-0.0,0,0,0,0,0
318731557,0.0,0.0,1.6287258,0.0,0.68633187,0.0,0.0,0.7272885,0.0,0.0,-0.0,0,0,0,0,0
318736608,0.0,0.0,1.6287814,0.0,0.68631166,0.0,0.0,0.72730756,0.0,0.0,-0.0,0,0,0,0,0
318742043,0.0,0.0,1.6288384,0.0,0.6862909,0.0,0.0,0.7273271,0.0,0.0,-0.0,0,0,0,0,0
318746783,0.0,0.0,1.6287711,0.0,0.6863154,0.0,0.0,0.727304,0.0,0.0,-0.0,0,0,0,0,0
318752001,0.0,0.0,1.6287341,0.0,0.6863289,0.0,0.0,0.72729135,0.0,0.0,-0.0,0,0,0,0,0
318757161,0.0,0.0,1.6288202,0.0,0.68629754,0.0,0.0,0.72732085,0.0,0.0,-0.0,0,0,0,0,0
318762576,0.0,0.0,1.6288428,0.0,0.6862893,0.0,0.0,0.72732866,0.0,0.0,-0.0,0,0,0,0,0
318767240,0.0,0.0,1.6287583,0.0,0.68632007,0.0,0.0,0.72729963,0.0,0.0,-0.0,0,0,0,0,0
318772329,0.0,0.0,1.6287444,0.0,0.68632513,0.0,0.0,0.7272948,0.0,0.0,-0.0,0,0,0,0,0
318777434,0.0,0.0,1.6288188,0.0,0.6862981,0.0,0.0,0.7273204,0.0,0.0,-0.0,0,0,0,0,0
318782516,0.0,0.0,1.6288296,0.0,0.68629414,0.0,0.0,0.7273241,0.0,0.0,-0.0,0,0,0,0,0
318787518,0.0,0.0,1.6287599,0.0,0.6863195,0.0,0.0,0.72730017,0.0,0.0,-0.0,0,0,0,0,0
318793073,0.0,0.0,1.6287718,0.0,0.6863152,0.0,0.0,0.7273043,0.0,0.0,-0.0,0,0,0,0,0
318797900,0.0,0.0,1.6288353,0.0,0.68629205,0.0,0.0,0.72732604,0.0,0.0,-0.0,0,0,0,0,0
318802785,0.0,0.0,1.6288109,0.0,0.68630093,0.0,0.0,0.7273177,0.0,0.0,-0.0,0,0,0,0,0
318807679,0.0,0.0,1.6287584,0.0,0.68632,0.0,0.0,0.7272997,0.0,0.0,-0.0,0,0,0,0,0
318812763,0.0,0.0,1.6288081,0.0,0.68630195,0.0,0.0,0.72731674,0.0,0.0,-0.0,0,0,0,0,0
318817805,0.0,0.0,1.628833,0.0,0.6862929,0.0,0.0,0.72732526,0.0,0.0,-0.0,0,0,0,0,0
318823326,0.0,0.0,1.6287824,0.0,0.6863113,0.0,0.0,0.7273079,0.0,0.0,-0.0,0,0,0,0,0
318828041,0.0,0.0,1.6287668,0.0,0.68631697,0.0,0.0,0.72730255,0.0,0.0,-0.0,0,0,0,0,0
318833214,0.0,0.0,1.6288178,0.0,0.68629843,0.0,0.0,0.72732,0.0,0.0,-0.0,0,0,0,0,0
318843276,0.0,0.0,1.6287676,0.0,0.68631667,0.0,0.0,0.72730285,0.0,0.0,-0.0,0,0,0,0,0
318848356,0.0,0.0,1.6288003,0.0,0.6863048,0.0,0.0,0.727314,0.0,0.0,-0.0,0,0,0,0,0
318853650,0.0,0.0,1.6288399,0.0,0.6862904,0.0,0.0,0.72732764,0.0,0.0,-0.0,0,0,0,0,0
318858490,0.0,0.0,1.6287909,0.0,0.6863082,0.0,0.0,0.72731084,0.0,0.0,-0.0,0,0,0,0,0
318863838,0.0,0.0,1.6287639,0.0,0.68631804,0.0,0.0,0.72730154,0.0,0.0,-0.0,0,0,0,0,0
318909200,0.0,0.0,1.6288145,0.0,0.6862996,0.0,0.0,0.7273189,0.0,0.0,-0.0,0,0,0,0,0
318914261,0.0,0.0,1.6288007,0.0,0.6863046,0.0,0.0,0.72731423,0.0,0.0,-0.0,0,0,0,0,0
318919733,0.0,0.0,1.6287603,0.0,0.68631935,0.0,0.0,0.72730035,0.0,0.0,-0.0,0,0,0,0,0
318924531,0.0,0.0,1.6287662,0.0,0.6863172,0.0,0.0,0.7273023,0.0,0.0,-0.0,0,0,0,0,0
318930107,0.0,0.0,1.6287817,0.0,0.68631154,0.0,0.0,0.7273077,0.0,0.0,-0.0,0,0,0,0,0
318949849,0.0,0.0,1.6287525,0.0,0.6863222,0.0,0.0,0.7272976,0.0,0.0,-0.0,0,0,0,0,0
318955145,0.0,0.0,1.6287805,0.0,0.686312,0.0,0.0,0.72730726,0.0,0.0,-0.0,0,0,0,0,0
318960475,0.0,0.0,1.6287874,0.0,0.68630946,0.0,0.0,0.72730964,0.0,0.0,-0.0,0,0,0,0,0
318965222,0.0,0.0,1.6287391,0.0,0.68632704,0.0,0.0,0.7272931,0.0,0.0,-0.0,0,0,0,0,0
318970210,0.0,0.0,1.6287364,0.0,0.68632805,0.0,0.0,0.72729206,0.0,0.0,-0.0,0,0,0,0,0
318975100,0.0,0.0,1.628804,0.0,0.68630344,0.0,0.0,0.7273153,0.0,0.0,-0.0,0,0,0,0,0
319026279,0.0,0.0,1.628719,0.0,0.6863344,0.0,0.0,0.72728616,0.0,0.0,-0.0,0,0,0,0,0
319031128,0.0,0.0,1.6287713,0.0,0.68631536,0.0,0.0,0.7273041,0.0,0.0,-0.0,0,0,0,0,0
319036117,0.0,0.0,1.6288276,0.0,0.68629485,0.0,0.0,0.7273234,0.0,0.0,-0.0,0,0,0,0,0
319041350,0.0,0.0,1.6287731,0.0,0.6863147,0.0,0.0,0.72730476,0.0,0.0,-0.0,0,0,0,0,0
319046420,0.0,0.0,1.6287293,0.0,0.6863306,0.0,0.0,0.7272897,0.0,0.0,-0.0,0,0,0,0,0
319051320,0.0,0.0,1.6287805,0.0,0.686312,0.0,0.0,0.72730726,0.0,0.0,-0.0,0,0,0,0,0
319056737,0.0,0.0,1.6288096,0.0,0.6863014,0.0,0.0,0.7273172,0.0,0.0,-0.0,0,0,0,0,0
319061899,0.0,0.0,1.6287541,0.0,0.68632156,0.0,0.0,0.7272982,0.0,0.0,-0.0,0,0,0,0,0
319066444,0.0,0.0,1.6287328,0.0,0.68632936,0.0,0.0,0.72729087,0.0,0.0,-0.0,0,0,0,0,0
319071673,0.0,0.0,1.6287893,0.0,0.6863088,0.0,0.0,0.7273103,0.0,0.0,-0.0,0,0,0,0,0
319076881,0.0,0.0,1.6287911,0.0,0.68630815,0.0,0.0,0.7273109,0.0,0.0,-0.0,0,0,0,0,0
319081956,0.0,0.0,1.6287444,0.0,0.68632513,0.0,0.0,0.7272948,0.0,0.0,-0.0,0,0,0,0,0
319086850,0.0,0.0,1.6287684,0.0,0.6863164,0.0,0.0,0.72730315,0.0,0.0,-0.0,0,0,0,0,0
319092179,0.0,0.0,1.6288037,0.0,0.68630356,0.0,0.0,0.72731525,0.0,0.0,-0.0,0,0,0,0,0
319097053,0.0,0.0,1.6287622,0.0,0.68631864,0.0,0.0,0.727301,0.0,0.0,-0.0,0,0,0,0,0
319102142,0.0,0.0,1.6287472,0.0,0.6863241,0.0,0.0,0.7272958,0.0,0.0,-0.0,0,0,0,0,0
319107183,0.0,0.0,1.6287867,0.0,0.68630975,0.0,0.0,0.72730935,0.0,0.0,-0.0,0,0,0,0,0
319112369,0.0,0.0,1.6287857,0.0,0.6863101,0.0,0.0,0.72730905,0.0,0.0,-0.0,0,0,0,0,0
319127874,0.0,0.0,1.6287872,0.0,0.6863096,0.0,0.0,0.7273095,0.0,0.0,-0.0,0,0,0,0,0
319132624,0.0,0.0,1.6287687,0.0,0.6863163,0.0,0.0,0.7273032,0.0,0.0,-0.0,0,0,0,0,0
319137795,0.0,0.0,1.6287342,0.0,0.6863288,0.0,0.0,0.7272914,0.0,0.0,-0.0,0,0,0,0,0
319142588,0.0,0.0,1.6287692,0.0,0.68631613,0.0,0.0,0.7273034,0.0,0.0,-0.0,0,0,0,0,0
319147649,0.0,0.0,1.6287761,0.0,0.6863136,0.0,0.0,0.72730577,0.0,0.0,-0.0,0,0,0,0,0
319152820,0.0,0.0,1.628757,0.0,0.68632054,0.0,0.0,0.7272992,0.0,0.0,-0.0,0,0,0,0,0
319157892,0.0,0.0,1.6287347,0.0,0.68632865,0.0,0.0,0.7272916,0.0,0.0,-0.0,0,0,0,0,0
319162992,0.0,0.0,1.6287456,0.0,0.6863247,0.0,0.0,0.7272953,0.0,0.0,-0.0,0,0,0,0,0
319168020,0.0,0.0,1.6287609,0.0,0.6863191,0.0,0.0,0.7273005,0.0,0.0,-0.0,0,0,0,0,0
319173147,0.0,0.0,1.6287549,0.0,0.6863213,0.0,0.0,0.72729844,0.0,0.0,-0.0,0,0,0,0,0
319178178,0.0,0.0,1.6287327,0.0,0.68632936,0.0,0.0,0.72729087,0.0,0.0,-0.0,0,0,0,0,0
319183335,0.0,0.0,1.6287388,0.0,0.68632716,0.0,0.0,0.72729295,0.0,0.0,-0.0,0,0,0,0,0
319188339,0.0,0.0,1.6287493,0.0,0.68632334,0.0,0.0,0.7272966,0.0,0.0,-0.0,0,0,0,0,0
319193412,0.0,0.0,1.6287545,0.0,0.68632144,0.0,0.0,0.7272983,0.0,0.0,-0.0,0,0,0,0,0
319198475,0.0,0.0,1.6287414,0.0,0.6863262,0.0,0.0,0.72729385,0.0,0.0,-0.0,0,0,0,0,0
319203811,0.0,0.0,1.6287127,0.0,0.68633664,0.0,0.0,0.727284,0.0,0.0,-0.0,0,0,0,0,0
319208726,0.0,0.0,1.6287379,0.0,0.68632746,0.0,0.0,0.72729266,0.0,0.0,-0.0,0,0,0,0,0
319213656,0.0,0.0,1.6287723,0.0,0.686315,0.0,0.0,0.72730446,0.0,0.0,-0.0,0,0,0,0,0
319228855,0.0,0.0,1.628741,0.0,0.6863263,0.0,0.0,0.7272937,0.0,0.0,-0.0,0,0,0,0,0
319234015,0.0,0.0,1.6287698,0.0,0.6863159,0.0,0.0,0.7273035,0.0,0.0,-0.0,0,0,0,0,0
319239439,0.0,0.0,1.6287044,0.0,0.6863397,0.0,0.0,0.72728115,0.0,0.0,-0.0,0,0,0,0,0
319244130,0.0,0.0,1.6286794,0.0,0.6863488,0.0,0.0,0.72727257,0.0,0.0,-0.0,0,0,0,0,0
319249562,0.0,0.0,1.6287404,0.0,0.68632656,0.0,0.0,0.7272935,0.0,0.0,-0.0,0,0,0,0,0
319254476,0.0,0.0,1.6287727,0.0,0.6863148,0.0,0.0,0.7273046,0.0,0.0,-0.0,0,0,0,0,0
319259943,0.0,0.0,1.6287131,0.0,0.6863365,0.0,0.0,0.72728413,0.0,0.0,-0.0,0,0,0,0,0
319264537,0.0,0.0,1.6286869,0.0,0.68634605,0.0,0.0,0.72727513,0.0,0.0,-0.0,0,0,0,0,0
319269574,0.0,0.0,1.6287541,0.0,0.68632156,0.0,0.0,0.7272982,0.0,0.0,-0.0,0,0,0,0,0
319274688,0.0,0.0,1.6287758,0.0,0.6863137,0.0,0.0,0.72730565,0.0,0.0,-0.0,0,0,0,0,0
319279897,0.0,0.0,1.628705,0.0,0.68633944,0.0,0.0,0.7272814,0.0,0.0,-0.0,0,0,0,0,0
319284934,0.0,0.0,1.6286875,0.0,0.6863458,0.0,0.0,0.7272753,0.0,0.0,-0.0,0,0,0,0,0
319290360,0.0,0.0,1.6287448,0.0,0.68632495,0.0,0.0,0.727295,0.0,0.0,-0.0,0,0,0,0,0
319294892,0.0,0.0,1.6287602,0.0,0.68631935,0.0,0.0,0.7273003,0.0,0.0,-0.0,0,0,0,0,0
319299922,0.0,0.0,1.628694,0.0,0.68634343,0.0,0.0,0.72727764,0.0,0.0,-0.0,0,0,0,0,0
319305017,0.0,0.0,1.6286951,0.0,0.686343,0.0,0.0,0.72727793,0.0,0.0,-0.0,0,0,0,0,0
319320259,0.0,0.0,1.628712,0.0,0.6863369,0.0,0.0,0.7272838,0.0,0.0,-0.0,0,0,0,0,0
319325748,0.0,0.0,1.6287131,0.0,0.6863365,0.0,0.0,0.72728413,0.0,0.0,-0.0,0,0,0,0,0
319330517,0.0,0.0,1.6287351,0.0,0.68632853,0.0,0.0,0.7272917,0.0,0.0,-0.0,0,0,0,0,0
319335584,0.0,0.0,1.6287346,0.0,0.6863287,0.0,0.0,0.7272915,0.0,0.0,-0.0,0,0,0,0,0
319340990,0.0,0.0,1.6287239,0.0,0.6863326,0.0,0.0,0.7272878,0.0,0.0,-0.0,0,0,0,0,0
319345639,0.0,0.0,1.628718,0.0,0.6863347,0.0,0.0,0.7272858,0.0,0.0,-0.0,0,0,0,0,0
319350781,0.0,0.0,1.6287309,0.0,0.68633,0.0,0.0,0.7272902,0.0,0.0,-0.0,0,0,0,0,0
319356101,0.0,0.0,1.6287322,0.0,0.68632954,0.0,0.0,0.7272907,0.0,0.0,-0.0,0,0,0,0,0
319361411,0.0,0.0,1.6287249,0.0,0.6863322,0.0,0.0,0.7272882,0.0,0.0,-0.0,0,0,0,0,0
319386229,0.0,0.0,1.6287261,0.0,0.68633175,0.0,0.0,0.7272886,0.0,0.0,-0.0,0,0,0,0,0
319391679,0.0,0.0,1.62872,0.0,0.68633395,0.0,0.0,0.72728646,0.0,0.0,-0.0,0,0,0,0,0
319396694,0.0,0.0,1.6287111,0.0,0.68633723,0.0,0.0,0.7272835,0.0,0.0,-0.0,0,0,0,0,0
319401476,0.0,0.0,1.6287158,0.0,0.68633556,0.0,0.0,0.727285,0.0,0.0,-0.0,0,0,0,0,0
319406498,0.0,0.0,1.6287222,0.0,0.6863332,0.0,0.0,0.7272873,0.0,0.0,-0.0,0,0,0,0,0
319411763,0.0,0.0,1.6287166,0.0,0.6863352,0.0,0.0,0.7272853,0.0,0.0,-0.0,0,0,0,0,0
319416993,0.0,0.0,1.6287212,0.0,0.68633354,0.0,0.0,0.72728693,0.0,0.0,-0.0,0,0,0,0,0
319421848,0.0,0.0,1.6287185,0.0,0.68633455,0.0,0.0,0.727286,0.0,0.0,-0.0,0,0,0,0,0
319431989,0.0,0.0,1.6287298,0.0,0.68633044,0.0,0.0,0.7272899,0.0,0.0,-0.0,0,0,0,0,0
319437115,0.0,0.0,1.6287026,0.0,0.68634033,0.0,0.0,0.72728056,0.0,0.0,-0.0,0,0,0,0,0
319442401,0.0,0.0,1.6287041,0.0,0.6863398,0.0,0.0,0.72728103,0.0,0.0,-0.0,0,0,0,0,0
319447320,0.0,0.0,1.628744,0.0,0.68632525,0.0,0.0,0.7272947,0.0,0.0,-0.0,0,0,0,0,0
319452373,0.0,0.0,1.6287304,0.0,0.6863302,0.0,0.0,0.72729003,0.0,0.0,-0.0,0,0,0,0,0
319457349,0.0,0.0,1.6286843,0.0,0.686347,0.0,0.0,0.72727424,0.0,0.0,-0.0,0,0,0,0,0
319462731,0.0,0.0,1.6286817,0.0,0.68634796,0.0,0.0,0.72727334,0.0,0.0,-0.0,0,0,0,0,0
319467326,0.0,0.0,1.6287161,0.0,0.68633544,0.0,0.0,0.72728515,0.0,0.0,-0.0,0,0,0,0,0
319472436,0.0,0.0,1.6287081,0.0,0.6863383,0.0,0.0,0.7272824,0.0,0.0,-0.0,0,0,0,0,0
319477502,0.0,0.0,1.6286677,0.0,0.686353,0.0,0.0,0.7272685,0.0,0.0,-0.0,0,0,0,0,0
319483032,0.0,0.0,1.6286807,0.0,0.68634826,0.0,0.0,0.727273,0.0,0.0,-0.0,0,0,0,0,0
319487843,0.0,0.0,1.6287389,0.0,0.6863271,0.0,0.0,0.727293,0.0,0.0,-0.0,0,0,0,0,0
319493337,0.0,0.0,1.6287242,0.0,0.68633246,0.0,0.0,0.72728795,0.0,0.0,-0.0,0,0,0,0,0
319498221,0.0,0.0,1.6286653,0.0,0.68635386,0.0,0.0,0.72726774,0.0,0.0,-0.0,0,0,0,0,0
319502951,0.0,0.0,1.6286845,0.0,0.6863469,0.0,0.0,0.72727436,0.0,0.0,-0.0,0,0,0,0,0
319508044,0.0,0.0,1.6287389,0.0,0.6863271,0.0,0.0,0.727293,0.0,0.0,-0.0,0,0,0,0,0
319538542,0.0,0.0,1.6286622,0.0,0.686355,0.0,0.0,0.72726667,0.0,0.0,-0.0,0,0,0,0,0
319543654,0.0,0.0,1.628674,0.0,0.6863507,0.0,0.0,0.7272707,0.0,0.0,-0.0,0,0,0,0,0
319548538,0.0,0.0,1.628714,0.0,0.68633616,0.0,0.0,0.72728443,0.0,0.0,-0.0,0,0,0,0,0
319553626,0.0,0.0,1.6287124,0.0,0.68633676,0.0,0.0,0.7272839,0.0,0.0,-0.0,0,0,0,0,0
319559164,0.0,0.0,1.6286614,0.0,0.6863553,0.0,0.0,0.7272664,0.0,0.0,-0.0,0,0,0,0,0
319563876,0.0,0.0,1.6286635,0.0,0.6863545,0.0,0.0,0.72726715,0.0,0.0,-0.0,0,0,0,0,0
319568893,0.0,0.0,1.6287171,0.0,0.6863351,0.0,0.0,0.7272855,0.0,0.0,-0.0,0,0,0,0,0
319574110,0.0,0.0,1.6287254,0.0,0.68633205,0.0,0.0,0.72728837,0.0,0.0,-0.0,0,0,0,0,0
319579147,0.0,0.0,1.628679,0.0,0.6863489,0.0,0.0,0.7272724,0.0,0.0,-0.0,0,0,0,0,0
319584198,0.0,0.0,1.6286681,0.0,0.68635285,0.0,0.0,0.72726864,0.0,0.0,-0.0,0,0,0,0,0
319589782,0.0,0.0,1.6287078,0.0,0.6863384,0.0,0.0,0.7272823,0.0,0.0,-0.0,0,0,0,0,0
319594368,0.0,0.0,1.628703,0.0,0.68634015,0.0,0.0,0.7272806,0.0,0.0,-0.0,0,0,0,0,0
319599393,0.0,0.0,1.628656,0.0,0.68635726,0.0,0.0,0.7272645,0.0,0.0,-0.0,0,0,0,0,0
319604498,0.0,0.0,1.6286534,0.0,0.6863582,0.0,0.0,0.7272636,0.0,0.0,-0.0,0,0,0,0,0
319609700,0.0,0.0,1.6286935,0.0,0.68634367,0.0,0.0,0.72727734,0.0,0.0,-0.0,0,0,0,0,0
319614815,0.0,0.0,1.6287003,0.0,0.68634117,0.0,0.0,0.7272797,0.0,0.0,-0.0,0,0,0,0,0
319619726,0.0,0.0,1.6286505,0.0,0.6863592,0.0,0.0,0.7272626,0.0,0.0,-0.0,0,0,0,0,0
319625127,0.0,0.0,1.6286606,0.0,0.6863556,0.0,0.0,0.72726613,0.0,0.0,-0.0,0,0,0,0,0
319629759,0.0,0.0,1.6287022,0.0,0.6863405,0.0,0.0,0.7272804,0.0,0.0,-0.0,0,0,0,0,0
319634843,0.0,0.0,1.6286879,0.0,0.6863457,0.0,0.0,0.7272755,0.0,0.0,-0.0,0,0,0,0,0
319640023,0.0,0.0,1.6286594,0.0,0.68635607,0.0,0.0,0.72726566,0.0,0.0,-0.0,0,0,0,0,0
319645077,0.0,0.0,1.6286731,0.0,0.68635106,0.0,0.0,0.72727036,0.0,0.0,-0.0,0,0,0,0,0
319650084,0.0,0.0,1.6287014,0.0,0.68634075,0.0,0.0,0.7272801,0.0,0.0,-0.0,0,0,0,0,0
319655515,0.0,0.0,1.6286731,0.0,0.68635106,0.0,0.0,0.72727036,0.0,0.0,-0.0,0,0,0,0,0
319660433,0.0,0.0,1.628666,0.0,0.6863536,0.0,0.0,0.727268,0.0,0.0,-0.0,0,0,0,0,0
319665416,0.0,0.0,1.6286867,0.0,0.6863461,0.0,0.0,0.727275,0.0,0.0,-0.0,0,0,0,0,0
319670403,0.0,0.0,1.628684,0.0,0.68634707,0.0,0.0,0.7272742,0.0,0.0,-0.0,0,0,0,0,0
319675475,0.0,0.0,1.6286623,0.0,0.68635494,0.0,0.0,0.72726667,0.0,0.0,-0.0,0,0,0,0,0
319680629,0.0,0.0,1.6286794,0.0,0.6863488,0.0,0.0,0.72727257,0.0,0.0,-0.0,0,0,0,0,0
319685651,0.0,0.0,1.628697,0.0,0.68634236,0.0,0.0,0.72727865,0.0,0.0,-0.0,0,0,0,0,0
319691136,0.0,0.0,1.6286702,0.0,0.6863521,0.0,0.0,0.7272694,0.0,0.0,-0.0,0,0,0,0,0
319695863,0.0,0.0,1.6286504,0.0,0.6863593,0.0,0.0,0.7272626,0.0,0.0,-0.0,0,0,0,0,0
319700984,0.0,0.0,1.6286836,0.0,0.68634725,0.0,0.0,0.727274,0.0,0.0,-0.0,0,0,0,0,0
319705921,0.0,0.0,1.6287026,0.0,0.68634033,0.0,0.0,0.72728056,0.0,0.0,-0.0,0,0,0,0,0
319711068,0.0,0.0,1.6286687,0.0,0.68635267,0.0,0.0,0.7272688,0.0,0.0,-0.0,0,0,0,0,0
319716067,0.0,0.0,1.6286503,0.0,0.68635935,0.0,0.0,0.72726256,0.0,0.0,-0.0,0,0,0,0,0
319721221,0.0,0.0,1.6286846,0.0,0.6863468,0.0,0.0,0.72727436,0.0,0.0,-0.0,0,0,0,0,0
319726558,0.0,0.0,1.6286957,0.0,0.68634284,0.0,0.0,0.7272782,0.0,0.0,-0.0,0,0,0,0,0
319731324,0.0,0.0,1.6286561,0.0,0.6863572,0.0,0.0,0.7272646,0.0,0.0,-0.0,0,0,0,0,0
319736428,0.0,0.0,1.6286559,0.0,0.6863573,0.0,0.0,0.7272645,0.0,0.0,-0.0,0,0,0,0,0
319741667,0.0,0.0,1.6286877,0.0,0.6863457,0.0,0.0,0.7272754,0.0,0.0,-0.0,0,0,0,0,0
319746613,0.0,0.0,1.6286985,0.0,0.6863418,0.0,0.0,0.7272791,0.0,0.0,-0.0,0,0,0,0,0
319751771,0.0,0.0,1.6286687,0.0,0.68635267,0.0,0.0,0.7272688,0.0,0.0,-0.0,0,0,0,0,0
319757198,0.0,0.0,1.6286597,0.0,0.68635595,0.0,0.0,0.72726583,0.0,0.0,-0.0,0,0,0,0,0
319797187,0.0,0.0,1.628678,0.0,0.6863493,0.0,0.0,0.72727203,0.0,0.0,-0.0,0,0,0,0,0
319802386,0.0,0.0,1.6286958,0.0,0.6863428,0.0,0.0,0.72727823,0.0,0.0,-0.0,0,0,0,0,0
319807390,0.0,0.0,1.6287338,0.0,0.686329,0.0,0.0,0.7272912,0.0,0.0,-0.0,0,0,0,0,0
319812491,0.0,0.0,1.628725,0.0,0.68633217,0.0,0.0,0.72728825,0.0,0.0,-0.0,0,0,0,0,0
319817644,0.0,0.0,1.6286674,0.0,0.68635315,0.0,0.0,0.72726846,0.0,0.0,-0.0,0,0,0,0,0
319822925,0.0,0.0,1.6286861,0.0,0.68634635,0.0,0.0,0.72727484,0.0,0.0,-0.0,0,0,0,0,0
319827710,0.0,0.0,1.6287534,0.0,0.68632185,0.0,0.0,0.72729796,0.0,0.0,-0.0,0,0,0,0,0
319832829,0.0,0.0,1.6287273,0.0,0.68633133,0.0,0.0,0.727289,0.0,0.0,-0.0,0,0,0,0,0
319837862,0.0,0.0,1.6286535,0.0,0.68635815,0.0,0.0,0.7272637,0.0,0.0,-0.0,0,0,0,0,0
319843045,0.0,0.0,1.6286895,0.0,0.6863451,0.0,0.0,0.727276,0.0,0.0,-0.0,0,0,0,0,0
319848109,0.0,0.0,1.6287673,0.0,0.68631685,0.0,0.0,0.7273027,0.0,0.0,-0.0,0,0,0,0,0
319853156,0.0,0.0,1.6287152,0.0,0.68633574,0.0,0.0,0.7272848,0.0,0.0,-0.0,0,0,0,0,0
319858709,0.0,0.0,1.6286541,0.0,0.686358,0.0,0.0,0.72726387,0.0,0.0,-0.0,0,0,0,0,0
319863284,0.0,0.0,1.6287075,0.0,0.68633854,0.0,0.0,0.7272822,0.0,0.0,-0.0,0,0,0,0,0
319868347,0.0,0.0,1.6287544,0.0,0.6863215,0.0,0.0,0.72729826,0.0,0.0,-0.0,0,0,0,0,0
319873304,0.0,0.0,1.6286994,0.0,0.68634146,0.0,0.0,0.7272794,0.0,0.0,-0.0,0,0,0,0,0
319878394,0.0,0.0,1.6286601,0.0,0.68635577,0.0,0.0,0.7272659,0.0,0.0,-0.0,0,0,0,0,0
319883468,0.0,0.0,1.6287174,0.0,0.6863349,0.0,0.0,0.7272856,0.0,0.0,-0.0,0,0,0,0,0
319898810,0.0,0.0,1.628677,0.0,0.68634963,0.0,0.0,0.72727174,0.0,0.0,-0.0,0,0,0,0,0
319903898,0.0,0.0,1.6287378,0.0,0.6863275,0.0,0.0,0.72729266,0.0,0.0,-0.0,0,0,0,0,0
319909023,0.0,0.0,1.6287255,0.0,0.686332,0.0,0.0,0.7272884,0.0,0.0,-0.0,0,0,0,0,0
319914035,0.0,0.0,1.6286788,0.0,0.686349,0.0,0.0,0.7272724,0.0,0.0,-0.0,0,0,0,0,0
319919189,0.0,0.0,1.6286951,0.0,0.686343,0.0,0.0,0.72727793,0.0,0.0,-0.0,0,0,0,0,0
319924527,0.0,0.0,1.6287236,0.0,0.6863327,0.0,0.0,0.72728777,0.0,0.0,-0.0,0,0,0,0,0
319929297,0.0,0.0,1.6286803,0.0,0.68634844,0.0,0.0,0.72727287,0.0,0.0,-0.0,0,0,0,0,0
319934350,0.0,0.0,1.6286799,0.0,0.68634856,0.0,0.0,0.72727275,0.0,0.0,-0.0,0,0,0,0,0
319939552,0.0,0.0,1.6287116,0.0,0.68633705,0.0,0.0,0.7272836,0.0,0.0,-0.0,0,0,0,0,0
319944590,0.0,0.0,1.6287053,0.0,0.6863394,0.0,0.0,0.72728145,0.0,0.0,-0.0,0,0,0,0,0
319949516,0.0,0.0,1.628672,0.0,0.6863514,0.0,0.0,0.72727007,0.0,0.0,-0.0,0,0,0,0,0
319954852,0.0,0.0,1.6286852,0.0,0.68634665,0.0,0.0,0.72727454,0.0,0.0,-0.0,0,0,0,0,0
319959609,0.0,0.0,1.6287193,0.0,0.68633425,0.0,0.0,0.7272863,0.0,0.0,-0.0,0,0,0,0,0
319964805,0.0,0.0,1.6286906,0.0,0.6863447,0.0,0.0,0.7272764,0.0,0.0,-0.0,0,0,0,0,0
319969824,0.0,0.0,1.6286521,0.0,0.6863587,0.0,0.0,0.7272632,0.0,0.0,-0.0,0,0,0,0,0
319974845,0.0,0.0,1.6286885,0.0,0.68634546,0.0,0.0,0.72727567,0.0,0.0,-0.0,0,0,0,0,0
319979895,0.0,0.0,1.6287159,0.0,0.6863355,0.0,0.0,0.72728515,0.0,0.0,-0.0,0,0,0,0,0
319985079,0.0,0.0,1.6286856,0.0,0.68634653,0.0,0.0,0.72727466,0.0,0.0,-0.0,0,0,0,0,0
319990307,0.0,0.0,1.6286633,0.0,0.68635464,0.0,0.0,0.727267,0.0,0.0,-0.0,0,0,0,0,0
319995247,0.0,0.0,1.6286962,0.0,0.68634266,0.0,0.0,0.7272783,0.0,0.0,-0.0,0,0,0,0,0
320000277,0.0,0.0,1.6287072,0.0,0.68633866,0.0,0.0,0.72728205,0.0,0.0,-0.0,0,0,0,0,0
320005316,0.0,0.0,1.6286862,0.0,0.6863463,0.0,0.0,0.7272749,0.0,0.0,-0.0,0,0,0,0,0
320010433,0.0,0.0,1.6286855,0.0,0.68634653,0.0,0.0,0.72727466,0.0,0.0,-0.0,0,0,0,0,0
320015482,0.0,0.0,1.6287016,0.0,0.6863407,0.0,0.0,0.7272802,0.0,0.0,-0.0,0,0,0,0,0
320020848,0.0,0.0,1.6286975,0.0,0.6863422,0.0,0.0,0.72727877,0.0,0.0,-0.0,0,0,0,0,0
320026084,0.0,0.0,1.6287049,0.0,0.6863395,0.0,0.0,0.7272813,0.0,0.0,-0.0,0,0,0,0,0
320030776,0.0,0.0,1.6287014,0.0,0.68634075,0.0,0.0,0.7272801,0.0,0.0,-0.0,0,0,0,0,0
320035678,0.0,0.0,1.6286833,0.0,0.68634737,0.0,0.0,0.7272739,0.0,0.0,-0.0,0,0,0,0,0
320040825,0.0,0.0,1.6287041,0.0,0.6863398,0.0,0.0,0.72728103,0.0,0.0,-0.0,0,0,0,0,0
320045917,0.0,0.0,1.628736,0.0,0.6863282,0.0,0.0,0.727292,0.0,0.0,-0.0,0,0,0,0,0
320051024,0.0,0.0,1.6286994,0.0,0.68634146,0.0,0.0,0.7272794,0.0,0.0,-0.0,0,0,0,0,0
320056037,0.0,0.0,1.6286614,0.0,0.6863553,0.0,0.0,0.7272664,0.0,0.0,-0.0,0,0,0,0,0
320061769,0.0,0.0,1.6287062,0.0,0.686339,0.0,0.0,0.72728175,0.0,0.0,-0.0,0,0,0,0,0
320066235,0.0,0.0,1.6287525,0.0,0.6863222,0.0,0.0,0.7272976,0.0,0.0,-0.0,0,0,0,0,0
320071478,0.0,0.0,1.628695,0.0,0.6863431,0.0,0.0,0.72727793,0.0,0.0,-0.0,0,0,0,0,0
320076489,0.0,0.0,1.6286411,0.0,0.6863627,0.0,0.0,0.72725946,0.0,0.0,-0.0,0,0,0,0,0
320081562,0.0,0.0,1.6287087,0.0,0.68633807,0.0,0.0,0.7272826,0.0,0.0,-0.0,0,0,0,0,0
320086543,0.0,0.0,1.6287515,0.0,0.6863225,0.0,0.0,0.7272973,0.0,0.0,-0.0,0,0,0,0,0
320091790,0.0,0.0,1.6286638,0.0,0.68635446,0.0,0.0,0.72726715,0.0,0.0,-0.0,0,0,0,0,0
320096867,0.0,0.0,1.6286302,0.0,0.6863667,0.0,0.0,0.7272557,0.0,0.0,-0.0,0,0,0,0,0
320101822,0.0,0.0,1.628734,0.0,0.6863289,0.0,0.0,0.7272913,0.0,0.0,-0.0,0,0,0,0,0
320106948,0.0,0.0,1.6287444,0.0,0.68632513,0.0,0.0,0.7272948,0.0,0.0,-0.0,0,0,0,0,0
320111939,0.0,0.0,1.6286471,0.0,0.6863605,0.0,0.0,0.7272615,0.0,0.0,-0.0,0,0,0,0,0
320117289,0.0,0.0,1.6286498,0.0,0.6863595,0.0,0.0,0.7272624,0.0,0.0,-0.0,0,0,0,0,0
320122041,0.0,0.0,1.6287441,0.0,0.6863252,0.0,0.0,0.7272948,0.0,0.0,-0.0,0,0,0,0,0
320127335,0.0,0.0,1.6287203,0.0,0.6863339,0.0,0.0,0.72728664,0.0,0.0,-0.0,0,0,0,0,0
320132216,0.0,0.0,1.6286446,0.0,0.68636143,0.0,0.0,0.7272606,0.0,0.0,-0.0,0,0,0,0,0
320137220,0.0,0.0,1.6286671,0.0,0.6863532,0.0,0.0,0.72726834,0.0,0.0,-0.0,0,0,0,0,0
320142521,0.0,0.0,1.6287254,0.0,0.68633205,0.0,0.0,0.72728837,0.0,0.0,-0.0,0,0,0,0,0
320147491,0.0,0.0,1.6286783,0.0,0.68634915,0.0,0.0,0.7272722,0.0,0.0,-0.0,0,0,0,0,0
320152576,0.0,0.0,1.6286261,0.0,0.6863681,0.0,0.0,0.7272543,0.0,0.0,-0.0,0,0,0,0,0
320157847,0.0,0.0,1.6286685,0.0,0.6863527,0.0,0.0,0.7272688,0.0,0.0,-0.0,0,0,0,0,0
320162668,0.0,0.0,1.6286914,0.0,0.6863444,0.0,0.0,0.7272767,0.0,0.0,-0.0,0,0,0,0,0
320167699,0.0,0.0,1.6286452,0.0,0.6863612,0.0,0.0,0.72726077,0.0,0.0,-0.0,0,0,0,0,0
320172870,0.0,0.0,1.628636,0.0,0.68636453,0.0,0.0,0.72725767,0.0,0.0,-0.0,0,0,0,0,0
320177868,0.0,0.0,1.628673,0.0,0.6863511,0.0,0.0,0.72727036,0.0,0.0,-0.0,0,0,0,0,0
320183277,0.0,0.0,1.6286656,0.0,0.6863538,0.0,0.0,0.7272678,0.0,0.0,-0.0,0,0,0,0,0
320203254,0.0,0.0,1.6286411,0.0,0.6863627,0.0,0.0,0.72725946,0.0,0.0,-0.0,0,0,0,0,0
320208214,0.0,0.0,1.6286345,0.0,0.6863651,0.0,0.0,0.72725713,0.0,0.0,-0.0,0,0,0,0,0
320213305,0.0,0.0,1.6286763,0.0,0.68634987,0.0,0.0,0.72727144,0.0,0.0,-0.0,0,0,0,0,0
320218404,0.0,0.0,1.6286604,0.0,0.68635565,0.0,0.0,0.727266,0.0,0.0,-0.0,0,0,0,0,0
320223969,0.0,0.0,1.628622,0.0,0.6863696,0.0,0.0,0.7272529,0.0,0.0,-0.0,0,0,0,0,0
320228681,0.0,0.0,1.628635,0.0,0.6863649,0.0,0.0,0.7272574,0.0,0.0,-0.0,0,0,0,0,0
320233717,0.0,0.0,1.628671,0.0,0.6863518,0.0,0.0,0.7272697,0.0,0.0,-0.0,0,0,0,0,0
320238811,0.0,0.0,1.6286501,0.0,0.6863594,0.0,0.0,0.7272625,0.0,0.0,-0.0,0,0,0,0,0
320243906,0.0,0.0,1.6286211,0.0,0.68636996,0.0,0.0,0.7272526,0.0,0.0,-0.0,0,0,0,0,0
320249002,0.0,0.0,1.6286376,0.0,0.686364,0.0,0.0,0.7272582,0.0,0.0,-0.0,0,0,0,0,0
320254167,0.0,0.0,1.6286613,0.0,0.68635535,0.0,0.0,0.7272664,0.0,0.0,-0.0,0,0,0,0,0
320259123,0.0,0.0,1.6286434,0.0,0.68636185,0.0,0.0,0.72726023,0.0,0.0,-0.0,0,0,0,0,0
320264723,0.0,0.0,1.6286374,0.0,0.68636405,0.0,0.0,0.72725815,0.0,0.0,-0.0,0,0,0,0,0
320269394,0.0,0.0,1.628651,0.0,0.6863591,0.0,0.0,0.72726285,0.0,0.0,-0.0,0,0,0,0,0
320274425,0.0,0.0,1.6286379,0.0,0.6863638,0.0,0.0,0.7272583,0.0,0.0,-0.0,0,0,0,0,0
320279389,0.0,0.0,1.6286479,0.0,0.6863602,0.0,0.0,0.7272618,0.0,0.0,-0.0,0,0,0,0,0
320284379,0.0,0.0,1.6286521,0.0,0.6863587,0.0,0.0,0.7272632,0.0,0.0,-0.0,0,0,0,0,0
320290027,0.0,0.0,1.6286374,0.0,0.68636405,0.0,0.0,0.72725815,0.0,0.0,-0.0,0,0,0,0,0
320304711,0.0,0.0,1.6286715,0.0,0.68635166,0.0,0.0,0.7272698,0.0,0.0,-0.0,0,0,0,0,0
320309862,0.0,0.0,1.6285989,0.0,0.686378,0.0,0.0,0.7272449,0.0,0.0,-0.0,0,0,0,0,0
320314906,0.0,0.0,1.6285967,0.0,0.68637884,0.0,0.0,0.7272442,0.0,0.0,-0.0,0,0,0,0,0
320319948,0.0,0.0,1.6286744,0.0,0.6863506,0.0,0.0,0.72727084,0.0,0.0,-0.0,0,0,0,0,0
320325538,0.0,0.0,1.628661,0.0,0.6863555,0.0,0.0,0.72726625,0.0,0.0,-0.0,0,0,0,0,0
320330214,0.0,0.0,1.6285714,0.0,0.686388,0.0,0.0,0.72723544,0.0,0.0,-0.0,0,0,0,0,0
320335168,0.0,0.0,1.6286004,0.0,0.6863775,0.0,0.0,0.72724545,0.0,0.0,-0.0,0,0,0,0,0
320340315,0.0,0.0,1.6286768,0.0,0.6863497,0.0,0.0,0.7272717,0.0,0.0,-0.0,0,0,0,0,0
320345334,0.0,0.0,1.6286392,0.0,0.68636334,0.0,0.0,0.7272588,0.0,0.0,-0.0,0,0,0,0,0
320350578,0.0,0.0,1.6285555,0.0,0.6863938,0.0,0.0,0.7272301,0.0,0.0,-0.0,0,0,0,0,0
320355877,0.0,0.0,1.6286043,0.0,0.6863761,0.0,0.0,0.7272468,0.0,0.0,-0.0,0,0,0,0,0
320360685,0.0,0.0,1.6286863,0.0,0.68634623,0.0,0.0,0.72727495,0.0,0.0,-0.0,0,0,0,0,0
320365573,0.0,0.0,1.628628,0.0,0.68636745,0.0,0.0,0.7272549,0.0,0.0,-0.0,0,0,0,0,0
320370872,0.0,0.0,1.6285521,0.0,0.68639505,0.0,0.0,0.7272289,0.0,0.0,-0.0,0,0,0,0,0
320375798,0.0,0.0,1.6286122,0.0,0.68637323,0.0,0.0,0.7272495,0.0,0.0,-0.0,0,0,0,0,0
320380904,0.0,0.0,1.6286683,0.0,0.6863528,0.0,0.0,0.72726876,0.0,0.0,-0.0,0,0,0,0,0
320385875,0.0,0.0,1.6285969,0.0,0.6863788,0.0,0.0,0.72724426,0.0,0.0,-0.0,0,0,0,0,0
320391104,0.0,0.0,1.628554,0.0,0.68639433,0.0,0.0,0.72722954,0.0,0.0,-0.0,0,0,0,0,0
320396072,0.0,0.0,1.6286159,0.0,0.68637186,0.0,0.0,0.72725075,0.0,0.0,-0.0,0,0,0,0,0
320401479,0.0,0.0,1.6286367,0.0,0.6863643,0.0,0.0,0.72725797,0.0,0.0,-0.0,0,0,0,0,0
320406290,0.0,0.0,1.628582,0.0,0.6863842,0.0,0.0,0.72723913,0.0,0.0,-0.0,0,0,0,0,0
320411382,0.0,0.0,1.6285751,0.0,0.6863867,0.0,0.0,0.72723675,0.0,0.0,-0.0,0,0,0,0,0
320416453,0.0,0.0,1.6286194,0.0,0.68637055,0.0,0.0,0.727252,0.0,0.0,-0.0,0,0,0,0,0
320421789,0.0,0.0,1.6285983,0.0,0.68637824,0.0,0.0,0.72724473,0.0,0.0,-0.0,0,0,0,0,0
320427069,0.0,0.0,1.6285812,0.0,0.6863845,0.0,0.0,0.72723883,0.0,0.0,-0.0,0,0,0,0,0
320431813,0.0,0.0,1.628592,0.0,0.6863805,0.0,0.0,0.7272426,0.0,0.0,-0.0,0,0,0,0,0
320436708,0.0,0.0,1.6285927,0.0,0.68638027,0.0,0.0,0.7272428,0.0,0.0,-0.0,0,0,0,0,0
320441781,0.0,0.0,1.6285821,0.0,0.68638414,0.0,0.0,0.7272392,0.0,0.0,-0.0,0,0,0,0,0
320446717,0.0,0.0,1.6285846,0.0,0.68638325,0.0,0.0,0.72724,0.0,0.0,-0.0,0,0,0,0,0
320451892,0.0,0.0,1.6285945,0.0,0.6863796,0.0,0.0,0.7272434,0.0,0.0,-0.0,0,0,0,0,0
320456848,0.0,0.0,1.6285791,0.0,0.6863852,0.0,0.0,0.7272382,0.0,0.0,-0.0,0,0,0,0,0
320462365,0.0,0.0,1.6285644,0.0,0.6863906,0.0,0.0,0.7272331,0.0,0.0,-0.0,0,0,0,0,0
320467073,0.0,0.0,1.6285826,0.0,0.68638396,0.0,0.0,0.7272394,0.0,0.0,-0.0,0,0,0,0,0
320472150,0.0,0.0,1.6285807,0.0,0.6863847,0.0,0.0,0.72723866,0.0,0.0,-0.0,0,0,0,0,0
320477375,0.0,0.0,1.628553,0.0,0.6863947,0.0,0.0,0.7272292,0.0,0.0,-0.0,0,0,0,0,0
320482349,0.0,0.0,1.6285455,0.0,0.68639743,0.0,0.0,0.7272266,0.0,0.0,-0.0,0,0,0,0,0
320487434,0.0,0.0,1.628569,0.0,0.6863889,0.0,0.0,0.7272347,0.0,0.0,-0.0,0,0,0,0,0
320493024,0.0,0.0,1.6285603,0.0,0.68639207,0.0,0.0,0.7272317,0.0,0.0,-0.0,0,0,0,0,0
320497838,0.0,0.0,1.6285447,0.0,0.68639773,0.0,0.0,0.7272263,0.0,0.0,-0.0,0,0,0,0,0
320502785,0.0,0.0,1.6285548,0.0,0.6863941,0.0,0.0,0.72722983,0.0,0.0,-0.0,0,0,0,0,0
320507715,0.0,0.0,1.6285583,0.0,0.6863928,0.0,0.0,0.72723097,0.0,0.0,-0.0,0,0,0,0,0
320512926,0.0,0.0,1.6285406,0.0,0.6863992,0.0,0.0,0.72722495,0.0,0.0,-0.0,0,0,0,0,0
320517948,0.0,0.0,1.6285565,0.0,0.68639344,0.0,0.0,0.72723037,0.0,0.0,-0.0,0,0,0,0,0
320523261,0.0,0.0,1.628561,0.0,0.68639183,0.0,0.0,0.7272319,0.0,0.0,-0.0,0,0,0,0,0
320527976,0.0,0.0,1.6285322,0.0,0.6864023,0.0,0.0,0.727222,0.0,0.0,-0.0,0,0,0,0,0
320533103,0.0,0.0,1.6285402,0.0,0.6863994,0.0,0.0,0.72722477,0.0,0.0,-0.0,0,0,0,0,0
320538527,0.0,0.0,1.6285716,0.0,0.68638796,0.0,0.0,0.72723556,0.0,0.0,-0.0,0,0,0,0,0
320543190,0.0,0.0,1.6285557,0.0,0.68639374,0.0,0.0,0.72723013,0.0,0.0,-0.0,0,0,0,0,0
320548275,0.0,0.0,1.6285186,0.0,0.6864072,0.0,0.0,0.7272174,0.0,0.0,-0.0,0,0,0,0,0
320553523,0.0,0.0,1.6285529,0.0,0.68639475,0.0,0.0,0.7272292,0.0,0.0,-0.0,0,0,0,0,0
320558791,0.0,0.0,1.6285815,0.0,0.6863843,0.0,0.0,0.72723895,0.0,0.0,-0.0,0,0,0,0,0
320563575,0.0,0.0,1.6285392,0.0,0.68639976,0.0,0.0,0.72722447,0.0,0.0,-0.0,0,0,0,0,0
320583869,0.0,0.0,1.6285306,0.0,0.68640286,0.0,0.0,0.7272215,0.0,0.0,-0.0,0,0,0,0,0
320589066,0.0,0.0,1.6285012,0.0,0.6864136,0.0,0.0,0.72721136,0.0,0.0,-0.0,0,0,0,0,0
320594470,0.0,0.0,1.6285735,0.0,0.68638724,0.0,0.0,0.7272362,0.0,0.0,-0.0,0,0,0,0,0
320599565,0.0,0.0,1.6286008,0.0,0.68637735,0.0,0.0,0.72724557,0.0,0.0,-0.0,0,0,0,0,0
320604198,0.0,0.0,1.6285186,0.0,0.6864072,0.0,0.0,0.7272174,0.0,0.0,-0.0,0,0,0,0,0
320609140,0.0,0.0,1.6285025,0.0,0.6864131,0.0,0.0,0.72721183,0.0,0.0,-0.0,0,0,0,0,0
320614226,0.0,0.0,1.6285895,0.0,0.68638146,0.0,0.0,0.7272417,0.0,0.0,-0.0,0,0,0,0,0
320619527,0.0,0.0,1.6285875,0.0,0.6863822,0.0,0.0,0.727241,0.0,0.0,-0.0,0,0,0,0,0
320624932,0.0,0.0,1.6285156,0.0,0.68640834,0.0,0.0,0.72721636,0.0,0.0,-0.0,0,0,0,0,0
320629666,0.0,0.0,1.6285166,0.0,0.686408,0.0,0.0,0.7272167,0.0,0.0,-0.0,0,0,0,0,0
320639954,0.0,0.0,1.6285818,0.0,0.68638426,0.0,0.0,0.727239,0.0,0.0,-0.0,0,0,0,0,0
320644755,0.0,0.0,1.6285267,0.0,0.6864043,0.0,0.0,0.7272202,0.0,0.0,-0.0,0,0,0,0,0
320649836,0.0,0.0,1.6285222,0.0,0.68640596,0.0,0.0,0.72721857,0.0,0.0,-0.0,0,0,0,0,0
320655252,0.0,0.0,1.6285743,0.0,0.686387,0.0,0.0,0.72723645,0.0,0.0,-0.0,0,0,0,0,0
320660312,0.0,0.0,1.6285638,0.0,0.6863908,0.0,0.0,0.7272328,0.0,0.0,-0.0,0,0,0,0,0
320664994,0.0,0.0,1.6285261,0.0,0.6864045,0.0,0.0,0.72722,0.0,0.0,-0.0,0,0,0,0,0
320670110,0.0,0.0,1.6285216,0.0,0.68640614,0.0,0.0,0.7272184,0.0,0.0,-0.0,0,0,0,0,0
320675326,0.0,0.0,1.6285499,0.0,0.6863958,0.0,0.0,0.72722816,0.0,0.0,-0.0,0,0,0,0,0
320710687,0.0,0.0,1.6285225,0.0,0.6864058,0.0,0.0,0.7272187,0.0,0.0,-0.0,0,0,0,0,0
320715727,0.0,0.0,1.6285336,0.0,0.6864018,0.0,0.0,0.7272225,0.0,0.0,-0.0,0,0,0,0,0
320721018,0.0,0.0,1.6285492,0.0,0.6863961,0.0,0.0,0.72722787,0.0,0.0,-0.0,0,0,0,0,0
320726327,0.0,0.0,1.6285405,0.0,0.6863993,0.0,0.0,0.72722495,0.0,0.0,-0.0,0,0,0,0,0
320731135,0.0,0.0,1.6285293,0.0,0.68640333,0.0,0.0,0.727221,0.0,0.0,-0.0,0,0,0,0,0
320736501,0.0,0.0,1.6285391,0.0,0.68639976,0.0,0.0,0.7272244,0.0,0.0,-0.0,0,0,0,0,0
320741214,0.0,0.0,1.6285399,0.0,0.68639946,0.0,0.0,0.72722465,0.0,0.0,-0.0,0,0,0,0,0
320746320,0.0,0.0,1.6285266,0.0,0.68640435,0.0,0.0,0.72722006,0.0,0.0,-0.0,0,0,0,0,0
320751448,0.0,0.0,1.6285251,0.0,0.6864048,0.0,0.0,0.72721964,0.0,0.0,-0.0,0,0,0,0,0
320756925,0.0,0.0,1.6285298,0.0,0.68640316,0.0,0.0,0.7272212,0.0,0.0,-0.0,0,0,0,0,0
320761618,0.0,0.0,1.6285272,0.0,0.6864041,0.0,0.0,0.72722036,0.0,0.0,-0.0,0,0,0,0,0
320766529,0.0,0.0,1.6285311,0.0,0.6864027,0.0,0.0,0.72722167,0.0,0.0,-0.0,0,0,0,0,0
320771643,0.0,0.0,1.6285384,0.0,0.68640006,0.0,0.0,0.7272242,0.0,0.0,-0.0,0,0,0,0,0
320776896,0.0,0.0,1.6285335,0.0,0.68640184,0.0,0.0,0.7272225,0.0,0.0,-0.0,0,0,0,0,0
320785994,0.0,-0.0,1.6285051,0.0,0.6864121,0.0,0.0,0.72721285,0.0,0.0,-0.001,0,0,0,0,0
321811072,0.0,-0.0,1.6283689,0.0,0.6864617,0.0,0.0,0.72716594,0.0,0.0,-0.001,0,0,0,0,0
321831449,0.0,-0.0,1.628361,0.0,0.68646455,0.0,0.0,0.7271633,0.0,0.0,-0.001,0,0,0,0,0
321851665,0.0,-0.0,1.6283444,0.0,0.68647057,0.0,0.0,0.72715765,0.0,0.0,-0.001,0,0,0,0,0
321871960,0.0,-0.0,1.6283178,0.0,0.6864802,0.0,0.0,0.7271485,0.0,0.0,-0.001,0,0,0,0,0
321892259,0.0,-0.0,1.6283027,0.0,0.6864857,0.0,0.0,0.72714335,0.0,0.0,-0.001,0,0,0,0,0
321912610,0.0,-0.0,1.6282935,0.0,0.68648905,0.0,0.0,0.7271401,0.0,0.0,-0.001,0,0,0,0,0
321932843,-0.002818464,0.00053076097,1.5707964,0.0,0.70710576,-0.0011841292,-0.00080882484,0.70710635,0.0,0.0,-0.0010000002,0,0,0,0,0
322085079,-0.0019337449,0.00088914926,1.5707964,0.0,0.70710605,-0.0009980435,-0.00036932027,0.7071067,0.0,0.0,-0.043904055,0,0,0,0,0
322105371,-0.001960438,0.0004580392,1.5707964,0.0,0.70710623,-0.0008550606,-0.0005311782,0.70710665,0.0,0.0,-0.05582482,0,0,0,0,0
322125681,-0.0023106753,0.00015874258,1.5707964,0.0,0.70710623,-0.0008730709,-0.000760823,0.70710635,0.0,0.0,-0.06744872,0,0,0,0,0
322146184,-0.0016307763,0.00056639395,1.5707964,0.0,0.70710635,-0.00077681686,-0.00037631602,0.7071067,0.0,0.0,-0.08025751,0,0,0,0,0
322171340,-0.0024128386,0.00078454847,1.5707964,0.0,0.7071059,-0.0011304464,-0.0005756874,0.7071066,0.0,0.0,-0.09672016,0,0,0,0,0
322293135,-0.0017147929,-0.00019929472,1.5707964,0.0,0.70710653,-0.0005358094,-0.00067673204,0.70710653,0.0,0.0,-0.17363633,0,0,0,0,0
322313666,-0.0016498229,0.00014106472,1.5707964,0.0,0.7071065,-0.00063317426,-0.0005334265,0.7071066,0.0,0.0,-0.1851129,0,0,0,0,0
322333727,-0.0017246337,7.662346e-05,1.5707964,0.0,0.7071065,-0.0006368405,-0.0005826596,0.7071066,0.0,0.0,-0.19857186,0,0,0,0,0
322374328,-0.0011963487,0.000689999,1.5707964,0.0,0.7071065,-0.0006669244,-0.0001790216,0.7071067,0.0,0.0,-0.22324315,0,0,0,0,0
322526554,-0.002995247,-0.0027781,1.5707964,0.0,0.70710677,-7.677295e-05,-0.0020411834,0.70710385,0.0,0.0,-0.2497686,0,0,0,0,0
322546858,-0.004982538,-0.0034310024,1.5707964,0.0,0.7071066,-0.00054855074,-0.0029746268,0.7071006,0.0,0.0,-0.24765791,0,0,0,0,0
322567231,-0.004480884,-0.0076317163,1.5707964,0.0,0.7071059,0.0011139871,-0.0042824247,0.70709383,0.0,0.0,-0.24882075,0,0,0,0,0
322587455,-0.005129853,-0.0068207295,1.5707964,0.0,0.70710653,0.00059781503,-0.004225143,0.70709413,0.0,0.0,-0.24855383,0,0,0,0,0
322607744,-0.00016958817,-0.010333621,1.5707964,0.0,0.70709765,0.0035935126,-0.0037134278,0.707097,0.0,0.0,-0.25599965,0,0,0,0,0
322688947,-0.005809904,-0.0077347085,1.5707964,0.0,0.7071065,0.0006805211,-0.0047887065,0.70709056,0.0,0.0,-0.2942028,0,0,0,0,0
322709236,-0.00025582808,-0.003172909,1.5707964,0.0,0.707106,0.0010313435,-0.001212241,0.70710576,0.0,0.0,-0.2971379,0,0,0,0,0
322749844,-0.0021997662,-0.004598778,1.5707964,0.0,0.70710623,0.00084817846,-0.0024036437,0.7071028,0.0,0.0,-0.2953367,0,0,0,0,0
322770138,-0.004853275,-0.0056143496,1.5707964,0.0,0.7071067,0.00026908048,-0.0037008473,0.7070971,0.0,0.0,-0.29902962,0,0,0,0,0
322790428,-0.0054660444,-0.0038037505,1.5707964,0.0,0.70710653,-0.0005877096,-0.0032773556,0.70709926,0.0,0.0,-0.3039842,0,0,0,0,0
322887101,-0.001128778,-0.007822525,1.5707964,0.0,0.70710284,0.002366592,-0.0031647524,0.70709974,0.0,0.0,-0.31799728,0,0,0,0,0
322907142,-0.004425251,-0.007256637,1.5707964,0.0,0.70710605,0.0010010458,-0.0041301474,0.7070947,0.0,0.0,-0.31890103,0,0,0,0,0
323028936,-0.0035564632,-0.009251013,1.5707964,0.0,0.7071039,0.0020133245,-0.0045280955,0.7070923,0.0,0.0,-0.3257637,0,0,0,0,0
323049493,-0.0010682407,-0.010480639,1.5707964,0.0,0.70709896,0.0033277727,-0.0040831226,0.70709497,0.0,0.0,-0.32722837,0,0,0,0,0
323130633,-0.0020052793,-0.012454942,1.5707964,0.0,0.7070971,0.0036944966,-0.005112415,0.7070883,0.0,0.0,-0.28699455,0,0,0,0,0
323150736,0.00078012655,-0.014318905,1.5707964,0.0,0.7070866,0.005338263,-0.004786644,0.70709056,0.0,0.0,-0.27540112,0,0,0,0,0
323171021,0.00014249596,-0.0136668775,1.5707964,0.0,0.7070899,0.0048823124,-0.004781554,0.7070907,0.0,0.0,-0.27637997,0,0,0,0,0
323252208,0.0018701141,-0.00978191,1.5707964,0.0,0.7070948,0.0041195885,-0.0027972346,0.7071013,0.0,0.0,-0.28644875,0,0,0,0,0
323272503,0.0006998174,-0.012337719,1.5707964,0.0,0.70709175,0.004609432,-0.004114596,0.7070948,0.0,0.0,-0.2901958,0,0,0,0,0
323394288,0.00025705717,-0.010733612,1.5707964,0.0,0.7070961,0.0038857686,-0.0037040045,0.7070971,0.0,0.0,-0.28994375,0,0,0,0,0
323414595,0.001936205,-0.00892739,1.5707964,0.0,0.70709634,0.0038408418,-0.002471752,0.7071025,0.0,0.0,-0.2907274,0,0,0,0,0
323526223,0.0024641575,-0.0074777817,1.5707964,0.0,0.707098,0.0035149916,-0.001772582,0.7071046,0.0,0.0,-0.2931075,0,0,0,0,0
323551686,0.00095717964,-0.004923112,1.5707964,0.0,0.7071037,0.0020789937,-0.0014021677,0.7071054,0.0,0.0,-0.29316333,0,0,0,0,0
323612491,0.0024048716,-0.0014437499,1.5707964,0.0,0.70710546,0.0013606923,0.00033980783,0.7071067,0.0,0.0,-0.30043033,0,0,0,0,0
323632880,-0.0005995339,0.0019829515,1.5707964,0.0,0.7071062,-0.0009130461,0.00048911193,0.70710665,0.0,0.0,-0.29953665,0,0,0,0,0
323734290,0.0011215376,0.006491111,1.5707964,0.0,0.7071042,-0.0018984283,0.0026914713,0.70710176,0.0,0.0,-0.2994178,0,0,0,0,0
323754581,0.002708869,0.0061709834,1.5707964,0.0,0.7071057,-0.0012240417,0.0031394914,0.70709985,0.0,0.0,-0.3017638,0,0,0,0,0
323774872,0.002010159,0.007820945,1.5707964,0.0,0.7071038,-0.00205442,0.003475806,0.7070982,0.0,0.0,-0.3033885,0,0,0,0,0
323825630,0.00016738026,0.0077108834,1.5707964,0.0,0.7071017,-0.0026670245,0.0027853798,0.70710135,0.0,0.0,-0.30504012,0,0,0,0,0
323845921,0.0042804102,0.010434386,1.5707964,0.0,0.70710343,-0.0021757556,0.0052024187,0.70708764,0.0,0.0,-0.3045799,0,0,0,0,0
323866479,0.0005210874,0.008219425,1.5707964,0.0,0.7071015,-0.0027217667,0.0030902277,0.70710003,0.0,0.0,-0.30879083,0,0,0,0,0
323947630,0.0031067529,0.012784484,1.5707964,0.0,0.7070985,-0.0034215811,0.0056183413,0.7070845,0.0,0.0,-0.30686527,0,0,0,0,0
323967702,0.0021094817,0.012665665,1.5707964,0.0,0.70709693,-0.0037321567,0.005223755,0.70708746,0.0,0.0,-0.30717313,0,0,0,0,0
324028857,0.0031971,0.01215947,1.5707964,0.0,0.7070997,-0.003168665,0.005429313,0.70708597,0.0,0.0,-0.30977023,0,0,0,0,0
324048892,7.279784e-05,0.0155408345,1.5707964,0.0,0.7070856,-0.005468722,0.005520196,0.70708525,0.0,0.0,-0.30885822,0,0,0,0,0
324069189,0.0030714113,0.015525177,1.5707964,0.0,0.70709306,-0.0044030426,0.0065747914,0.70707625,0.0,0.0,-0.3104062,0,0,0,0,0
324226500,-0.00014487666,0.018998832,1.5707964,0.0,0.70707434,-0.0067682196,0.00666578,0.7070755,0.0,0.0,-0.31050855,0,0,0,0,0
324246799,-0.0008595505,0.02089917,1.5707964,0.0,0.7070649,-0.007692717,0.007084956,0.70707124,0.0,0.0,-0.30905762,0,0,0,0,0
324348286,0.00040917084,0.019566916,1.5707964,0.0,0.70707434,-0.0067731817,0.007062495,0.7070715,0.0,0.0,-0.31056827,0,0,0,0,0
324368658,-0.0012300671,0.018773118,1.5707964,0.0,0.70707136,-0.007072076,0.0062023257,0.70707965,0.0,0.0,-0.31180653,0,0,0,0,0
324388878,-0.0026661383,0.02338555,1.5707964,0.0,0.7070468,-0.009210402,0.007325287,0.7070688,0.0,0.0,-0.31066513,0,0,0,0,0
324531089,-0.0015346239,0.019714575,1.5707964,0.0,0.70706683,-0.0075125834,0.0064274943,0.7070776,0.0,0.0,-0.3148603,0,0,0,0,0
324551280,-0.0027169595,0.020842865,1.5707964,0.0,0.7070577,-0.008329463,0.0064083873,0.70707774,0.0,0.0,-0.31314513,0,0,0,0,0
324571559,-0.0016857873,0.016695429,1.5707964,0.0,0.7070769,-0.0064986497,0.0053066597,0.70708686,0.0,0.0,-0.31160778,0,0,0,0,0
324591856,-0.0046405583,0.019333364,1.5707964,0.0,0.7070559,-0.008475858,0.0051946444,0.7070878,0.0,0.0,-0.31096599,0,0,0,0,0
324612264,-0.0023699699,0.01610935,1.5707964,0.0,0.70707655,-0.0065333317,0.0048575657,0.70709014,0.0,0.0,-0.3079827,0,0,0,0,0
324632446,-0.0026296054,0.020046663,1.5707964,0.0,0.7070613,-0.008017099,0.006157782,0.70708,0.0,0.0,-0.30916122,0,0,0,0,0
324652749,-0.001718518,0.019206049,1.5707964,0.0,0.7070681,-0.007397816,0.0061826967,0.70707977,0.0,0.0,-0.31056303,0,0,0,0,0
324673043,-0.0040702773,0.015848793,1.5707964,0.0,0.7070717,-0.0070423377,0.0041643097,0.70709455,0.0,0.0,-0.31454894,0,0,0,0,0
324693439,-0.002863458,0.018632635,1.5707964,0.0,0.7070659,-0.0075998697,0.0055751884,0.70708483,0.0,0.0,-0.30957985,0,0,0,0,0
324733930,-0.0045062145,0.015551291,1.5707964,0.0,0.7070712,-0.00709128,0.0039050046,0.707096,0.0,0.0,-0.3091729,0,0,0,0,0
324754230,-0.0046314606,0.016297681,1.5707964,0.0,0.707068,-0.007399434,0.0041246084,0.7070948,0.0,0.0,-0.3089456,0,0,0,0,0
324789754,-0.0027945843,0.014804381,1.5707964,0.0,0.7070794,-0.0062220925,0.0042460784,0.707094,0.0,0.0,-0.31372094,0,0,0,0,0
324810046,-0.0033464555,0.014846893,1.5707964,0.0,0.7070775,-0.0064322315,0.004065996,0.70709515,0.0,0.0,-0.3127943,0,0,0,0,0
324830348,-0.004017032,0.015004974,1.5707964,0.0,0.70707476,-0.006725192,0.0038848044,0.70709616,0.0,0.0,-0.31219497,0,0,0,0,0
324850910,-0.0009686782,0.0149551425,1.5707964,0.0,0.70708436,-0.005629861,0.004944921,0.7070895,0.0,0.0,-0.30698475,0,0,0,0,0
324870941,-0.0026513403,0.0139141455,1.5707964,0.0,0.7070825,-0.005856717,0.003981982,0.7070956,0.0,0.0,-0.30862835,0,0,0,0,0
324891238,-0.003802704,0.013709892,1.5707964,0.0,0.70707965,-0.006191558,0.0035027054,0.7070981,0.0,0.0,-0.3108541,0,0,0,0,0
324911559,-0.00326123,0.012337222,1.5707964,0.0,0.70708525,-0.0055148285,0.0032088365,0.70709956,0.0,0.0,-0.31060997,0,0,0,0,0
324932075,-0.0031216552,0.010536406,1.5707964,0.0,0.70709026,-0.0048288163,0.0026215042,0.70710194,0.0,0.0,-0.3134365,0,0,0,0,0
324952134,-0.0045404974,0.010989476,1.5707964,0.0,0.70708543,-0.005490619,0.0022800541,0.70710313,0.0,0.0,-0.31063285,0,0,0,0,0
324972429,-0.002123806,0.008844286,1.5707964,0.0,0.7070961,-0.0038777865,0.002376044,0.70710284,0.0,0.0,-0.30836475,0,0,0,0,0
324992726,-0.0052686604,0.007813664,1.5707964,0.0,0.7070916,-0.004625268,0.0008997944,0.70710623,0.0,0.0,-0.30953723,0,0,0,0,0
325033319,-0.0037501636,0.00594048,1.5707964,0.0,0.7070985,-0.0034261465,0.0007743935,0.70710635,0.0,0.0,-0.3146415,0,0,0,0,0
325053622,-0.005216105,0.006860066,1.5707964,0.0,0.7070939,-0.0042695454,0.00058122765,0.7071066,0.0,0.0,-0.314804,0,0,0,0,0
325073912,-0.0035106281,0.006104663,1.5707964,0.0,0.7070986,-0.0033995053,0.0009171297,0.70710623,0.0,0.0,-0.31690976,0,0,0,0,0
325094430,-0.004112665,0.0069665285,1.5707964,0.0,0.7070959,-0.0039170664,0.0010089925,0.7071061,0.0,0.0,-0.31519243,0,0,0,0,0
325165252,-0.0040190304,0.0019378862,1.5707964,0.0,0.7071036,-0.0021060847,-0.0007357953,0.7071064,0.0,0.0,-0.30476153,0,0,0,0,0
325185626,-0.003167464,0.0029059718,1.5707964,0.0,0.7071035,-0.0021472804,-9.245143e-05,0.70710677,0.0,0.0,-0.30047968,0,0,0,0,0
325205849,-0.0020484147,-0.0009004395,1.5707964,0.0,0.70710665,-0.00040587038,-0.0010425771,0.70710605,0.0,0.0,-0.30207154,0,0,0,0,0
325226145,-0.0039149285,0.00022661881,1.5707964,0.0,0.7071053,-0.0014642569,-0.0013040135,0.7071056,0.0,0.0,-0.3051137,0,0,0,0,0
325246445,-0.0005290221,0.002090287,1.5707964,0.0,0.7071062,-0.0009260653,0.00055199035,0.7071066,0.0,0.0,-0.30737555,0,0,0,0,0
325287034,-0.0036791859,-0.0034946974,1.5707964,0.0,0.70710677,-6.522653e-05,-0.002536345,0.70710224,0.0,0.0,-0.3145934,0,0,0,0,0
325312432,0.00068419374,-0.00091824925,1.5707964,0.0,0.70710653,0.000566549,-8.2751125e-05,0.70710677,0.0,0.0,-0.3188908,0,0,0,0,0
325332707,-0.0025713835,-0.003974847,1.5707964,0.0,0.7071066,0.0004961994,-0.0023144379,0.707103,0.0,0.0,-0.3197899,0,0,0,0,0
325348060,-0.00037985717,-0.002532237,1.5707964,0.0,0.70710635,0.00076098094,-0.0010295802,0.7071061,0.0,0.0,-0.32080126,0,0,0,0,0
325388520,-0.0029234875,-0.005913111,1.5707964,0.0,0.707106,0.0010569908,-0.0031241989,0.70709985,0.0,0.0,-0.32143125,0,0,0,0,0
325408818,-0.0023850037,-0.005089435,1.5707964,0.0,0.7071061,0.0009561606,-0.0026426069,0.7071019,0.0,0.0,-0.3167886,0,0,0,0,0
325429219,-0.0029114035,-0.0056827413,1.5707964,0.0,0.7071061,0.0009798154,-0.0030384795,0.7071003,0.0,0.0,-0.31552887,0,0,0,0,0
325449428,-0.00012659028,-0.004707116,1.5707964,0.0,0.7071049,0.001619459,-0.0017089716,0.7071047,0.0,0.0,-0.3114148,0,0,0,0,0
325469709,0.00016331946,-0.005744075,1.5707964,0.0,0.70710367,0.0020885763,-0.0019730923,0.707104,0.0,0.0,-0.31080395,0,0,0,0,0
325490012,0.0006629251,-0.0051595652,1.5707964,0.0,0.7071038,0.0020585582,-0.0015898009,0.707105,0.0,0.0,-0.31233862,0,0,0,0,0
325505422,0.0016727864,-0.0043471763,1.5707964,0.0,0.70710355,0.0021283752,-0.0009455394,0.70710623,0.0,0.0,-0.31366727,0,0,0,0,0
325525527,0.002129905,-0.005858831,1.5707964,0.0,0.7071011,0.0028244373,-0.0013183737,0.7071056,0.0,0.0,-0.31850967,0,0,0,0,0
325545825,-0.0026629264,-0.008496101,1.5707964,0.0,0.7071037,0.0020623351,-0.003945291,0.7070958,0.0,0.0,-0.31940338,0,0,0,0,0
325566128,-0.0013326079,-0.0074220817,1.5707964,0.0,0.7071035,0.0021529507,-0.0030952403,0.70710003,0.0,0.0,-0.3218217,0,0,0,0,0
325586656,0.0007213989,-0.0063910377,1.5707964,0.0,0.7071023,0.0025146205,-0.0020045172,0.70710397,0.0,0.0,-0.32012773,0,0,0,0,0
325606743,0.0014268045,-0.008949863,1.5707964,0.0,0.70709723,0.0036686896,-0.0026597965,0.7071018,0.0,0.0,-0.31714335,0,0,0,0,0
325627016,0.0023821343,-0.010215518,1.5707964,0.0,0.70709276,0.004453913,-0.0027695121,0.7071014,0.0,0.0,-0.31428388,0,0,0,0,0
325647317,0.0021591077,-0.011319854,1.5707964,0.0,0.7070907,0.0047654966,-0.0032388014,0.7070993,0.0,0.0,-0.30906335,0,0,0,0,0
325667834,-0.0007546674,-0.011876567,1.5707964,0.0,0.7070958,0.0039321645,-0.004465786,0.70709276,0.0,0.0,-0.30856657,0,0,0,0,0
325687915,0.0025924672,-0.013086695,1.5707964,0.0,0.707085,0.0055433633,-0.0037102532,0.70709705,0.0,0.0,-0.3122849,0,0,0,0,0
325708205,0.0013063833,-0.010269545,1.5707964,0.0,0.7070949,0.0040926854,-0.0031689457,0.70709974,0.0,0.0,-0.30946252,0,0,0,0,0
325728513,0.0010158935,-0.010969243,1.5707964,0.0,0.7070941,0.0042373603,-0.003519026,0.70709807,0.0,0.0,-0.31066298,0,0,0,0,0
325749078,0.0006872186,-0.010764624,1.5707964,0.0,0.70709515,0.004048816,-0.0035628858,0.7070978,0.0,0.0,-0.3117028,0,0,0,0,0
325769098,0.0027385366,-0.012487552,1.5707964,0.0,0.70708627,0.0053831832,-0.0034467839,0.70709836,0.0,0.0,-0.31245303,0,0,0,0,0
325789392,0.0006860677,-0.011719081,1.5707964,0.0,0.7070932,0.004385854,-0.0039007391,0.707096,0.0,0.0,-0.30964953,0,0,0,0,0
325809694,0.002025071,-0.0145898685,1.5707964,0.0,0.70708233,0.0058742,-0.0044422974,0.7070929,0.0,0.0,-0.31171578,0,0,0,0,0
325830232,0.0011884203,-0.011097872,1.5707964,0.0,0.7070934,0.0043438324,-0.0035035054,0.7070981,0.0,0.0,-0.3113041,0,0,0,0,0
325850296,0.0014634635,-0.011865581,1.5707964,0.0,0.70709103,0.004712494,-0.0036776874,0.7070973,0.0,0.0,-0.31454444,0,0,0,0,0
325870581,-0.00016991429,-0.010106155,1.5707964,0.0,0.707098,0.0035129767,-0.0036331231,0.7070976,0.0,0.0,-0.3137974,0,0,0,0,0
325890881,0.0006878255,-0.011161487,1.5707964,0.0,0.7070944,0.0041893395,-0.0037029812,0.70709705,0.0,0.0,-0.31251723,0,0,0,0,0
325911444,-7.082261e-05,-0.0068093743,1.5707964,0.0,0.7071028,0.0023824333,-0.002432512,0.7071026,0.0,0.0,-0.31128156,0,0,0,0,0
325931475,0.0009682094,-0.01024893,1.5707964,0.0,0.7070957,0.0039658365,-0.0032812182,0.70709914,0.0,0.0,-0.31235972,0,0,0,0,0
325951772,-0.00017305267,-0.0040669604,1.5707964,0.0,0.7071054,0.0013767034,-0.0014990699,0.7071052,0.0,0.0,-0.31081387,0,0,0,0,0
325972076,-0.0026358224,-0.0034650795,1.5707964,0.0,0.7071067,0.00029318666,-0.002156991,0.70710355,0.0,0.0,-0.3155954,0,0,0,0,0
325992583,-0.0021140226,-0.0046388186,1.5707964,0.0,0.70710623,0.0008926496,-0.002387485,0.7071028,0.0,0.0,-0.31769642,0,0,0,0,0
326032971,9.67731e-05,-0.0013776734,1.5707964,0.0,0.7071066,0.0005212955,-0.00045286654,0.7071066,0.0,0.0,-0.30903423,0,0,0,0,0
326053281,0.0014553429,-0.002954664,1.5707964,0.0,0.70710504,0.0015591716,-0.00053009,0.70710653,0.0,0.0,-0.30758533,0,0,0,0,0
326073800,0.00016299072,-0.0017529621,1.5707964,0.0,0.7071065,0.0006773915,-0.00056213967,0.70710653,0.0,0.0,-0.30745897,0,0,0,0,0
326093850,-0.00063878956,-0.0014057504,1.5707964,0.0,0.7071067,0.00027116158,-0.0007228539,0.7071064,0.0,0.0,-0.3077034,0,0,0,0,0
326114148,0.0018439591,-0.0033022657,1.5707964,0.0,0.70710444,0.0018194632,-0.0005155891,0.7071066,0.0,0.0,-0.3092526,0,0,0,0,0
326124306,0.0025604179,-0.0063571217,1.5707964,0.0,0.70709974,0.0031528159,-0.0013423366,0.7071055,0.0,0.0,-0.31157604,0,0,0,0,0
326210566,0.0013036213,-0.004498348,1.5707964,0.0,0.7071038,0.0020513027,-0.0011295059,0.7071059,0.0,0.0,-0.31433392,0,0,0,0,0
326230871,-0.0010112603,-0.001872781,1.5707964,0.0,0.7071067,0.00030459347,-0.0010196621,0.70710605,0.0,0.0,-0.31420746,0,0,0,0,0
326251253,-0.0013231023,0.0007172014,1.5707964,0.0,0.7071064,-0.0007213561,-0.00021421828,0.70710677,0.0,0.0,-0.30929026,0,0,0,0,0
326271453,0.0012945277,-0.0012892092,1.5707964,0.0,0.7071062,0.00091348874,1.8803519e-06,0.7071069,0.0,0.0,-0.30789083,0,0,0,0,0
326291759,0.0009048342,-0.00061103865,1.5707964,0.0,0.7071066,0.00053594186,0.00010387239,0.70710677,0.0,0.0,-0.30997384,0,0,0,0,0
326312044,-0.0016866985,0.0008551773,1.5707964,0.0,0.7071062,-0.0008986886,-0.0002939872,0.7071067,0.0,0.0,-0.30588076,0,0,0,0,0
326332423,0.002784267,-0.0023153634,1.5707964,0.0,0.70710444,0.0018029896,0.00016578253,0.7071068,0.0,0.0,-0.3063861,0,0,0,0,0
326352659,-0.001856224,0.00069881295,1.5707964,0.0,0.7071062,-0.00090334174,-0.00040920655,0.70710665,0.0,0.0,-0.3120969,0,0,0,0,0
326372938,0.0010691608,-0.0012644014,1.5707964,0.0,0.7071063,0.0008250386,-6.902798e-05,0.7071068,0.0,0.0,-0.31329295,0,0,0,0,0
326393236,-0.0024057538,0.0015990655,1.5707964,0.0,0.70710534,-0.0014159164,-0.00028520738,0.70710677,0.0,0.0,-0.3153632,0,0,0,0,0
326413616,0.00045799333,-0.0012563367,1.5707964,0.0,0.70710653,0.0006061071,-0.00028225695,0.70710677,0.0,0.0,-0.31351382,0,0,0,0,0
326433827,-0.001373708,-0.001344774,1.5707964,0.0,0.70710677,-1.0229624e-05,-0.0009611282,0.7071061,0.0,0.0,-0.30999076,0,0,0,0,0
326454132,-0.00010194671,-0.0036032528,1.5707964,0.0,0.7071057,0.001237898,-0.0013099851,0.70710564,0.0,0.0,-0.309169,0,0,0,0,0
326474421,-0.0035891565,-0.0007672185,1.5707964,0.0,0.70710605,-0.0009977053,-0.0015402099,0.7071051,0.0,0.0,-0.3097235,0,0,0,0,0
326515020,-0.0039711744,-0.0025770527,1.5707964,0.0,0.7071066,-0.0004928963,-0.0023151434,0.7071031,0.0,0.0,-0.31420782,0,0,0,0,0
326535323,-0.0050315103,-0.002881161,1.5707964,0.0,0.70710635,-0.00076026306,-0.002797544,0.7071013,0.0,0.0,-0.31076816,0,0,0,0,0
326545463,-0.004063888,-0.002500774,1.5707964,0.0,0.70710653,-0.0005526442,-0.0023209543,0.7071031,0.0,0.0,-0.31125972,0,0,0,0,0
326566017,-0.0042011696,-0.0035871866,1.5707964,0.0,0.7071067,-0.00021707563,-0.0027535928,0.7071014,0.0,0.0,-0.31510338,0,0,0,0,0
326586060,-0.006300174,-0.0019543266,1.5707964,0.0,0.7071051,-0.0015364878,-0.0029183982,0.70710075,0.0,0.0,-0.31387797,0,0,0,0,0
326606355,-0.0063132253,-0.00028009035,1.5707964,0.0,0.70710355,-0.0021330318,-0.0023310846,0.70710295,0.0,0.0,-0.31155992,0,0,0,0,0
326626651,-0.0043492196,-0.0019629893,1.5707964,0.0,0.70710623,-0.00084365945,-0.0022316992,0.70710325,0.0,0.0,-0.3113201,0,0,0,0,0
326647180,-0.007916635,0.0022710036,1.5707964,0.0,0.7070976,-0.0036018589,-0.0019960296,0.70710397,0.0,0.0,-0.30748844,0,0,0,0,0
326667244,-0.00860689,-0.0008862159,1.5707964,0.0,0.7071015,-0.0027296634,-0.0033563068,0.7070988,0.0,0.0,-0.31359088,0,0,0,0,0
326687549,-0.0068740603,-0.002253993,1.5707964,0.0,0.70710486,-0.0016334391,-0.003227243,0.7070994,0.0,0.0,-0.31415787,0,0,0,0,0
326707837,-0.007925993,4.760527e-05,1.5707964,0.0,0.7071011,-0.0028190853,-0.0027854235,0.7071013,0.0,0.0,-0.31417897,0,0,0,0,0
326728412,-0.0042918744,-0.0025012451,1.5707964,0.0,0.7071065,-0.00063308293,-0.0024017256,0.7071028,0.0,0.0,-0.31224713,0,0,0,0,0
