timestamp,gps_hvel[0],gps_hvel[1],gps_vvel,gps_hpos[0],gps_hpos[1],gps_vpos,ev_hvel[0],ev_hvel[1],ev_vvel,ev_hpos[0],ev_hpos[1],ev_vpos,fake_hvel[0],fake_hvel[1],fake_vvel,fake_hpos[0],fake_hpos[1],fake_vpos,rng_vpos,baro_vpos,aux_hvel[0],aux_hvel[1],aux_vvel,flow[0],flow[1],heading,mag_field[0],mag_field[1],mag_field[2],drag[0],drag[1],airspeed,beta,hagl
317883355,0.0,2.320277e-06,0.0,1.470498e-07,0.0010996235,0.0,0.0,0.00028405985,0.0,1.6756921e-05,3.5950798e-11,1.1875207e-05,nan,nan,nan,nan,nan,nan,0.0,0.00041124492,0.0,0.0,nan,0.0,0.00028405985,0.0005884299,0.0,0.0,0.0,0.0,0.0,0.0,0.0,0.0
317893716,0.0,2.3249538e-06,0.0,1.470498e-07,0.0010994078,0.0,0.0,0.00028403118,0.0,1.6756921e-05,3.59608e-11,1.1830743e-05,nan,nan,nan,nan,nan,nan,0.0,0.00041124492,0.0,0.0,nan,0.0,0.00028403118,0.0005884299,0.0,0.0,0.0,0.0,0.0,0.0,0.0,0.0
318086349,0.0,2.3110408e-06,0.0,1.470498e-07,0.0010945194,0.0,0.0,0.00028346118,0.0,1.5300444e-05,3.5808356e-11,1.0791741e-05,nan,nan,nan,nan,nan,nan,0.0,0.00041124492,0.0,0.0,nan,0.0,0.00028346118,0.0005823383,0.0,0.0,0.0,0.0,0.0,0.0,0.0,0.0
318289327,0.0,2.2977422e-06,0.0,1.470498e-07,0.0010896235,0.0,0.0,0.0002828849,0.0,1.5566311e-05,3.5626037e-11,6.927047e-06,nan,nan,nan,nan,nan,nan,0.0,0.00041124492,0.0,0.0,nan,0.0,0.0002828849,0.0005781219,0.0,0.0,0.0,0.0,0.0,0.0,0.0,0.0
318487235,0.0,2.2918293e-06,0.0,1.470498e-07,0.0010847223,0.0,0.0,0.00028231373,0.0,1.4442384e-05,3.545899e-11,6.104479e-06,nan,nan,nan,nan,nan,nan,0.0,0.00041124492,0.0,0.0,nan,0.0,0.00028231373,0.000643965,0.0,0.0,0.0,0.0,0.0,0.0,0.0,0.0
318690219,0.0,2.2872346e-06,0.0,1.470498e-07,0.001081727,0.0,0.0,0.0002817933,0.0,1.4008894e-05,3.5280993e-11,0.00016760337,nan,nan,nan,nan,nan,nan,0.0,0.00041124492,0.0,0.0,nan,0.0,0.0002817933,0.0005948746,0.0,0.0,0.0,0.0,0.0,0.0,0.0,0.0
318903354,0.0,2.2978402e-06,0.0,1.470498e-07,0.001078786,0.0,0.0,0.00028133535,0.0,1.4841517e-05,3.5136623e-11,0.0006879745,nan,nan,nan,nan,nan,nan,0.0,0.00041124492,0.0,0.0,nan,0.0,0.00028133535,0.0006750402,0.0,0.0,0.0,0.0,0.0,0.0,0.0,0.0
319091112,0.0,2.2994386e-06,0.0,1.470498e-07,0.0010762113,0.0,0.0,0.00028096943,0.0,1.7765084e-05,3.4964857e-11,0.0015654984,nan,nan,nan,nan,nan,nan,0.0,0.00041124492,0.0,0.0,nan,0.0,0.00028096943,0.00059967977,0.0,0.0,0.0,0.0,0.0,0.0,0.0,0.0
319294160,0.0,2.2862926e-06,0.0,1.470498e-07,0.0010727977,0.0,0.0,0.00028059303,0.0,1.6885326e-05,3.47133e-11,0.002666165,nan,nan,nan,nan,nan,nan,0.0,0.00041124492,0.0,0.0,nan,0.0,0.00028059303,0.0005837251,0.0,0.0,0.0,0.0,0.0,0.0,0.0,0.0
319486914,0.0,2.2942477e-06,0.0,1.470498e-07,0.0010701094,0.0,0.0,0.00028022288,0.0,1.8021174e-05,3.453693e-11,0.004002488,nan,nan,nan,nan,nan,nan,0.0,0.00041124492,0.0,0.0,nan,0.0,0.00028022288,0.0005882316,0.0,0.0,0.0,0.0,0.0,0.0,0.0,0.0
319689907,0.0,2.292205e-06,0.0,1.470498e-07,0.0010661267,0.0,0.0,0.0002798437,0.0,1.675404e-05,3.430993e-11,0.004918797,nan,nan,nan,nan,nan,nan,0.0,0.00041124492,0.0,0.0,nan,0.0,0.0002798437,0.0006125613,0.0,0.0,0.0,0.0,0.0,0.0,0.0,0.0
320090813,0.0,2.289505e-06,0.0,1.470498e-07,0.0010607091,0.0,0.0,0.00027908132,0.0,1.5798078e-05,3.3838026e-11,0.0066648745,nan,nan,nan,nan,nan,nan,0.0,0.00041124492,0.0,0.0,nan,0.0,0.00027908132,0.00060008967,0.0,0.0,0.0,0.0,0.0,0.0,0.0,0.0
320491704,0.0,2.2834136e-06,0.0,1.470498e-07,0.0010551,0.0,0.0,0.00027838253,0.0,1.4630614e-05,3.331384e-11,0.007196094,nan,nan,nan,nan,nan,nan,0.0,0.00041124492,0.0,0.0,nan,0.0,0.00027838253,0.00052577496,0.0,0.0,0.0,0.0,0.0,0.0,0.0,0.0
321892259,0.0,2.2996746e-06,0.0,1.470498e-07,0.0010413645,0.0,0.0,0.00027653668,0.0,2.4557456e-05,3.1599872e-11,0.0056237266,nan,nan,nan,nan,nan,nan,0.0,0.00041124492,0.0,0.0,nan,0.0,0.00027653668,0.00045773797,0.0,0.0,0.0,0.0,0.0,0.0,0.0,0.0
322085079,0.0,2.2934646e-06,0.0,1.470498e-07,0.0010399079,0.0,0.0,0.00027632416,0.0,2.4478457e-05,3.1323968e-11,0.00543819,nan,nan,nan,nan,nan,nan,0.0,0.00041124492,0.0,0.0,nan,0.0,0.00027632416,0.0005131522,0.0,0.0,0.0,0.0,0.0,0.0,0.0,0.0
322293135,0.0,2.2872798e-06,0.0,1.470498e-07,0.0010382852,0.0,0.0,0.00027610495,0.0,2.147364e-05,3.1023812e-11,0.0052356976,nan,nan,nan,nan,nan,nan,0.0,0.00041124492,0.0,0.0,nan,0.0,0.00027610495,0.0005063089,0.0,0.0,0.0,0.0,0.0,0.0,0.0,0.0
322688947,0.0,2.3028397e-06,0.0,1.470498e-07,0.0010362214,0.0,0.0,0.00027570344,0.0,2.69835e-05,3.0504474e-11,0.0015290688,nan,nan,nan,nan,nan,nan,0.0,0.00041124492,0.0,0.0,nan,0.0,0.00027570344,0.06041463,0.0,0.0,0.0,0.0,0.0,0.0,0.0,0.0
322887101,0.0,2.3439895e-06,0.0,1.470498e-07,0.0010351079,0.0,0.0,0.000275582,0.0,6.1442047e-06,3.0207052e-11,0.0015111555,nan,nan,nan,nan,nan,nan,0.0,0.00041124492,0.0,0.0,nan,0.0,0.000275582,0.013167261,0.0,0.0,0.0,0.0,0.0,0.0,0.0,0.0
323282689,0.0,2.3440434e-06,0.0,1.470498e-07,0.0010350072,0.0,0.0,0.0002754198,0.0,2.8651019e-05,2.962308e-11,0.003160862,nan,nan,nan,nan,nan,nan,0.0,0.00041124492,0.0,0.0,nan,0.0,0.0002754198,0.00076711655,0.0,0.0,0.0,0.0,0.0,0.0,0.0,0.0
324693439,0.0,2.3298087e-06,0.0,1.470498e-07,0.0010204138,0.0,0.0,0.00027379012,0.0,0.00016864005,2.798771e-11,0.022116516,nan,nan,nan,nan,nan,nan,0.0,0.00041124492,0.0,0.0,nan,0.0,0.00027379012,0.0010208931,0.0,0.0,0.0,0.0,0.0,0.0,0.0,0.0
324891238,0.0,2.334344e-06,0.0,1.470498e-07,0.0010198253,0.0,0.0,0.00027365724,0.0,0.0002064964,2.777512e-11,0.022420188,nan,nan,nan,nan,nan,nan,0.0,0.00041124492,0.0,0.0,nan,0.0,0.00027365724,7.0912114e-07,0.0,0.0,0.0,0.0,0.0,0.0,0.0,0.0
325084099,0.0,2.3188932e-06,0.0,1.470498e-07,0.0010189709,0.0,0.0,0.00027354178,0.0,0.00015595708,2.7517934e-11,0.022223795,nan,nan,nan,nan,nan,nan,0.0,0.00041124492,0.0,0.0,nan,0.0,0.00027354178,9.301683e-05,0.0,0.0,0.0,0.0,0.0,0.0,0.0,0.0
325292156,0.0,2.3243942e-06,0.0,1.470498e-07,0.0010183726,0.0,0.0,0.0002734317,0.0,7.4166026e-05,2.7326618e-11,0.02219538,nan,nan,nan,nan,nan,nan,0.0,0.00041124492,0.0,0.0,nan,0.0,0.0002734317,0.0005634148,0.0,0.0,0.0,0.0,0.0,0.0,0.0,0.0
325490012,0.0,2.3304037e-06,0.0,1.470498e-07,0.0010174529,0.0,0.0,0.00027334187,0.0,5.360864e-06,2.712622e-11,0.022535736,nan,nan,nan,nan,nan,nan,0.0,0.00041124492,0.0,0.0,nan,0.0,0.00027334187,0.002434549,0.0,0.0,0.0,0.0,0.0,0.0,0.0,0.0
325687915,0.0,2.3405569e-06,0.0,1.470498e-07,0.0010164053,0.0,0.0,0.0002732305,0.0,1.1782703e-05,2.6929865e-11,0.020311685,nan,nan,nan,nan,nan,nan,0.0,0.00041124492,0.0,0.0,nan,0.0,0.0002732305,0.0003964719,0.0,0.0,0.0,0.0,0.0,0.0,0.0,0.0
325890881,0.0,2.3430825e-06,0.0,1.470498e-07,0.0010158829,0.0,0.0,0.00027312365,0.0,4.3548876e-05,2.6737116e-11,0.01894758,nan,nan,nan,nan,nan,nan,0.0,0.00041124492,0.0,0.0,nan,0.0,0.00027312365,0.0041926666,0.0,0.0,0.0,0.0,0.0,0.0,0.0,0.0
326083859,0.0,2.3184193e-06,0.0,1.470498e-07,0.0010153186,0.0,0.0,0.0002730374,0.0,0.00020561166,2.653887e-11,0.018228704,nan,nan,nan,nan,nan,nan,0.0,0.00041124492,0.0,0.0,nan,0.0,0.0002730374,0.027079826,0.0,0.0,0.0,0.0,0.0,0.0,0.0,0.0
326291759,0.0,2.2763525e-06,0.0,1.470498e-07,0.0010146602,0.0,0.0,0.000272949,0.0,0.00021582066,2.6326535e-11,0.017741794,nan,nan,nan,nan,nan,nan,0.0,0.00041124492,0.0,0.0,nan,0.0,0.000272949,0.005989763,0.0,0.0,0.0,0.0,0.0,0.0,0.0,0.0
326687549,0.0,2.2737374e-06,0.0,1.470498e-07,0.0010131102,0.0,0.0,0.00027277044,0.0,0.000109133085,2.606114e-11,0.017846543,nan,nan,nan,nan,nan,nan,0.0,0.00041124492,0.0,0.0,nan,0.0,0.00027277044,0.0076080193,0.0,0.0,0.0,0.0,0.0,0.0,0.0,0.0
326890523,0.0,2.2956942e-06,0.0,1.470498e-07,0.001012445,0.0,0.0,0.000272678,0.0,5.3336582e-05,2.5887759e-11,0.018193457,nan,nan,nan,nan,nan,nan,0.0,0.00041124492,0.0,0.0,nan,0.0,0.000272678,0.021877907,0.0,0.0,0.0,0.0,0.0,0.0,0.0,0.0
327088408,0.0,2.3370544e-06,0.0,1.470498e-07,0.0010110817,0.0,0.0,0.0002725733,0.0,0.00017019446,2.5742934e-11,0.015714288,nan,nan,nan,nan,nan,nan,0.0,0.00041124492,0.0,0.0,nan,0.0,0.0002725733,0.02709331,0.0,0.0,0.0,0.0,0.0,0.0,0.0,0.0
327291379,0.0,2.3647099e-06,0.0,1.470498e-07,0.0010104979,0.0,0.0,0.00027246046,0.0,0.0003270021,2.5562937e-11,0.016198687,nan,nan,nan,nan,nan,nan,0.0,0.00041124492,0.0,0.0,nan,0.0,0.00027246046,0.006043023,0.0,0.0,0.0,0.0,0.0,0.0,0.0,0.0
327692261,0.0,2.3777338e-06,0.0,1.470498e-07,0.001009335,0.0,0.0,0.00027227876,0.0,0.00020357015,2.5217203e-11,0.012428464,nan,nan,nan,nan,nan,nan,0.0,0.00041124492,0.0,0.0,nan,0.0,0.00027227876,0.0033736401,0.0,0.0,0.0,0.0,0.0,0.0,0.0,0.0
327885185,0.0,2.3834154e-06,0.0,1.470498e-07,0.0010086602,0.0,0.0,0.00027219392,0.0,0.00032122195,2.514445e-11,0.009277951,nan,nan,nan,nan,nan,nan,0.0,0.00041124492,0.0,0.0,nan,0.0,0.00027219392,0.014617855,0.0,0.0,0.0,0.0,0.0,0.0,0.0,0.0
328093125,0.0,2.3422363e-06,0.0,1.470498e-07,0.0010081293,0.0,0.0,0.0002721103,0.0,7.2468094e-05,2.4945726e-11,0.0074650897,nan,nan,nan,nan,nan,nan,0.0,0.00041124492,0.0,0.0,nan,0.0,0.0002721103,0.013748654,0.0,0.0,0.0,0.0,0.0,0.0,0.0,0.0
328286201,0.0,2.3002026e-06,0.0,1.470498e-07,0.0010071823,0.0,0.0,0.00027203228,0.0,1.3047648e-05,2.4746129e-11,0.0065233926,nan,nan,nan,nan,nan,nan,0.0,0.00041124492,0.0,0.0,nan,0.0,0.00027203228,0.00157171,0.0,0.0,0.0,0.0,0.0,0.0,0.0,0.0
328692174,0.0,2.2891247e-06,0.0,1.470498e-07,0.0010059377,0.0,0.0,0.00027184543,0.0,8.8867724e-05,2.4379262e-11,0.00693736,nan,nan,nan,nan,nan,nan,0.0,0.00041124492,0.0,0.0,nan,0.0,0.00027184543,0.014931436,0.0,0.0,0.0,0.0,0.0,0.0,0.0,0.0
328884679,0.0,2.2954546e-06,0.0,1.470498e-07,0.0010055599,0.0,0.0,0.0002717741,0.0,0.00012926625,2.4197528e-11,0.007129355,nan,nan,nan,nan,nan,nan,0.0,0.00041124492,0.0,0.0,nan,0.0,0.0002717741,0.004534636,0.0,0.0,0.0,0.0,0.0,0.0,0.0,0.0
329092716,0.0,2.3008747e-06,0.0,1.470498e-07,0.0010051001,0.0,0.0,0.00027170382,0.0,0.00035797813,2.4040998e-11,0.006870832,nan,nan,nan,nan,nan,nan,0.0,0.00041124492,0.0,0.0,nan,0.0,0.00027170382,6.0677838e-05,0.0,0.0,0.0,0.0,0.0,0.0,0.0,0.0
329285555,0.0,2.3044488e-06,0.0,1.470498e-07,0.0010045472,0.0,0.0,0.0002716402,0.0,0.00047022017,2.393509e-11,0.006435126,nan,nan,nan,nan,nan,nan,0.0,0.00041124492,0.0,0.0,nan,0.0,0.0002716402,0.00020009393,0.0,0.0,0.0,0.0,0.0,0.0,0.0,0.0
329488504,0.0,2.3106081e-06,0.0,1.470498e-07,0.0010041437,0.0,0.0,0.0002715776,0.0,0.00043159595,2.383695e-11,0.0065463013,nan,nan,nan,nan,nan,nan,0.0,0.00041124492,0.0,0.0,nan,0.0,0.0002715776,6.0722814e-06,0.0,0.0,0.0,0.0,0.0,0.0,0.0,0.0
329691471,0.0,2.3331052e-06,0.0,1.470498e-07,0.0010037471,0.0,0.0,0.00027151802,0.0,0.00046518122,2.3780526e-11,0.006547864,nan,nan,nan,nan,nan,nan,0.0,0.00041124492,0.0,0.0,nan,0.0,0.00027151802,0.0016430984,0.0,0.0,0.0,0.0,0.0,0.0,0.0,0.0
329889380,0.0,2.306412e-06,0.0,1.470498e-07,0.001003151,0.0,0.0,0.00027145984,0.0,0.00054172764,2.3617427e-11,0.0061087427,nan,nan,nan,nan,nan,nan,0.0,0.00041124492,0.0,0.0,nan,0.0,0.00027145984,0.007845772,0.0,0.0,0.0,0.0,0.0,0.0,0.0,0.0
330082382,0.0,2.2785507e-06,0.0,1.470498e-07,0.0010026819,0.0,0.0,0.0002713944,0.0,0.00067787484,2.348189e-11,0.0059952512,nan,nan,nan,nan,nan,nan,0.0,0.00041124492,0.0,0.0,nan,0.0,0.0002713944,0.0034651393,0.0,0.0,0.0,0.0,0.0,0.0,0.0,0.0
330285139,0.0,2.2538873e-06,0.0,1.470498e-07,0.0010023674,0.0,0.0,0.00027133487,0.0,0.0006182862,2.333171e-11,0.005784643,nan,nan,nan,nan,nan,nan,0.0,0.00041124492,0.0,0.0,nan,0.0,0.00027133487,4.318686e-05,0.0,0.0,0.0,0.0,0.0,0.0,0.0,0.0
330691109,0.0,2.2409884e-06,0.0,1.470498e-07,0.0010016707,0.0,0.0,0.0002712393,0.0,0.00014736528,2.3090745e-11,0.0057657924,nan,nan,nan,nan,nan,nan,0.0,0.00041124492,0.0,0.0,nan,0.0,0.0002712393,0.00019452852,0.0,0.0,0.0,0.0,0.0,0.0,0.0,0.0
330888950,0.0,2.232993e-06,0.0,1.470498e-07,0.0010012425,0.0,0.0,0.00027119156,0.0,9.976544e-05,2.2955481e-11,0.006166411,nan,nan,nan,nan,nan,nan,0.0,0.00041124492,0.0,0.0,nan,0.0,0.00027119156,0.0011254391,0.0,0.0,0.0,0.0,0.0,0.0,0.0,0.0
331091918,0.0,2.238218e-06,0.0,1.470498e-07,0.0010008744,0.0,0.0,0.00027113594,0.0,0.00027193743,2.285422e-11,0.0063940603,nan,nan,nan,nan,nan,nan,0.0,0.00041124492,0.0,0.0,nan,0.0,0.00027113594,0.0038092851,0.0,0.0,0.0,0.0,0.0,0.0,0.0,0.0
331482716,0.0,2.2533402e-06,0.0,1.470498e-07,0.0010003002,0.0,0.0,0.0002710485,0.0,0.00034191817,2.2650954e-11,0.00667999,nan,nan,nan,nan,nan,nan,0.0,0.00041124492,0.0,0.0,nan,0.0,0.0002710485,0.0008165094,0.0,0.0,0.0,0.0,0.0,0.0,0.0,0.0
331685584,0.0,2.2592587e-06,0.0,1.470498e-07,0.0010000671,0.0,0.0,0.0002710089,0.0,0.00019779342,2.2559028e-11,0.0067935884,nan,nan,nan,nan,nan,nan,0.0,0.00041124492,0.0,0.0,nan,0.0,0.0002710089,0.00071284553,0.0,0.0,0.0,0.0,0.0,0.0,0.0,0.0
331888668,0.0,2.2602644e-06,0.0,1.470498e-07,0.0009998269,0.0,0.0,0.00027097203,0.0,8.5819236e-05,2.2450182e-11,0.006720735,nan,nan,nan,nan,nan,nan,0.0,0.00041124492,0.0,0.0,nan,0.0,0.00027097203,0.00017522398,0.0,0.0,0.0,0.0,0.0,0.0,0.0,0.0
332086411,0.0,2.265072e-06,0.0,1.470498e-07,0.0009993267,0.0,0.0,0.00027092866,0.0,4.3172902e-05,2.2363828e-11,0.006486938,nan,nan,nan,nan,nan,nan,0.0,0.00041124492,0.0,0.0,nan,0.0,0.00027092866,8.5143165e-06,0.0,0.0,0.0,0.0,0.0,0.0,0.0,0.0
332289635,0.0,2.2674128e-06,0.0,1.470498e-07,0.0009990076,0.0,0.0,0.00027088416,0.0,1.7525586e-05,2.227929e-11,0.0058020046,nan,nan,nan,nan,nan,nan,0.0,0.00041124492,0.0,0.0,nan,0.0,0.00027088416,1.8738716e-06,0.0,0.0,0.0,0.0,0.0,0.0,0.0,0.0
332492359,0.0,2.2678075e-06,0.0,1.470498e-07,0.0009988203,0.0,0.0,0.00027084755,0.0,7.191788e-06,2.2196588e-11,0.00596489,nan,nan,nan,nan,nan,nan,0.0,0.00041124492,0.0,0.0,nan,0.0,0.00027084755,0.0009493522,0.0,0.0,0.0,0.0,0.0,0.0,0.0,0.0
332685156,0.0,2.2757893e-06,0.0,1.470498e-07,0.0009986653,0.0,0.0,0.00027081714,0.0,3.8519443e-06,2.2159285e-11,0.005781231,nan,nan,nan,nan,nan,nan,0.0,0.00041124492,0.0,0.0,nan,0.0,0.00027081714,0.0012709808,0.0,0.0,0.0,0.0,0.0,0.0,0.0,0.0
332883033,0.0,2.2610227e-06,0.0,1.470498e-07,0.0009983397,0.0,0.0,0.00027078832,0.0,9.963103e-06,2.204772e-11,0.0057056462,nan,nan,nan,nan,nan,nan,0.0,0.00041124492,0.0,0.0,nan,0.0,0.00027078832,3.7322952e-05,0.0,0.0,0.0,0.0,0.0,0.0,0.0,0.0
333085983,0.0,2.2635618e-06,0.0,1.470498e-07,0.000998062,0.0,0.0,0.00027075264,0.0,1.4546172e-05,2.196946e-11,0.00529969,nan,nan,nan,nan,nan,nan,0.0,0.00041124492,0.0,0.0,nan,0.0,0.00027075264,1.747859e-05,0.0,0.0,0.0,0.0,0.0,0.0,0.0,0.0
333288937,0.0,2.2656814e-06,0.0,1.470498e-07,0.000997857,0.0,0.0,0.0002707201,0.0,1.8803506e-05,2.1893218e-11,0.0051308665,nan,nan,nan,nan,nan,nan,0.0,0.00041124492,0.0,0.0,nan,0.0,0.0002707201,1.4834465e-05,0.0,0.0,0.0,0.0,0.0,0.0,0.0,0.0
333486828,0.0,2.2657357e-06,0.0,1.470498e-07,0.0009976055,0.0,0.0,0.00027068768,0.0,5.4470693e-05,2.181884e-11,0.0044967467,nan,nan,nan,nan,nan,nan,0.0,0.00041124492,0.0,0.0,nan,0.0,0.00027068768,0.0006479955,0.0,0.0,0.0,0.0,0.0,0.0,0.0,0.0
333689941,0.0,2.2568893e-06,0.0,1.470498e-07,0.0009972091,0.0,0.0,0.0002706485,0.0,7.953132e-05,2.1729703e-11,0.0045622573,nan,nan,nan,nan,nan,nan,0.0,0.00041124492,0.0,0.0,nan,0.0,0.0002706485,0.00025563984,0.0,0.0,0.0,0.0,0.0,0.0,0.0,0.0
334085720,0.0,2.264262e-06,0.0,1.470498e-07,0.0009964957,0.0,0.0,0.00027056388,0.0,0.000121760604,2.1632597e-11,0.0035393601,nan,nan,nan,nan,nan,nan,0.0,0.00041124492,0.0,0.0,nan,0.0,0.00027056388,5.2686817e-05,0.0,0.0,0.0,0.0,0.0,0.0,0.0,0.0
334689332,0.0,2.2525578e-06,0.0,1.470498e-07,0.0009956755,0.0,0.0,0.00027044828,0.0,1.892737e-05,2.1403445e-11,0.0039375788,nan,nan,nan,nan,nan,nan,0.0,0.00041124492,0.0,0.0,nan,0.0,0.00027044828,0.00029040597,0.0,0.0,0.0,0.0,0.0,0.0,0.0,0.0
334892313,0.0,2.2538113e-06,0.0,1.470498e-07,0.0009954071,0.0,0.0,0.00027041376,0.0,1.3010311e-05,2.1349726e-11,0.003827707,nan,nan,nan,nan,nan,nan,0.0,0.00041124492,0.0,0.0,nan,0.0,0.00027041376,0.000938352,0.0,0.0,0.0,0.0,0.0,0.0,0.0,0.0
335090172,0.0,2.250988e-06,0.0,1.470498e-07,0.0009951241,0.0,0.0,0.000270377,0.0,9.325263e-07,2.1288716e-11,0.0037173675,nan,nan,nan,nan,nan,nan,0.0,0.00041124492,0.0,0.0,nan,0.0,0.000270377,0.00037837343,0.0,0.0,0.0,0.0,0.0,0.0,0.0,0.0
336292854,0.0,2.2463776e-06,0.0,1.470498e-07,0.0009941134,0.0,0.0,0.00027021344,0.0,6.657236e-05,2.0986603e-11,0.001961498,nan,nan,nan,nan,nan,nan,0.0,0.00041124492,0.0,0.0,nan,0.0,0.00027021344,1.1696092e-05,0.0,0.0,0.0,0.0,0.0,0.0,0.0,0.0
336490532,0.0,2.2453974e-06,0.0,1.470498e-07,0.0009939953,0.0,0.0,0.0002701954,0.0,0.000102919905,2.0932285e-11,0.001703146,nan,nan,nan,nan,nan,nan,0.0,0.00041124492,0.0,0.0,nan,0.0,0.0002701954,8.2450276e-07,0.0,0.0,0.0,0.0,0.0,0.0,0.0,0.0
336683344,0.0,2.2405573e-06,0.0,1.470498e-07,0.00099385,0.0,0.0,0.00027017825,0.0,4.3728207e-05,2.0870408e-11,0.0018496071,nan,nan,nan,nan,nan,nan,0.0,0.00041124492,0.0,0.0,nan,0.0,0.00027017825,0.00020748265,0.0,0.0,0.0,0.0,0.0,0.0,0.0,0.0
336886296,0.0,2.2447698e-06,0.0,1.470498e-07,0.0009937296,0.0,0.0,0.00027016067,0.0,8.5455686e-05,2.0821534e-11,0.001715335,nan,nan,nan,nan,nan,nan,0.0,0.00041124492,0.0,0.0,nan,0.0,0.00027016067,0.00021953469,0.0,0.0,0.0,0.0,0.0,0.0,0.0,0.0
337089248,0.0,2.2440668e-06,0.0,1.470498e-07,0.0009935688,0.0,0.0,0.00027014397,0.0,5.320459e-05,2.0759795e-11,0.0014540533,nan,nan,nan,nan,nan,nan,0.0,0.00041124492,0.0,0.0,nan,0.0,0.00027014397,1.5318233e-07,0.0,0.0,0.0,0.0,0.0,0.0,0.0,0.0
337490062,0.0,2.2743397e-06,0.0,1.470498e-07,0.0009932404,0.0,0.0,0.00027010174,0.0,1.0361401e-05,2.0737185e-11,0.0006678473,nan,nan,nan,nan,nan,nan,0.0,0.00041124492,0.0,0.0,nan,0.0,0.00027010174,3.9808725e-05,0.0,0.0,0.0,0.0,0.0,0.0,0.0,0.0
337890907,0.0,2.2768259e-06,0.0,1.470498e-07,0.0009930102,0.0,0.0,0.00027006728,0.0,2.9206729e-05,2.0640151e-11,0.0009523213,nan,nan,nan,nan,nan,nan,0.0,0.00041124492,0.0,0.0,nan,0.0,0.00027006728,0.00018387356,0.0,0.0,0.0,0.0,0.0,0.0,0.0,0.0
338083693,0.0,2.2626318e-06,0.0,1.470498e-07,0.0009928605,0.0,0.0,0.00027005095,0.0,4.7163503e-05,2.056216e-11,0.0008623343,nan,nan,nan,nan,nan,nan,0.0,0.00041124492,0.0,0.0,nan,0.0,0.00027005095,0.0001907163,0.0,0.0,0.0,0.0,0.0,0.0,0.0,0.0
338286641,0.0,2.2523138e-06,0.0,1.470498e-07,0.0009927609,0.0,0.0,0.00027003366,0.0,7.1950926e-05,2.0498304e-11,0.00080686243,nan,nan,nan,nan,nan,nan,0.0,0.00041124492,0.0,0.0,nan,0.0,0.00027003366,0.0007995297,0.0,0.0,0.0,0.0,0.0,0.0,0.0,0.0
338489591,0.0,2.2489944e-06,0.0,1.470498e-07,0.0009926684,0.0,0.0,0.0002700182,0.0,9.963328e-05,2.0460295e-11,0.00055270386,nan,nan,nan,nan,nan,nan,0.0,0.00041124492,0.0,0.0,nan,0.0,0.0002700182,0.0012135063,0.0,0.0,0.0,0.0,0.0,0.0,0.0,0.0
338687464,0.0,2.2461559e-06,0.0,1.470498e-07,0.0009925718,0.0,0.0,0.0002700047,0.0,8.649469e-05,2.0423606e-11,0.00049852993,nan,nan,nan,nan,nan,nan,0.0,0.00041124492,0.0,0.0,nan,0.0,0.0002700047,0.00076173496,0.0,0.0,0.0,0.0,0.0,0.0,0.0,0.0
338890408,0.0,2.237491e-06,0.0,1.470498e-07,0.0009924158,0.0,0.0,0.00026998835,0.0,8.970942e-05,2.037462e-11,0.0004433287,nan,nan,nan,nan,nan,nan,0.0,0.00041124492,0.0,0.0,nan,0.0,0.00026998835,0.0015496868,0.0,0.0,0.0,0.0,0.0,0.0,0.0,0.0
339093351,0.0,2.2235258e-06,0.0,1.470498e-07,0.0009922588,0.0,0.0,0.0002699703,0.0,6.684269e-05,2.0319186e-11,0.00041364782,nan,nan,nan,nan,nan,nan,0.0,0.00041124492,0.0,0.0,nan,0.0,0.0002699703,0.0021900306,0.0,0.0,0.0,0.0,0.0,0.0,0.0,0.0
339286171,0.0,2.2232562e-06,0.0,1.470498e-07,0.0009921808,0.0,0.0,0.0002699557,0.0,8.0257836e-05,2.0301698e-11,0.0003565568,nan,nan,nan,nan,nan,nan,0.0,0.00041124492,0.0,0.0,nan,0.0,0.0002699557,0.000950881,0.0,0.0,0.0,0.0,0.0,0.0,0.0,0.0
339484274,0.0,2.2121444e-06,0.0,1.470498e-07,0.000992091,0.0,0.0,0.00026994228,0.0,0.00013370579,2.0249377e-11,0.00040282944,nan,nan,nan,nan,nan,nan,0.0,0.00041124492,0.0,0.0,nan,0.0,0.00026994228,0.000584275,0.0,0.0,0.0,0.0,0.0,0.0,0.0,0.0
339686971,0.0,2.238559e-06,0.0,1.470498e-07,0.0009919682,0.0,0.0,0.0002699283,0.0,0.00019700729,2.02866e-11,0.00041616452,nan,nan,nan,nan,nan,nan,0.0,0.00041124492,0.0,0.0,nan,0.0,0.0002699283,9.880618e-05,0.0,0.0,0.0,0.0,0.0,0.0,0.0,0.0
340082729,0.0,2.2283168e-06,0.0,1.470498e-07,0.0009917967,0.0,0.0,0.0002699039,0.0,0.00015071336,2.0197916e-11,0.00028915715,nan,nan,nan,nan,nan,nan,0.0,0.00041124492,0.0,0.0,nan,0.0,0.0002699039,2.987169e-06,0.0,0.0,0.0,0.0,0.0,0.0,0.0,0.0
340290730,0.0,2.2350484e-06,0.0,1.470498e-07,0.0009917105,0.0,0.0,0.00026989033,0.0,4.8971906e-05,2.017699e-11,0.00021338795,nan,nan,nan,nan,nan,nan,0.0,0.00041124492,0.0,0.0,nan,0.0,0.00026989033,0.00046974784,0.0,0.0,0.0,0.0,0.0,0.0,0.0,0.0
340493675,0.0,2.2253357e-06,0.0,1.470498e-07,0.0009916467,0.0,0.0,0.00026987892,0.0,3.8701215e-05,2.0125571e-11,0.0001470704,nan,nan,nan,nan,nan,nan,0.0,0.00041124492,0.0,0.0,nan,0.0,0.00026987892,4.3412387e-05,0.0,0.0,0.0,0.0,0.0,0.0,0.0,0.0
340686474,0.0,2.231355e-06,0.0,1.470498e-07,0.0009916073,0.0,0.0,0.00026987,0.0,4.9546477e-05,2.0111244e-11,0.0001646084,nan,nan,nan,nan,nan,nan,0.0,0.00041124492,0.0,0.0,nan,0.0,0.00026987,9.083404e-05,0.0,0.0,0.0,0.0,0.0,0.0,0.0,0.0
341092361,0.0,2.2458105e-06,0.0,1.470498e-07,0.0009914535,0.0,0.0,0.00026985293,0.0,0.00023763304,2.0084446e-11,0.00012120576,nan,nan,nan,nan,nan,nan,0.0,0.00041124492,0.0,0.0,nan,0.0,0.00026985293,0.0011824782,0.0,0.0,0.0,0.0,0.0,0.0,0.0,0.0
341290302,0.0,2.2487093e-06,0.0,1.470498e-07,0.0009913598,0.0,0.0,0.00026984277,0.0,0.00019240746,2.007739e-11,4.5499193e-05,nan,nan,nan,nan,nan,nan,0.0,0.00041124492,0.0,0.0,nan,0.0,0.00026984277,0.003401119,0.0,0.0,0.0,0.0,0.0,0.0,0.0,0.0
341493181,0.0,2.230799e-06,0.0,1.470498e-07,0.0009913055,0.0,0.0,0.00026983212,0.0,0.000115988485,2.002625e-11,1.5356096e-05,nan,nan,nan,nan,nan,nan,0.0,0.00041124492,0.0,0.0,nan,0.0,0.00026983212,0.0020881752,0.0,0.0,0.0,0.0,0.0,0.0,0.0,0.0
341691287,0.0,2.2233257e-06,0.0,1.470498e-07,0.0009912401,0.0,0.0,0.00026982333,0.0,9.509094e-05,1.9999915e-11,2.8100152e-05,nan,nan,nan,nan,nan,nan,0.0,0.00041124492,0.0,0.0,nan,0.0,0.00026982333,0.0028131665,0.0,0.0,0.0,0.0,0.0,0.0,0.0,0.0
342086779,0.0,2.2083016e-06,0.0,1.470498e-07,0.0009911291,0.0,0.0,0.00026980718,0.0,0.0001328462,1.994235e-11,1.6631247e-05,nan,nan,nan,nan,nan,nan,0.0,0.00041124492,0.0,0.0,nan,0.0,0.00026980718,0.0008984904,0.0,0.0,0.0,0.0,0.0,0.0,0.0,0.0
342487592,0.0,2.2135134e-06,0.0,1.470498e-07,0.0009910266,0.0,0.0,0.00026979248,0.0,3.5547106e-05,1.9907336e-11,1.32813275e-05,nan,nan,nan,nan,nan,nan,0.0,0.00041124492,0.0,0.0,nan,0.0,0.00026979248,0.000112043446,0.0,0.0,0.0,0.0,0.0,0.0,0.0,0.0
342690544,0.0,2.2172685e-06,0.0,1.470498e-07,0.000990987,0.0,0.0,0.0002697854,0.0,4.0225936e-05,1.9885368e-11,3.68907e-05,nan,nan,nan,nan,nan,nan,0.0,0.00041124492,0.0,0.0,nan,0.0,0.0002697854,3.8405215e-06,0.0,0.0,0.0,0.0,0.0,0.0,0.0,0.0
342893474,0.0,2.2115435e-06,0.0,1.470498e-07,0.0009909377,0.0,0.0,0.00026977898,0.0,9.415743e-05,1.9842662e-11,2.273997e-06,nan,nan,nan,nan,nan,nan,0.0,0.00041124492,0.0,0.0,nan,0.0,0.00026977898,3.9424012e-05,0.0,0.0,0.0,0.0,0.0,0.0,0.0,0.0
343086368,0.0,2.220041e-06,0.0,1.470498e-07,0.0009909078,0.0,0.0,0.00026977342,0.0,7.900985e-05,1.9835071e-11,1.4232002e-05,nan,nan,nan,nan,nan,nan,0.0,0.00041124492,0.0,0.0,nan,0.0,0.00026977342,0.00034601797,0.0,0.0,0.0,0.0,0.0,0.0,0.0,0.0
343294285,0.0,2.214718e-06,0.0,1.470498e-07,0.0009908634,0.0,0.0,0.00026976794,0.0,0.00015472807,1.9804054e-11,5.399049e-08,nan,nan,nan,nan,nan,nan,0.0,0.00041124492,0.0,0.0,nan,0.0,0.00026976794,0.0007765784,0.0,0.0,0.0,0.0,0.0,0.0,0.0,0.0
343487381,0.0,2.2199401e-06,0.0,1.470498e-07,0.0009908394,0.0,0.0,0.00026976317,0.0,0.00017490146,1.9797419e-11,1.9227307e-06,nan,nan,nan,nan,nan,nan,0.0,0.00041124492,0.0,0.0,nan,0.0,0.00026976317,0.0009862948,0.0,0.0,0.0,0.0,0.0,0.0,0.0,0.0
343684939,0.0,2.2099669e-06,0.0,1.470498e-07,0.0009908269,0.0,0.0,0.0002697591,0.0,0.00018903048,1.9758778e-11,4.3363046e-11,nan,nan,nan,nan,nan,nan,0.0,0.00041124492,0.0,0.0,nan,0.0,0.0002697591,0.0012297734,0.0,0.0,0.0,0.0,0.0,0.0,0.0,0.0
343882816,0.0,2.2084885e-06,0.0,1.470498e-07,0.0009907795,0.0,0.0,0.00026975546,0.0,0.00020373703,1.9742244e-11,3.2875417e-07,nan,nan,nan,nan,nan,nan,0.0,0.00041124492,0.0,0.0,nan,0.0,0.00026975546,0.0012834729,0.0,0.0,0.0,0.0,0.0,0.0,0.0,0.0
344090824,0.0,2.2037018e-06,0.0,1.470498e-07,0.0009907272,0.0,0.0,0.00026974978,0.0,0.00014765267,1.9716137e-11,2.7264787e-06,nan,nan,nan,nan,nan,nan,0.0,0.00041124492,0.0,0.0,nan,0.0,0.00026974978,0.0011392867,0.0,0.0,0.0,0.0,0.0,0.0,0.0,0.0
344684414,0.0,2.1887186e-06,0.0,1.470498e-07,0.000990627,0.0,0.0,0.00026973584,0.0,7.8042634e-05,1.965177e-11,1.144555e-06,nan,nan,nan,nan,nan,nan,0.0,0.00041124492,0.0,0.0,nan,0.0,0.00026973584,0.0014262098,0.0,0.0,0.0,0.0,0.0,0.0,0.0,0.0
344887417,0.0,2.1879634e-06,0.0,1.470498e-07,0.000990575,0.0,0.0,0.00026973104,0.0,9.639056e-05,1.9641344e-11,8.9205656e-07,nan,nan,nan,nan,nan,nan,0.0,0.00041124492,0.0,0.0,nan,0.0,0.00026973104,0.0017695571,0.0,0.0,0.0,0.0,0.0,0.0,0.0,0.0
345085217,0.0,2.1861827e-06,0.0,1.470498e-07,0.0009905552,0.0,0.0,0.0002697258,0.0,0.0001481715,1.9630872e-11,1.852081e-05,nan,nan,nan,nan,nan,nan,0.0,0.00041124492,0.0,0.0,nan,0.0,0.0002697258,0.001137047,0.0,0.0,0.0,0.0,0.0,0.0,0.0,0.0
345283341,0.0,2.1853677e-06,0.0,1.470498e-07,0.0009905038,0.0,0.0,0.00026972126,0.0,0.00012216337,1.9619863e-11,9.602241e-06,nan,nan,nan,nan,nan,nan,0.0,0.00041124492,0.0,0.0,nan,0.0,0.00026972126,0.00042675406,0.0,0.0,0.0,0.0,0.0,0.0,0.0,0.0
345491100,0.0,2.1833212e-06,0.0,1.470498e-07,0.0009904597,0.0,0.0,0.00026971532,0.0,6.895713e-05,1.9599485e-11,4.8997003e-06,nan,nan,nan,nan,nan,nan,0.0,0.00041124492,0.0,0.0,nan,0.0,0.00026971532,7.2367046e-05,0.0,0.0,0.0,0.0,0.0,0.0,0.0,0.0
345683884,0.0,2.201199e-06,0.0,1.470498e-07,0.0009904238,0.0,0.0,0.00026971046,0.0,6.966094e-05,1.962019e-11,7.417244e-07,nan,nan,nan,nan,nan,nan,0.0,0.00041124492,0.0,0.0,nan,0.0,0.00026971046,1.6710267e-07,0.0,0.0,0.0,0.0,0.0,0.0,0.0,0.0
345886830,0.0,2.2044494e-06,0.0,1.470498e-07,0.0009904028,0.0,0.0,0.0002697057,0.0,0.0002458186,1.9607668e-11,0.002481542,nan,nan,nan,nan,nan,nan,0.0,0.00041124492,0.0,0.0,nan,0.0,0.0002697057,8.4335115e-05,0.0,0.0,0.0,0.0,0.0,0.0,0.0,0.0
346089766,0.0,2.1960443e-06,0.0,1.470498e-07,0.0009912185,0.0,0.0,0.00026970703,0.0,0.00016481715,1.9565193e-11,0.0056338147,nan,nan,nan,nan,nan,nan,0.0,0.00041124492,0.0,0.0,nan,0.0,0.00026970703,0.0068588248,0.0,0.0,0.0,0.0,0.0,0.0,0.0,0.0
346287629,0.0,2.2181055e-06,0.0,1.470498e-07,0.0009910949,0.0,0.0,0.00026973514,0.0,0.0001076815,1.955634e-11,0.0007296332,nan,nan,nan,nan,nan,nan,0.0,0.00041124492,0.0,0.0,nan,0.0,0.00026973514,0.0016270465,0.0,0.0,0.0,0.0,0.0,0.0,0.0,0.0
346490564,0.0,2.2198144e-06,0.0,1.470498e-07,0.0009912926,0.0,0.0,0.00026976125,0.0,5.5968965e-05,1.9547468e-11,4.4651686e-05,nan,nan,nan,nan,nan,nan,0.0,0.00041124492,0.0,0.0,nan,0.0,0.00026976125,0.0010199572,0.0,0.0,0.0,0.0,0.0,0.0,0.0,0.0
346683438,0.0,2.2221827e-06,0.0,1.470498e-07,0.0009908901,0.0,0.0,0.00026976343,0.0,4.3922424e-05,1.9538498e-11,0.0020651442,nan,nan,nan,nan,nan,nan,0.0,0.00041124492,0.0,0.0,nan,0.0,0.00026976343,0.0010106297,0.0,0.0,0.0,0.0,0.0,0.0,0.0,0.0
346891359,0.0,2.2296551e-06,0.0,1.470498e-07,0.0009909053,0.0,0.0,0.00026975616,0.0,4.670988e-05,1.9539013e-11,0.0035603293,nan,nan,nan,nan,nan,nan,0.0,0.00041124492,0.0,0.0,nan,0.0,0.00026975616,0.00027556517,0.0,0.0,0.0,0.0,0.0,0.0,0.0,0.0
347084379,0.0,2.2317245e-06,0.0,1.470498e-07,0.0009910824,0.0,0.0,0.00026975715,0.0,2.5613348e-05,1.9519764e-11,0.0021517763,nan,nan,nan,nan,nan,nan,0.0,0.00041124492,0.0,0.0,nan,0.0,0.00026975715,6.447186e-05,0.0,0.0,0.0,0.0,0.0,0.0,0.0,0.0
347287098,0.0,2.2398738e-06,0.0,1.470498e-07,0.0009913386,0.0,0.0,0.0002697666,0.0,0.00011342606,1.9511137e-11,0.0025750732,nan,nan,nan,nan,nan,nan,0.0,0.00041124492,0.0,0.0,nan,0.0,0.0002697666,0.00014594382,0.0,0.0,0.0,0.0,0.0,0.0,0.0,0.0
347490328,0.0,2.2505194e-06,0.0,1.470498e-07,0.0009916201,0.0,0.0,0.00026978558,0.0,0.00017461946,1.9502587e-11,0.003503046,nan,nan,nan,nan,nan,nan,0.0,0.00041124492,0.0,0.0,nan,0.0,0.00026978558,0.0006271064,0.0,0.0,0.0,0.0,0.0,0.0,0.0,0.0
347687889,0.0,2.2528407e-06,0.0,1.470498e-07,0.0009919492,0.0,0.0,0.00026981343,0.0,0.00010106816,1.9494123e-11,0.017469266,nan,nan,nan,nan,nan,nan,0.0,0.00041124492,0.0,0.0,nan,0.0,0.00026981343,0.0005828898,0.0,0.0,0.0,0.0,0.0,0.0,0.0,0.0
347890848,0.0,2.2853962e-06,0.0,1.470498e-07,0.0009833638,0.0,0.0,0.00026961253,0.0,0.00010162386,1.9524845e-11,0.01891468,nan,nan,nan,nan,nan,nan,0.0,0.00041124492,0.0,0.0,nan,0.0,0.00026961253,0.01743976,0.0,0.0,0.0,0.0,0.0,0.0,0.0,0.0
348890437,0.0,2.212162e-06,0.0,1.470498e-07,0.0012410064,0.0,0.0,0.00028226775,0.0,4.6375662e-05,1.9436026e-11,0.0022258013,nan,nan,nan,nan,nan,nan,0.0,0.00041124492,0.0,0.0,nan,0.0,0.00028226775,0.0013270456,0.0,0.0,0.0,0.0,0.0,0.0,0.0,0.0
349093213,0.0,2.186266e-06,0.0,1.470498e-07,0.0013047116,0.0,0.0,0.0002903422,0.0,5.017683e-05,1.940884e-11,0.0026928966,nan,nan,nan,nan,nan,nan,0.0,0.00041124492,0.0,0.0,nan,0.0,0.0002903422,0.001038205,0.0,0.0,0.0,0.0,0.0,0.0,0.0,0.0
349291291,0.0,2.16857e-06,0.0,1.470498e-07,0.0013394471,0.0,0.0,0.00029773667,0.0,5.043085e-05,1.9402197e-11,0.0032973215,nan,nan,nan,nan,nan,nan,0.0,0.00041124492,0.0,0.0,nan,0.0,0.00029773667,0.001284172,0.0,0.0,0.0,0.0,0.0,0.0,0.0,0.0
349483870,0.0,2.157246e-06,0.0,1.470498e-07,0.0013444222,0.0,0.0,0.00030273153,0.0,4.7137157e-05,1.9406853e-11,0.0037923001,nan,nan,nan,nan,nan,nan,0.0,0.00041124492,0.0,0.0,nan,0.0,0.00030273153,0.0011774836,0.0,0.0,0.0,0.0,0.0,0.0,0.0,0.0
349691871,0.0,2.1366898e-06,0.0,1.470498e-07,0.001331929,0.0,0.0,0.0003056668,0.0,4.050389e-05,1.9390491e-11,0.004292297,nan,nan,nan,nan,nan,nan,0.0,0.00041124492,0.0,0.0,nan,0.0,0.0003056668,0.0011508344,0.0,0.0,0.0,0.0,0.0,0.0,0.0,0.0
349894807,0.0,2.1283156e-06,0.0,1.470498e-07,0.0013043563,0.0,0.0,0.00030615157,0.0,3.4202574e-05,1.9394838e-11,0.0043773777,nan,nan,nan,nan,nan,nan,0.0,0.00041124492,0.0,0.0,nan,0.0,0.00030615157,0.0010568462,0.0,0.0,0.0,0.0,0.0,0.0,0.0,0.0
350290533,0.0,2.1244452e-06,0.0,1.470498e-07,0.0012551891,0.0,0.0,0.00030320275,0.0,2.6990274e-05,1.941397e-11,0.0047086184,nan,nan,nan,nan,nan,nan,0.0,0.00041124492,0.0,0.0,nan,0.0,0.00030320275,0.0010239393,0.0,0.0,0.0,0.0,0.0,0.0,0.0,0.0
350493469,0.0,2.1074943e-06,0.0,1.470498e-07,0.0012346468,0.0,0.0,0.00030111,0.0,1.8497884e-05,1.9385974e-11,0.0047599664,nan,nan,nan,nan,nan,nan,0.0,0.00041124492,0.0,0.0,nan,0.0,0.00030111,0.0009963012,0.0,0.0,0.0,0.0,0.0,0.0,0.0,0.0
350691406,0.0,2.10157e-06,0.0,1.470498e-07,0.0012176041,0.0,0.0,0.0002990669,0.0,1.5661988e-05,1.937914e-11,0.004796214,nan,nan,nan,nan,nan,nan,0.0,0.00041124492,0.0,0.0,nan,0.0,0.0002990669,0.0009138937,0.0,0.0,0.0,0.0,0.0,0.0,0.0,0.0
350884125,0.0,2.0923815e-06,0.0,1.470498e-07,0.0012031426,0.0,0.0,0.0002972607,0.0,1.2186744e-05,1.9363487e-11,0.0049595945,nan,nan,nan,nan,nan,nan,0.0,0.00041124492,0.0,0.0,nan,0.0,0.0002972607,0.0008499983,0.0,0.0,0.0,0.0,0.0,0.0,0.0,0.0
351087283,0.0,2.0887023e-06,0.0,1.470498e-07,0.0011918686,0.0,0.0,0.0002956042,0.0,1.0543677e-05,1.935854e-11,0.0055372654,nan,nan,nan,nan,nan,nan,0.0,0.00041124492,0.0,0.0,nan,0.0,0.0002956042,0.00093136396,0.0,0.0,0.0,0.0,0.0,0.0,0.0,0.0
351487873,0.0,2.091578e-06,0.0,1.470498e-07,0.0011740591,0.0,0.0,0.00029303372,0.0,1.0388488e-05,1.9367521e-11,0.0067756274,nan,nan,nan,nan,nan,nan,0.0,0.00041124492,0.0,0.0,nan,0.0,0.00029303372,0.00079036184,0.0,0.0,0.0,0.0,0.0,0.0,0.0,0.0
351690826,0.0,2.09268e-06,0.0,1.470498e-07,0.0011672274,0.0,0.0,0.00029199687,0.0,7.945388e-06,1.9369804e-11,0.007426208,nan,nan,nan,nan,nan,nan,0.0,0.00041124492,0.0,0.0,nan,0.0,0.00029199687,0.0008151856,0.0,0.0,0.0,0.0,0.0,0.0,0.0,0.0
