timestamp,timestamp_sample,xyz[0],xyz[1],xyz[2]
707924921,707924611,3.5330933e-05,-0.00019498476,-0.00089571846
707926196,707925892,0.00089421746,-0.0002751031,-0.0103674065
707929987,707929684,0.005509494,-0.00183542,-0.028875023
708035318,708035005,-0.019453302,-0.0046137236,0.013885078
708037930,708037549,-0.0143075995,-0.0040482283,0.021693548
708041674,708041352,-0.0061468505,0.0050364407,0.02008521
708045687,708045379,0.008280835,0.010855849,0.006185966
708051962,708051659,0.01750771,0.001844492,-0.016155194
708055788,708055437,0.012160536,-0.008882434,-0.011048117
708060710,708060411,-0.0031575288,-0.0042432137,0.000895739
708063289,708062964,-0.015476678,0.002778311,0.0046627657
708067135,708066757,-0.021188293,0.011451159,0.004265521
708072113,708071808,-0.0063847248,-0.0009005866,0.008650894
708073460,708073098,-0.00045395098,-0.0064013354,0.0073800883
708077209,708076885,0.012007019,-0.013769308,0.0031322434
708080990,708080691,0.016576571,-0.0039147846,-0.007983624
708083552,708083237,0.009505963,0.007897858,-0.0124135865
708087354,708087036,0.0034716304,0.014217392,-0.006275614
708091166,708090842,-0.0032132787,0.0040130173,0.002285159
708095040,708094657,-0.0066715144,-0.0061391876,0.0098199705
708097534,708097193,-0.0045447117,-0.007511529,0.009891491
708101338,708100997,-0.0045480286,0.00034046537,0.00021884037
708105115,708104800,-0.0060772444,0.0056343274,-0.0037944228
708108935,708108611,0.00023070192,0.0012750144,-0.006001404
708112722,708112415,0.008711687,-0.008267025,-0.0011288291
708115316,708114960,0.010882163,-0.008841242,0.002854603
708119108,708118768,0.008504736,-0.0022219731,-0.0030510651
708122926,708122574,-0.0010179469,0.0059872577,-0.0025794685
708125426,708125117,-0.008792001,0.006390346,0.003862131
708129517,708129173,-0.009162643,0.0028750482,0.0047895876
708133251,708132929,-0.005318469,0.0029148264,0.0057335747
708136997,708136692,0.0015162962,0.0048374515,-0.0020361387
708139432,708139134,0.006201731,0.0027814026,-0.008265336
708143188,708142886,0.0045368033,-0.0039834976,-0.011002657
708153333,708153024,-0.0015129849,0.0034991743,0.011890607
708157169,708156831,0.0034031232,0.0007871993,0.0065402687
708163482,708163176,0.0007510883,-0.004323825,-0.004391626
708164789,708164452,-0.001828072,-0.003220535,-0.005523058
708168624,708168259,-0.0074410457,0.005754381,-0.00265394
708172360,708172058,-0.004944753,0.0086829625,0.0014044717
708174949,708174617,0.003228228,0.005661191,0.00032873408
708178742,708178405,0.01204089,-0.005063564,-0.0026105486
708183786,708183482,0.001115441,-0.005483288,-0.0010152893
708185106,708184756,-0.0042682406,-0.0019761403,0.00062163064
708188860,708188557,-0.010555942,0.008539732,0.0049125026
708193939,708193632,0.0009998789,0.0009913954,0.0056934063
708197803,708197448,0.010739342,-0.0099249305,-0.0015515086
708199080,708198723,0.011265787,-0.012517837,-0.0046212445
708202813,708202514,0.002233609,-0.0066844877,-0.007979481
708206654,708206323,-0.012627014,0.008034639,-0.0085067535
708209380,708209072,-0.013545803,0.009746751,-0.0027309924
708214434,708214121,0.005633681,0.000821426,0.008229033
708216949,708216625,0.013400905,-0.0061590197,0.0066782283
708220656,708220358,0.007484034,-0.0076926807,-0.0010955868
708224456,708224145,-0.008615002,0.0044536833,-0.006505052
708226983,708226656,-0.014090065,0.0054802224,-0.005190729
708230778,708230440,-0.0059142057,-0.0005453478,0.0029624861
708234538,708234239,0.011892151,-0.007864309,0.00561223
708238349,708238046,0.011674952,-0.0053368863,-0.0030498083
708240913,708240590,0.0007806726,0.0017109928,-0.0058595985
708244690,708244390,-0.011652962,0.0070428494,-0.0070465393
708248533,708248205,-0.007836059,0.002880159,0.003779755
708254859,708254543,0.013271679,-0.0022886095,0.0070963404
708258652,708258350,0.0058203707,0.006462237,-0.006580453
708262475,708262156,-0.006732666,0.005128215,-0.008568731
708266312,708265970,-0.007870539,-0.005902742,-0.0023785206
708270075,708269771,0.004522264,-0.010419624,0.010300364
708273885,708273581,0.008500363,-0.00056367554,0.008297764
708276426,708276125,0.0042307423,0.0058901743,-0.0007218737
708280306,708279935,-0.00612699,0.007569783,-0.0070181997
708284033,708283731,-0.0066126534,-0.005008581,-0.0044060727
708286602,708286287,-0.0018545857,-0.011197883,0.0005646497
708290389,708290079,0.0063678287,-0.0046446016,0.007848801
708294400,708294086,0.0040591517,0.010494553,0.0022294805
708298244,708297907,-0.0040325676,0.013233176,-0.0057573463
708300728,708300384,-0.006154624,0.005198571,-0.00544293
708304384,708304083,-0.0011977201,-0.013488813,-3.9341587e-05
708322110,708321805,0.0022013378,-0.00818725,-0.0025259044
708325930,708325607,0.0024682984,-0.012821718,0.004743351
708328488,708328179,0.0021199107,-0.0048702043,0.006661254
708332337,708331959,-0.0022353826,0.012456222,0.0017891448
708336099,708335760,-0.004549258,0.013098682,-0.004941403
708339927,708339574,0.00024164739,5.7760128e-05,-0.002838056
708342413,708342113,0.0025584227,-0.010611471,-0.0002527442
708346246,708345911,0.0020199765,-0.009110072,0.002344316
708350016,708349718,-0.0024847507,0.0027145585,0.0014558292
708355105,708354797,0.0006634788,0.008296486,-0.004580169
708356377,708356061,0.0028080118,0.005179988,-0.0032286209
708360188,708359878,0.0047319727,-0.008476101,0.002509941
708366514,708366215,-0.0010943266,-0.0059011937,0.0023339228
708367806,708367485,-0.0040359087,-0.00037880847,0.0011966382
708370336,708370020,-0.0034826603,0.008648714,-0.0012097614
708375621,708375318,-0.0005893343,0.007146489,-0.0037513832
708378219,708377878,0.0017237845,0.00028987924,0.0003730889
708381996,708381632,0.0016787489,-0.004340188,0.001766432
708386893,708386577,-0.0013360672,-0.001946125,-0.00078784593
708388142,708387820,-0.0009400804,-0.0002076053,-0.001048085
708391902,708391604,0.0019757901,-9.6963595e-05,-0.0049053538
708397042,708396676,0.0032189612,-0.003517113,0.003194361
708399540,708399210,-0.001349047,-0.0013263092,0.004860005
708402084,708401748,-0.004110382,0.0011043724,0.0025733504
708407151,708406831,-0.000982818,-0.00076405564,-0.00038629654
708419830,708419515,-0.0061591784,0.006238427,0.0014581969
708423616,708423318,-0.0008419342,-0.0015687583,-0.0026577485
708427470,708427136,0.006322461,-0.009481681,-0.0009604947
708430011,708429672,0.009041913,-0.009429624,-0.001327491
708433774,708433470,-0.0017201382,0.0019937274,-0.0004905004
708438848,708438548,-0.011204096,0.009794218,0.0026549755
708441422,708441108,-0.0058333008,0.0027449192,0.00035765916
708443933,708443622,0.0029937844,-0.0064993543,0.000586686
708447763,708447432,0.012515403,-0.013317189,-0.0008041673
708451559,708451239,0.0038083862,-0.0006979519,-0.0032284686
708454102,708453795,-0.0068051065,0.008940269,-0.0028925221
708458109,708457787,-0.011821576,0.013318968,0.0004238771
708461956,708461582,0.00019862596,-0.0010201132,0.0006928632
708466862,708466561,0.01454203,-0.012252715,0.0031799376
708469371,708469040,0.009146451,-0.005606052,-0.0019725037
708473190,708472842,-0.0116239,0.009642581,-0.0040632836
708478193,708477889,-0.008477923,0.010245986,0.00015992997
708479456,708479156,-0.0035361832,0.004330656,0.0010123583
708483271,708482961,0.012325132,-0.012155158,0.0048121675
708487083,708486769,0.01290843,-0.012427025,0.0010749626
708489672,708489361,0.0005487866,-0.0015340422,-0.004628842
708493465,708493123,-0.014997521,0.011711622,-0.005240373
708499763,708499459,0.0036737665,-0.0007339795,0.0042297607
708503570,708503272,0.015075108,-0.00983958,0.0076178415
708507377,708507073,0.0077068573,-0.0026108695,-0.0037627432
708511199,708510884,-0.01012163,0.008850749,-0.010131782
708514989,708514686,-0.014209841,0.0076003075,-0.0010082202
708518802,708518497,0.0025823608,-0.005757552,0.009929829
708521441,708521046,0.01140983,-0.008866826,0.009460253
708525145,708524839,0.009726102,-0.0038911926,0.00210244
708528961,708528648,-0.0045583253,0.0037057856,-0.009406386
708531566,708531198,-0.0106627,0.0024662176,-0.008116169
708535369,708535002,-0.0058513936,-0.0030744488,0.0042697233
708539320,708539013,0.005734625,-0.0049723587,0.009308719
708541901,708541594,0.007336477,-0.0021666144,0.006347166
708545568,708545268,0.0021834124,0.0064637675,-0.0050505497
708549339,708549011,-0.002762839,0.0039706337,-0.01036705
708553147,708552797,-0.003912462,-0.0050491337,-0.0008960319
708559408,708559103,0.00339034,0.0012493859,0.007593344
708563255,708562914,0.0015135326,0.010519465,-0.00038749157
708569554,708569254,-0.0025914803,-0.0047149337,-0.005699404
708570824,708570524,-0.0018048884,-0.009494021,-0.003590607
708573435,708573068,-0.0023187299,-0.012231723,0.0025241661
708579705,708579405,-0.00043523207,0.006571855,0.0030687093
708580980,708580676,-0.00021585161,0.009347722,0.00041011669
708584797,708584483,0.0037385244,0.005928948,-0.0044455403
708588587,708588289,0.0032281978,-0.0058173076,-0.0046688244
708591148,708590825,0.0002418193,-0.009286876,-0.00031418796
708594982,708594638,-0.0051552695,0.00021281088,0.0077797105
708600041,708599710,-0.0050609238,0.011240072,0.00069803145
708601321,708600982,-0.0034654178,0.011112357,-0.0011850003
708605082,708604784,0.009040962,-0.0016641188,-0.0035268532
708608897,708608595,0.0038870454,-0.010924012,-0.0048577213
708612720,708612406,-0.005777685,-0.007249397,0.0007027785
708616538,708616209,-0.007522325,0.0057692314,0.001944127
708619256,708618951,-0.0038367794,0.008422879,0.00074132223
708624297,708623985,0.009096292,-0.0013252756,0.0021158706
708626841,708626521,0.00797758,-0.006945306,-0.00017469433
708629331,708629016,0.00088716135,-0.006574876,-0.0008844205
708635538,708635237,-0.008931007,0.005284738,0.00038522496
708636871,708636518,-0.006778388,0.005875587,-0.0014428301
708640620,708640316,0.008899742,0.0022149568,0.00068882323
708644434,708644124,0.010092308,-0.0028318893,-0.0010481043
708672356,708672044,-0.0068669044,-0.0026975248,-0.0018481445
708676154,708675849,0.004076481,-0.0063700113,-0.002364439
708678727,708678388,0.010496554,-0.0010525977,0.0008433556
708682555,708682204,0.005606678,0.008421342,0.0029809729
708686355,708686002,-0.0083324555,0.008910521,-0.0029502949
708688850,708688544,-0.011463232,0.002124437,-0.0021961846
708692695,708692353,-0.0004964497,-0.007696736,-0.0006483429
708696472,708696159,0.011389194,-0.0083730165,0.003875625
708700524,708700181,0.0024555814,0.003637379,0.0033875266
708703039,708702739,-0.005500112,0.010944985,-0.0012196839
708706821,708706496,-0.010234156,0.0044955127,-0.008027234
708710506,708710209,0.0017402263,-0.0072250823,0.0010019091
708715511,708715213,0.011892613,-0.009143795,0.0037131724
708718036,708717720,0.0035116551,-0.00021355708,0.0017448791
708720573,708720272,-0.0058266115,0.012068685,-0.001474746
708725642,708725340,-0.013188909,0.011630741,-0.0075480463
708742140,708741838,-0.010704714,0.01491611,-0.006120034
708745958,708745644,-0.006707037,0.004779125,-0.0020027857
708748487,708748185,0.0070010796,-0.0076852404,0.0053806943
708752361,708751997,0.012197639,-0.014990791,0.0058107497
708757377,708757068,-0.004642198,0.0029811552,-0.003929396
708759943,708759601,-0.012503919,0.013407204,-0.0052757673
708762509,708762148,-0.010184823,0.014029866,-0.00728359
708767520,708767217,0.006812004,-0.0068473965,0.0060161008
708770117,708769764,0.011851116,-0.011101275,0.0072545004
708773858,708773560,0.00556897,-0.004968761,-0.0022113116
708777686,708777368,-0.0073136967,0.007207244,-0.00815824
708780251,708779908,-0.010326937,0.009355868,-0.007064547
708784236,708783938,-0.0031491832,0.0025692414,0.0016849091
708788014,708787713,0.00475277,-0.00844441,0.0091766985
708818297,708817976,-0.0028705634,0.0020166852,-0.006596611
708822085,708821785,-9.556264e-05,-0.0018582898,0.0016742642
708827179,708826859,-0.0013487419,-0.0007383291,0.00887342
708829734,708829401,0.0021886309,0.0025863815,0.003559693
708833567,708833212,0.0040731262,-0.0019467726,-0.0071053845
708838608,708838308,0.0021130624,-0.0039001782,-0.00331168
708839850,708839550,-0.00056796387,-0.0033660717,-0.001293378
708843676,708843357,-0.0053404756,0.0020526464,0.005643988
708847487,708847171,-0.0029271117,0.004316489,0.007057967
708849997,708849699,0.0028931068,0.002339448,0.0021376293
708853861,708853517,0.009265166,-0.004531945,-0.0059836907
708858902,708858584,-0.0016714216,-0.003532857,-0.00116447
708861503,708861134,-0.009392183,0.0022891571,0.0027443094
708864243,708863909,-0.013198803,0.006238346,0.0038635375
708869212,708868912,0.0030910023,0.0008612889,0.0023410164
708871754,708871442,0.011649843,-0.0053340564,-0.0012410478
708875497,708875192,0.008736931,-0.00817669,-0.004205394
708879225,708878924,-0.0089381635,0.00048046204,-0.00046125342
708881778,708881452,-0.014267323,0.005604943,0.0014978045
708885547,708885243,-0.006150302,0.0064841965,0.0059630163
708889349,708889040,0.011382153,-0.0012239137,0.0013816588
708891921,708891606,0.017751085,-0.006126504,-0.0026892312
708895730,708895395,0.0038721052,-0.0032441611,-0.004695986
708900764,708900460,-0.015933258,0.004354738,-0.0015735165
708903320,708903002,-0.01179416,0.0033163931,0.0022320845
708905842,708905544,0.0021237144,0.00040117113,0.008201949
708909649,708909344,0.016883707,-0.002721737,0.0031805926
708913526,708913178,0.0071201283,-0.0023139953,-0.0029063753
708919801,708919498,-0.017235985,0.0018192555,-0.005781923
708931221,708930918,0.008174922,-0.00015482007,-0.0023776735
708932497,708932187,0.0031864832,0.00015195705,-0.003236908
708973100,708972791,-0.007726759,0.0048745004,-0.0063385307
708976945,708976617,-0.0027076823,-0.008194811,-0.0036068864
708979447,708979148,0.0048625437,-0.011262329,0.00132786
708983329,708982951,0.005809801,-0.006341324,0.007992815
708987078,708986750,2.515132e-05,0.010848988,0.0034779655
708990871,708990563,-0.008686424,0.012051792,-0.0063255755
708993419,708993104,-0.005198596,0.0029329148,-0.006620745
708997307,708996922,0.0052213646,-0.010555909,-0.0015903263
709001018,709000710,0.006459302,-0.009199215,0.00421285
709004855,709004523,-0.0026872607,0.003475296,0.003482278
709007368,709007055,-0.009869346,0.010190999,-0.0030492672
709011178,709010861,-0.006559423,0.007119574,-0.0038638394
709025128,709024820,-0.0067355023,0.0071843513,-0.0033129877
709030411,709030112,-0.0020599612,0.007368101,-0.0076406873
709033000,709032663,0.0036764774,-0.0024582075,6.38198e-05
709035498,709035157,0.008293874,-0.008990475,0.005284047
709040418,709040120,-0.0015142836,-0.0064740954,0.004391335
709042928,709042619,-0.0063573336,0.0020392784,0.0010436712
709046733,709046396,-0.0055118264,0.008255149,-0.0063081607
709050506,709050201,0.0031532177,0.002313234,0.000656029
709053103,709052745,0.0063565355,-0.0018573292,0.0071310615
709056879,709056544,0.0028952085,-0.0065295314,0.00011800327
709061938,709061638,-0.0038666031,-0.00071779126,-0.0044621467
709064531,709064178,-0.0038795026,0.0038880873,-0.007433621
709067073,709066708,-0.00063981314,0.0055493363,-0.0061732223
709070803,709070504,0.002675463,0.0012861334,0.005091007
709078463,709078119,-0.0016385507,-0.004729527,0.0010475122
709080958,709080657,-0.0011928079,-0.0019356005,-0.004105262
709084767,709084462,0.0011858299,0.0013490588,-0.007174442
709088624,709088293,0.002836178,0.0040590926,0.0008539768
709092416,709092079,-0.003859637,0.0037052885,0.0046104467
709094973,709094623,-0.0054757865,-0.00048465875,0.0013237608
709098781,709098444,2.7076167e-05,-0.0060889614,-0.0028255985
709102537,709102229,0.008909288,-0.003790902,-0.003467904
709106371,709106035,0.0017686203,0.0034917376,-0.0018583167
709108920,709108585,-0.006565788,0.0067021623,0.0030053721
709112989,709112644,-0.008932296,0.0049229763,0.0028636244
709126645,709126344,-0.0034012392,0.003656922,-0.0028149248
709133005,709132697,-0.009111456,0.0031117648,0.0016383531
709134312,709133965,-0.0037565057,-0.0005310631,0.0022867615
709136855,709136493,0.009612456,-0.005326963,0.0018083368
709143139,709142837,0.006518979,0.000559949,-0.004622903
709144472,709144113,-0.0015651005,0.003959008,-0.005476885
709148292,709147915,-0.015819844,0.008774818,-0.0018944184
709152019,709151720,-0.008324085,0.0025869082,0.0014177245
709154595,709154281,0.003932969,-0.0049039954,0.0028659764
709158385,709158068,0.020094827,-0.009301498,0.002326923
709163446,709163141,-0.00064577674,-0.0006927248,-0.004062305
709167330,709166956,-0.018490218,0.004397849,-0.0022696268
709168557,709168227,-0.018166732,0.0049692844,-0.0008528225
709172343,709172023,-0.002627352,0.0009181435,0.003821619
709176137,709175829,0.01776697,-0.0038859106,0.005359876
709179956,709179644,0.009919781,-0.0005930802,0.00031760655
709183749,709183445,-0.0079085035,0.003822565,-0.008687653
709186307,709185981,-0.017244186,0.003883141,-0.0071106916
709190096,709189793,-0.0052331495,-0.00049504236,0.0018540414
709192867,709192568,0.0057118014,-0.0024208485,0.0053493013
709197969,709197635,0.0118033085,-0.002183525,0.0046376786
709200416,709200104,0.0017554117,-0.0016217994,-0.0036193759
709204113,709203809,-0.0110284025,-0.00024074675,-0.008471451
709207909,709207595,-0.008793926,-0.0029842576,-0.00061457645
709224408,709224053,-0.008658865,-0.0005619388,-0.0087428475
709228178,709227860,0.00037537352,-0.0023285032,0.002949447
709234513,709234210,0.0056498996,0.0049634897,0.006911693
709235791,709235484,0.0031913344,0.0072771963,0.0051959534
709238343,709238018,-0.00063324015,0.0056887087,-0.0024991927
709243390,709243091,-0.002961904,-0.005198139,-0.007208549
709245924,709245623,0.00037399353,-0.008738384,-0.00097394944
709249748,709249441,0.0025115742,-0.0040234984,0.005340645
709253553,709253249,1.327415e-05,0.0047701458,0.0065940404
709256134,709255784,-0.0031725843,0.00599409,0.00051672413
709259960,709259587,-0.000790179,0.0011540656,-0.0074088573
709265001,709264664,0.0021166566,-0.0074016205,-0.0006968622
709267527,709267197,0.0013792934,-0.0049167667,0.0030468844
709270041,709269740,-0.0022715088,-0.00010592722,0.00413818
709275352,709275053,-0.004172729,0.0066822856,0.00043722737
709284093,709283793,0.004981396,-0.007833456,0.0005586626
709290349,709290036,-0.0080477735,0.0022671777,0.0027363508
709291761,709291398,-0.0068833944,0.0038850324,0.0018627816
709295441,709295114,0.0016440712,0.00570128,-0.0015368732
709300490,709300191,0.010160822,-0.0027418318,-0.0017966812
709301775,709301470,0.007553791,-0.0049500624,-0.00045000055
709305616,709305274,-0.0048208055,-0.004492857,0.003985258
709310648,709310343,-0.0060695847,0.0026210696,-0.00079209654
709311919,709311613,-0.0035584464,0.004092598,-0.00033490034
709315766,709315427,0.0060914387,0.0050979583,0.000109346984
709319528,709319226,0.008043583,5.0943974e-05,-0.00083836896
709343660,709343351,-0.010287968,-0.0060099936,0.0024572972
709347460,709347142,-0.0032480487,-0.006036481,-0.0009012371
709351284,709350951,0.0059193973,0.0016623044,-0.0032740445
709353857,709353502,0.004992458,0.0069758086,-0.0018110598
709357886,709357554,-0.0012789187,0.0073756096,-0.0009465823
709361700,709361328,-0.009143184,-0.0035037235,0.00029175478
709365419,709365062,-0.0020912264,-0.009927607,-0.0005471023
709367875,709367552,0.006423148,-0.009013573,-0.0017927052
709371594,709371261,0.0052110557,0.0021509994,0.0022634936
709375369,709375068,-0.0038713173,0.009056605,0.0032984777
709380436,709380137,-0.010439743,-0.0029643583,-0.0009130195
709382976,709382673,-0.0034826396,-0.009424894,-0.0007333995
709385554,709385220,0.006376358,-0.011525628,-0.0013988971
709391864,709391558,0.0023574156,0.0076221586,-0.0003572265
709393184,709392838,-0.0024392083,0.009780118,0.00046191664
709397034,709396636,-0.0116985105,0.0096946135,-0.0014475124
709400743,709400441,-0.005019182,-0.001677662,0.0009663187
709403287,709402980,0.0053529353,-0.0076537305,0.0026231993
709407085,709406787,0.014723144,-0.008842054,0.0017587438
709410908,709410593,-0.0002147201,-0.0015481422,-0.0019685596
709413432,709413132,-0.00954452,0.004458147,-0.0020607272
709417272,709416939,-0.011371285,0.0035913587,-0.0043799016
709421060,709420745,0.0023925297,-0.0043722214,0.0029788436
709424931,709424565,0.016352754,-0.008492572,0.0029722974
709427437,709427137,0.011482965,-0.0055053667,0.0029739495
709432497,709432191,-0.012456536,0.008338736,-0.0032854767
709435063,709434710,-0.013230445,0.009936938,-0.0040213503
709437784,709437476,-0.008757366,0.005753945,-0.00221718
709441561,709441263,0.008047192,-0.0019908566,0.0072102156
709445315,709444980,0.013143552,-0.0070554707,0.005144373
709449049,709448751,-0.0010564023,-0.0014569833,-0.007319264
709452854,709452523,-0.011868996,0.0039880653,-0.0073805735
709455316,709455006,-0.010176759,0.0041693854,-0.005111029
709459158,709458815,0.0034815078,-0.0017970465,0.00548055
709462920,709462621,0.010751031,-0.0059149186,0.010568001
709466727,709466426,0.0014245777,-0.0054824892,-1.0585491e-06
709469334,709468972,-0.004769266,-0.000103721155,-0.0038211052
709473094,709472779,-0.007987507,0.0033283518,-0.0064979712
709476917,709476584,0.0010258751,0.0029367802,0.0015730591
709503529,709503229,0.003843741,-0.0009989615,0.0037375456
709504799,709504499,0.0036758857,-0.0018815993,-0.0013001452
709508693,709508331,0.0031795304,-0.0017640002,-0.007505365
709512421,709512111,0.00020100125,0.00063341146,-0.0056857103
709514963,709514651,-0.0030574568,0.002141736,-0.00088284427
709519038,709518706,-0.0055566863,0.002307069,0.008721954
709522759,709522460,0.002318792,-8.3569255e-05,0.005166085
709526514,709526207,0.007547742,-0.0032747649,-0.0065665855
709529037,709528710,0.0049516447,-0.0033977337,-0.0060261465
709534068,709533759,-0.0050340095,0.0023386409,-0.00010877496
709536624,709536278,-0.008920965,0.00035270504,0.0060471864
709546713,709546375,0.009967655,-0.002334033,-0.0046055145
709550483,709550182,0.0027029356,-0.001517006,-0.00479713
709554347,709553998,-0.0127786305,-0.0006212075,0.0013045142
709556856,709556526,-0.012304978,-0.0009900472,0.006371936
709560653,709560340,0.00045390378,0.0010488192,0.0043132496
709564445,709564140,0.012232551,0.0016332408,-0.0042796484
709568327,709567954,0.0067506754,0.0017251852,-0.0045447205
709570781,709570483,-0.0041797757,-0.00059427565,-0.002551494
709574597,709574292,-0.012450532,-0.0045439326,0.00058255787
709578406,709578106,-0.0019064749,-0.0018686149,0.0046287715
709583481,709583177,0.013240743,0.0041898536,-0.003984844
709586012,709585711,0.008543073,0.0017719049,-0.0031800368
709588590,709588252,-0.00034834343,-0.0022893213,-0.0025753097
709606549,709606227,0.001458469,0.005179189,-0.003102536
709610227,709609930,-0.01004338,-0.005746951,-0.0039711166
709615234,709614935,-0.0024598967,-0.0037690513,0.001406648
709616535,709616218,0.0012186609,-0.00086052116,0.0010618956
709620286,709619978,0.009453436,0.0070470897,0.0005273883
709624089,709623785,0.002887404,0.006617713,0.0004928497
709627929,709627590,-0.0077637606,-0.0040408545,-0.0011895036
709630485,709630134,-0.00771773,-0.010210659,-0.0027352474
709635505,709635202,0.004426866,-0.0064755986,0.004228549
709638076,709637745,0.008211222,0.00090012525,0.004024329
709641872,709641562,0.00027785014,0.007048118,-0.0013397927
709644386,709644085,-0.0047873612,0.0059757163,-0.0018049966
709648223,709647893,-0.0062186616,-0.004629543,-0.0037067607
709651996,709651698,0.0008778235,-0.0075690644,-0.0026109267
709672322,709672002,0.00798374,-0.008459923,0.00078994787
709676125,709675819,0.006527459,-9.853347e-05,0.0025612216
709679919,709679618,-0.007729453,0.004745731,-0.0015409335
709685208,709684909,-0.0073571135,0.0015115,-0.0010742471
709686482,709686162,-0.004075568,-0.00060159445,-0.002209199
709690208,709689908,0.009360404,-0.0073554297,0.0010530299
709697806,709697456,-0.00357393,0.0025714433,-0.0011139406
709698997,709698673,-0.0072999205,0.005126903,-0.0043744864
709701515,709701210,-0.012098705,0.006948891,-0.0049378686
709705318,709704997,-0.0036026223,0.0035068307,-0.00078414934
709707859,709707535,0.0034963058,-0.0006921324,0.001337168
709711647,709711343,0.00863343,-0.007908491,0.00619861
709716735,709716431,-0.0039916513,-0.0045720628,-0.0020704628
709725606,709725307,0.0036814404,0.0050771707,0.001719187
709729503,709729125,0.004129609,-0.0021592556,0.006634786
709732020,709731653,0.0027352187,-0.0065746917,0.00591197
709735754,709735452,-0.0031389936,-0.002647698,-0.0036600432
709740827,709740528,-0.0034240899,0.005008152,-0.004195018
709743363,709743065,-0.0012203816,0.0065614455,0.0007200143
709745915,709745609,0.0020870015,0.0011960471,0.0049941125
709750979,709750680,0.0027853288,-0.009134313,0.0060291556
709753579,709753225,0.0017812941,-0.008818196,-0.0008957019
709757381,709757026,0.00023559427,4.6391797e-05,-0.009695237
709761138,709760832,-0.003329186,0.008918818,-0.002935915
709791591,709791289,0.008402156,-0.005866541,-0.0014017167
709797931,709797632,0.0014035605,0.0028214755,-0.0055024503
709799204,709798902,-0.003081114,0.0042383033,-0.00458979
709803012,709802707,-0.010386769,0.0043889214,0.0026666042
709808083,709807784,0.0003790965,-0.0062212115,0.0037839254
709809381,709809055,0.005773568,-0.005339985,0.0034088572
709813203,709812868,0.01211893,-0.0022375,-0.0039308537
709816985,709816667,-6.0661485e-05,0.002219892,-0.004396063
709819531,709819215,-0.008977758,0.00067455147,-0.0008133093
709823315,709823010,-0.010972844,-0.0026349484,0.005135834
709828414,709828097,0.0060815653,-0.00048818637,0.0049916436
709830997,709830633,0.013602168,0.0030005174,2.392284e-05
709833513,709833171,0.01340879,0.0036406196,-0.00584115
709837328,709836989,-0.0042371484,0.0003459479,-0.00750887
709841079,709840776,-0.0135694975,-1.428849e-05,0.0013997555
709844901,709844583,-0.0028970644,-0.0006951886,0.002529456
709848913,709848609,0.0108403675,0.0009977296,0.006456747
709851441,709851117,0.013639263,0.0008035874,0.003353798
709855199,709854892,0.003012511,-0.0036616586,-0.0055051837
709858938,709858625,-0.011785208,-0.0068933526,-0.00088074716
709861534,709861158,-0.010458266,-0.006717485,0.0014046296
709865269,709864916,0.0009767549,-8.713174e-05,0.0027007929
709869001,709868696,0.010062518,0.004723688,0.0019882312
709872804,709872504,0.0063536703,0.002676177,-0.0024925224
709875348,709875039,-0.0034054215,-0.0017061571,-0.0051671346
709879152,709878848,-0.009321141,-0.0046458472,-0.00096763374
709882961,709882659,-0.004071112,0.002292094,0.0008755111
709889318,709888999,0.008005573,0.0051504467,0.0045930035
709893147,709892807,0.00027341628,-0.0023386516,-0.004204458
709899520,709899157,-0.005436801,-0.006256723,-0.0029669665
709900725,709900420,-0.0032650952,-0.00409598,-0.0021606218
709904528,709904227,0.0017167763,0.0034499937,0.0036744468
709909623,709909317,0.004161434,0.004314531,0.0035367005
709910880,709910575,0.0023821096,0.0021629755,7.76893e-06
709914732,709914389,-0.0015584207,-0.0047888206,-0.0035861966
709918490,709918186,-0.0024534175,-0.0042017996,-0.0037278666
709921091,709920734,0.00052641705,0.00014443016,-0.00035597762
709924830,709924529,0.00076764886,0.004965383,0.0037323844
709930146,709929838,-0.0002368182,0.0026823673,-0.00035613985
709933939,709933629,-0.0010461197,-0.0030366734,-0.0053760563
709935140,709934834,-0.0007594484,-0.00446787,-0.004966065
709938881,709938581,0.00023098435,-0.003739872,-0.00055721035
709943884,709943583,-0.0007521878,-0.0019272523,0.006102193
709946454,709946111,-0.003330769,0.0018729763,0.0060597244
709948945,709948642,-0.0015452068,0.002352127,0.0028682458
709955308,709954986,0.0040376773,-0.0005833632,-0.0034038082
709956578,709956277,0.003654597,-0.0016306868,-0.0014753004
709960376,709960068,-0.0018576103,-0.0030487655,0.0007452844
709964170,709963869,-0.0035229707,0.00019995247,0.00216721
709966792,709966425,-0.002460853,0.003908753,0.0010063663
709970568,709970215,0.0030087072,0.005782127,-0.0051709516
709975599,709975290,0.0021753001,-0.0020579144,0.00085349876
709976911,709976576,0.0013870649,-0.0053592003,0.0038875628
709980662,709980364,-0.0016338404,-0.008910913,0.0057921517
709984480,709984176,-0.0029417465,-0.0050635473,0.0027886634
709988330,709987987,0.00047297284,0.004985705,-0.0014275869
709990826,709990516,0.0016179512,0.008376045,-0.004012703
709995895,709995594,-0.0021918337,-0.0005611744,0.0021250518
709998520,709998179,-0.001710525,-0.008213795,0.0026018345
710002236,710001937,-0.000664831,-0.008886108,-0.00082249055
710006051,710005747,0.00037706658,0.005225219,-0.0013632054
710008616,710008303,0.0009064808,0.01199157,-0.0033104517
710012703,710012363,-0.000437488,0.009488724,0.0005221965
710016375,710016058,-0.0033594712,-0.008294334,0.0065123867
710018967,710018594,-0.0029770087,-0.016017942,0.0039556003
710022694,710022382,0.00011807532,-0.00931872,-0.00048620213
710026429,710026055,0.0030602654,0.0064511118,-0.0026577974
710030215,710029875,-0.0005060908,0.010467698,-0.0043359203
710036504,710036201,-0.0020690984,-0.009317748,0.002854858
710040361,710040014,0.008352823,-0.0092195645,-0.00031383568
710045387,710045084,0.0032797733,0.009865125,0.00020331341
710047946,710047632,-0.0028602134,0.0147331655,-0.0022528437
710050474,710050161,-0.009033178,0.010124334,0.00017789858
710056812,710056505,0.0007714514,-0.012748098,0.00015999055
710058100,710057777,0.0048663733,-0.013366994,-0.0011174127
710061976,710061599,0.008548019,-0.0035622308,-0.0053173522
710065777,710065408,-0.00012421318,0.00812843,-0.0035874294
710068231,710067927,-0.007821781,0.008252582,-0.0024381548
710072037,710071734,-0.009437126,-0.002991837,0.0056359447
710077127,710076808,0.0072682877,-0.00777892,0.004195302
710078391,710078079,0.009975537,-0.00553065,0.002313183
710082189,710081888,0.009683056,0.0063261446,-0.0043276413
710085992,710085691,-0.006636414,0.0078101526,-0.0038162232
710089821,710089503,-0.012322143,0.0015611293,-0.00032007525
710092686,710092337,-0.0067229853,-0.00273813,0.003959503
710098867,710098551,0.011737535,-0.0019791157,-0.00031143156
710100114,710099798,0.008894602,-0.00018163635,-0.0021371096
710103846,710103548,-0.003248536,0.0025568048,-0.003824538
710106339,710106033,-0.012407189,0.00024030145,-0.005411791
710110163,710109811,-0.009599503,-0.0022182518,0.00025520337
710113936,710113601,0.0069122585,-0.0022008743,0.0073899888
710117728,710117424,0.0127441455,0.0015435402,0.0011128437
710120320,710119961,0.009194541,0.0007285207,-0.0034440153
710124073,710123762,-0.0035251377,-0.00019340345,-0.0065953955
710127871,710127569,-0.011172829,-0.0014485414,-0.0037026217
710131762,710131388,-0.0047076805,0.0024746375,0.0068015223
710139311,710138989,0.005683668,-0.0019781638,0.0003408169
710141899,710141527,0.0006373544,-0.006366808,-0.0022592815
710146924,710146622,-0.0075066555,-0.003930811,-0.006144344
710149480,710149165,-0.00678907,0.0022643004,-0.00078800885
710152004,710151679,0.0014493323,0.006083187,0.0068457313
710158347,710158023,0.009309673,-0.0047957473,0.00016058699
710159594,710159293,0.008044133,-0.007329691,-0.0016602633
710163462,710163102,-0.0037069186,-0.005620478,-0.007603593
710167239,710166913,-0.008681482,0.002829618,-0.005261725
710169779,710169445,-0.0064093913,0.007668554,0.0026205187
710173629,710173277,0.0022929534,0.005029946,0.0070383986
710178824,710178523,0.0076474003,-0.0053155795,0.00046327294
710180057,710179758,0.006780073,-0.006650604,-0.0020583353
710183809,710183512,5.657636e-05,-0.0054595214,-0.010273763
710187580,710187281,-0.0068917144,0.0037772788,-0.003829232
710191359,710191020,-0.0037664045,0.0041280515,0.009893787
710193875,710193565,0.00409902,-0.0005664249,0.008146855
710200226,710199899,0.0054896926,-0.004085214,-0.0035999417
710201493,710201169,0.0025212038,-0.0010466415,-0.00585401
710205298,710204976,-0.0059844865,0.004759166,-0.008761755
710207833,710207513,-0.008101759,0.0044198157,-0.000119568824
710211647,710211322,-0.00094183127,-0.002482972,0.006909231
710215457,710215140,0.005784698,-0.0036228972,0.0027476926
710219237,710218934,0.00632859,0.0004790129,-0.004103208
710221795,710221477,0.0010205203,0.0019071334,-0.0071328687
710225604,710225288,-0.009470238,-9.741206e-05,-0.003246005
710229395,710229089,-0.0059479717,-0.007367487,0.008102796
710233260,710232914,0.0030691219,-0.0051170187,0.0059376694
710239539,710239238,0.0046147904,0.0061672633,-0.0059733517
710243348,710243045,-0.0012223618,0.0030159862,-0.0069281617
710248419,710248120,-0.005964872,-0.006839943,0.005661257
710251019,710250660,-0.00079999043,-0.002560933,0.006998202
710253508,710253197,0.0024340083,0.003026537,0.0033304645
710258796,710258481,0.0028755073,0.012125844,-0.001983772
710261340,710260985,-0.0024457013,0.0064219777,-0.0053474074
710263782,710263482,-0.0018618773,-0.0038990849,-0.003579402
710268792,710268493,0.0021691443,-0.014587594,0.004462169
710271302,710270993,0.0019450171,-0.008432256,0.0013068744
710275095,710274783,0.0031330178,0.009007915,-0.0032447632
710278880,710278579,-0.0017410843,0.010090126,-0.0005036513
710281444,710281125,-0.0019658913,0.0021892185,0.0001326976
710285222,710284919,-0.00293234,-0.0136176525,0.0047711963
710289027,710288728,0.0022018736,-0.009079508,0.004262786
710292840,710292534,0.0015734866,0.009754694,-0.0031937782
710295451,710295082,0.0009428841,0.014480385,-0.00420418
710300463,710300149,-0.0032861475,0.0014244982,-0.003298364
710303000,710302688,-0.0019028404,-0.011162714,0.000982977
710306812,710306512,0.003326979,-0.014649653,0.0037150357
710309343,710309032,0.0025843582,-0.005480508,0.0011605475
710313232,710312848,-0.0007058309,0.011706127,-0.0022835839
710316957,710316644,-0.003761734,0.011476127,0.00028123695
710320759,710320452,-0.0062585934,-0.0059269555,0.0018695133
710323321,710322994,-0.00063754636,-0.014466977,0.0043821963
710327136,710326814,0.0036332018,-0.009490662,0.0019527681
710330957,710330610,0.0050687687,0.0076773656,-0.004385756
710334772,710334431,-0.0050342465,0.0122460285,-0.0042905156
710337528,710337217,-0.0054936265,0.006243375,-0.0015899395
710341267,710340956,-0.00064230274,-0.0075229607,-9.9297045e-05
710345013,710344715,0.0046352674,-0.009491245,0.0026311616
710350001,710349702,0.0025305068,0.0042367554,-0.0018926724
710352516,710352215,-0.0040206853,0.0059089707,-0.0025173207
710355004,710354706,-0.0069431863,0.002936762,-0.00096811255
710360102,710359791,-0.0021270385,-0.0038730467,0.0014945817
710362643,710362336,0.005153724,-0.006259671,0.002949616
710366461,710366136,0.008302561,0.0015784918,-0.0014030646
710370242,710369942,-0.001548439,0.003515338,-0.0050873174
710372847,710372507,-0.005492139,0.0021241668,-0.0022427768
710376649,710376333,-0.00483835,0.00033415764,0.0012369134
710381674,710381364,0.0023690644,0.0012792351,0.0038485778
710382969,710382634,0.0040633045,0.0011686563,0.0040801778
710386760,710386459,0.0033670098,-0.001808713,-0.00037095285
710390548,710390247,0.0010930705,-0.0049737915,-0.0047533936
710394361,710394052,-0.0041826484,-0.0010649208,-0.0006007982
710396949,710396599,-0.003612149,0.003632136,0.0013485806
710400706,710400398,-0.0012874153,0.006097087,0.003223099
710404520,710404204,0.006124341,-0.0017972644,0.0026603495
710408332,710408014,0.0063324906,-0.00789425,-0.003177544
710410851,710410550,0.0016067666,-0.00841516,-0.005417833
710414694,710414358,-0.0043869014,0.004273647,-0.0013365576
710418554,710418174,-0.0035833817,0.010695072,0.0012545766
710422490,710422187,0.0020063447,0.0011873994,0.005841749
710424993,710424689,0.008244502,-0.007115605,0.004361485
710428767,710428460,0.008329616,-0.010829831,-0.0022448536
710432569,710432221,-0.0020318187,0.000224989,-0.0033089314
710436305,710435987,-0.009751513,0.010723416,-0.0013070691
710438787,710438484,-0.008077776,0.0097342245,0.0016105904
710442596,710442296,0.0022300938,-0.0044696024,0.0051941983
710446392,710446080,0.012902407,-0.011542531,-0.00013060731
710451469,710451160,0.0008428733,0.0010295019,-0.0042850794
710454052,710453710,-0.008316422,0.008379124,-0.0030234423
710456538,710456235,-0.0106590465,0.011045122,0.00073627493
710462879,710462578,0.00642735,-0.0093130795,0.006716838
710464197,710463848,0.010040196,-0.01308552,0.004607681
710468035,710467662,0.01066631,-0.0071121426,-0.0062384256
710471783,710471461,-0.00648984,0.0055281627,-0.009179804
710474321,710474001,-0.0124550285,0.010815443,-0.004502447
710478188,710477807,-0.00646451,0.00089102995,0.003715248
710483190,710482882,0.0121295145,-0.007568306,0.007467645
710484466,710484158,0.013354211,-0.0074369726,0.0041102213
710488322,710487961,0.004555249,0.00052482,-0.006264244
710492070,710491767,-0.010094869,0.0058079604,-0.0062501202
710495934,710495576,-0.009559455,-0.0013708754,0.0019416516
710498445,710498117,5.6095694e-05,-0.006712334,0.006259586
710503715,710503406,0.011285707,-0.0038987445,0.001946013
710506219,710505914,0.0069020274,0.0042755557,-0.0058597308
710509991,710509687,-0.0066576074,0.00675292,-0.009650774
710523796,710523489,0.009342761,0.0049884245,0.00062468124
710527613,710527296,0.00029845105,0.008564128,-0.0076278765
710530184,710529835,-0.0049438505,0.0009339696,-0.006548423
710533985,710533648,-0.0023884766,-0.01120958,0.002094178
710537767,710537448,0.0031421494,-0.008764596,0.0067164227
710540303,710539985,0.004245812,0.0013855286,0.0058554737
710544109,710543793,-0.00027227215,0.013848185,-0.0026699603
710547907,710547601,-0.001381704,0.0029483493,-0.0069785044
710552975,710552676,-0.0009184225,-0.01124556,0.00024698197
710555539,710555221,-8.647734e-05,-0.007283602,0.0021096857
710558059,710557757,0.0005610477,0.00030682993,0.005152003
710563147,710562828,0.0007406912,0.013723303,-0.0010333086
710575826,710575521,0.00019434013,-0.006667866,0.0020258978
710579671,710579332,-0.0016523337,0.011179109,0.0032281633
710583649,710583345,0.001142657,0.010562541,-0.0027376849
710586187,710585887,0.000986309,0.0007221289,-0.004597431
710589949,710589639,0.003347645,-0.011444171,-0.0005644456
710593711,710593383,0.0005676453,-0.005992019,-0.00081133225
710599942,710599643,-0.0020526869,0.0106668165,-0.0002140107
710603769,710603435,0.0033479277,0.0032433067,-0.002570717
710610090,710609780,0.0010470891,-0.009341325,0.0003603731
710611410,710611061,-0.00013825063,-0.007809768,0.00055158924
710613929,710613598,-0.0026539073,-0.0026930065,-1.1940595e-05
710618961,710618663,-0.0040137894,0.0048948363,0.0022609695
710621532,710621199,0.0021258271,0.004217887,0.00152727
710625327,710625008,0.0047509545,-0.002503689,-0.00016488261
710630397,710630084,-0.00032154244,-0.0037046631,-0.0005239761
710631680,710631365,-0.0020845612,-0.002130358,-0.0019215054
710635460,710635158,-0.005882021,0.0016539546,-0.0019948042
710639294,710638969,-0.00014297818,0.00027002915,0.00205985
710641848,710641531,0.0018651241,-0.0005685328,-0.0007656251
710645619,710645317,0.0010847765,0.0019963505,-0.000121688936
710650698,710650389,-0.0037021565,-0.00028725513,7.759522e-05
710653246,710652926,-0.0013628787,-0.004848486,-0.001808297
710655782,710655472,0.0016936508,-0.008561611,0.0005187092
710659586,710659284,0.0049029686,-0.0047641993,0.0023525083
710663388,710663075,0.00037206677,0.004258968,-0.0019427267
710667551,710667202,-0.0063829413,0.008735989,0.00053138024
710671153,710670853,-0.0034132225,-0.0024279656,0.00016309119
710673665,710673360,0.003180525,-0.008505013,0.00011834885
710677453,710677138,0.007874383,-0.008710003,0.0019702436
710681327,710680943,0.0021757195,0.004813524,-0.0026656287
710684979,710684657,-0.008283559,0.014618893,-0.0017237447
710687516,710687188,-0.0059782933,0.008776682,-0.00047713536
710691312,710690995,0.0020219714,-0.008001391,0.00050276855
710695108,710694802,0.01163307,-0.015753157,0.0035185423
710701512,710701153,-0.0069810557,0.010833665,-0.003543629
710705267,710704954,-0.011757609,0.012800216,-0.0013477512
710711618,710711298,0.011253952,-0.014307415,0.002780947
710712886,710712571,0.012940147,-0.016109774,0.0036408533
710715456,710715126,0.011788199,-0.011615681,0.0025867552
710743329,710743021,-0.012193672,0.009564259,-0.004754986
710747421,710747096,0.00026301472,-0.0029207836,0.0051491107
710752396,710752083,0.013127519,-0.010329538,0.005362431
710755080,710754658,0.0066182953,-0.0011275151,-0.0013976056
710757461,710757148,-0.0036852933,0.0076900334,-0.007962172
710761157,710760843,-0.014640609,0.009595654,-0.0064302743
710764966,710764623,-0.0062752874,-0.00033593946,0.0053278813
710768766,710768403,0.007083258,-0.009662747,0.007150647
710772517,710772213,0.01066596,-0.0023375673,-0.0020432263
710775063,710774748,0.0040837554,0.0050178897,-0.006841843
710778896,710778581,-0.007606438,0.007623654,-0.008955305
710782662,710782361,-0.0061759814,0.0010774059,0.003248992
710786489,710786171,0.0033194055,-0.0030153934,0.011618586
710789016,710788707,0.008027937,-0.00055405125,0.0090017095
710792850,710792514,0.0033491314,0.0036031152,-0.0018720024
710796679,710796329,-0.0028109646,0.001448462,-0.009631115
710802973,710802667,-0.0046575256,-0.0086997105,0.006385522
710806807,710806470,0.0030553034,0.00041908168,0.008310972
710811867,710811548,0.003574652,0.008672406,-0.0015720896
710814447,710814105,0.0015693851,0.0050145756,-0.0059013637
710816991,710816637,-7.9090496e-05,-0.003971375,-0.008149563
710823276,710822968,-0.0027276594,-0.004030208,0.0076848594
710824575,710824238,-0.0017055225,-3.747911e-05,0.008240652
710827115,710826774,0.0010062483,0.0072739464,0.0042480254
710856283,710855960,0.006991489,-0.008779376,-0.0051927543
710858827,710858501,-0.0024507684,-0.00818395,-0.0026544582
710863874,710863575,-0.011776009,0.0055552907,0.0016606213
710866427,710866112,-0.0041582887,0.008147484,0.0018686618
710870279,710869928,0.008337277,-1.0278746e-05,0.0027275537
710874037,710873727,0.011947239,-0.00781563,-0.0011511527
710876649,710876302,0.0028979217,-0.007969958,-0.0024672411
710880369,710880071,-0.010185322,0.0012757351,-0.00062293635
710884187,710883879,-0.007402882,0.00608145,0.0012041463
710887991,710887688,0.0055113453,0.0020286357,0.0012052245
710890526,710890223,0.01166756,-0.0030482253,0.0024171418
710895600,710895300,-0.00069663604,-0.0024303067,-0.004810897
710898143,710897837,-0.009014561,0.0015388828,-0.0047593783
710923581,710923282,0.003635558,-0.00518887,0.005363634
710926095,710925775,0.0077640247,-0.0040810355,0.00393976
710929912,710929565,0.0044728816,0.0061228937,0.0020442158
710934940,710934638,-0.0085041225,0.006964733,-0.0073306486
710936255,710935919,-0.008551342,0.003230211,-0.0060938396
710940076,710939721,-0.0009492867,-0.009731432,0.002291931
710943820,710943521,0.009166645,-0.012145958,0.0039237905
710946370,710946057,0.008358595,-0.0017805895,0.003290618
710950190,710949892,-0.003560919,0.014775282,-0.0016589207
710955244,710954942,-0.00839653,0.0040586884,-0.0055263657
710985698,710985396,-0.0037830076,0.0053575146,-0.0025234488
710989576,710989211,-0.011353279,0.015651966,-0.0035956525
710992054,710991745,-0.008482949,0.0093851825,-0.0028787286
710996052,710995751,0.0022343574,-0.00637937,0.004550603
710999932,710999577,0.009190814,-0.01394243,0.0030845737
711002328,711002001,0.007930713,-0.0069770636,-0.0019284327
711006135,711005794,-0.0056439564,0.008969277,-0.0065768673
711009842,711009542,-0.007986965,0.009930862,-0.004397148
711016159,711015856,0.0050986754,-0.010426209,0.008219058
711017447,711017123,0.0066826316,-0.011022854,0.0066815824
711019959,711019660,0.008221742,-0.0043809707,0.001520233
711023795,711023485,-0.004022879,0.0055513517,-0.006125935
711027666,711027311,-0.006624484,0.008967544,-0.0021153153
711031400,711031081,-0.0021357986,-0.0010920338,0.0003617584
711045361,711045040,-0.004317487,0.0007966865,-0.0026724003
711047888,711047578,-0.004110475,0.00054463267,0.002334877
711051697,711051395,-0.0031325654,-0.0008323836,0.005546256
711055512,711055199,-0.00022078682,0.0010302971,0.0058354014
711060576,711060277,0.006326241,-0.0015980963,-0.0050636604
711061913,711061542,0.006474697,-0.0044103684,-0.007271596
711065682,711065350,0.0026174444,-0.005788852,-0.0033350133
711070721,711070419,-0.005627276,0.0067085624,-0.0011178681
711073340,711072969,-0.0063376906,0.0091247065,0.0036629087
711077360,711077022,0.00071362744,0.0014865302,0.0043322155
711081023,711080725,0.009314919,-0.008491185,-0.001085237
711083619,711083288,0.0063997563,-0.009520088,-0.0015769835
711087328,711087003,-0.0029514818,0.0018285565,-0.0007402123
711092311,711091993,-0.012696389,0.010338418,0.0011704832
711093625,711093272,-0.0092268195,0.0072596907,0.0025189174
711097462,711097086,0.008779116,-0.006933609,0.004816335
711101173,711100874,0.013733536,-0.012978313,-0.0003049144
711105006,711104680,0.00062295265,0.00090243155,-0.0020876992
711107538,711107219,-0.013887529,0.008670312,-0.0031018378
711111358,711111026,-0.013173183,0.010470759,0.0013179996
711115177,711114837,0.0038806945,-0.0011554349,0.007760453
711118988,711118641,0.016472876,-0.008773002,0.002044843
711121493,711121178,0.010046898,-0.0038043985,-0.0030610312
711125315,711124983,-0.006079477,0.004219296,-0.006185394
711143061,711142751,-0.005421663,0.0036475628,-0.0063645467
711146882,711146560,-0.016040059,0.0049850126,-0.0049947216
711149398,711149100,-0.011136682,-0.0013299307,0.001574982
711153207,711152902,0.0049356115,-0.0046441313,0.010365828
711157240,711156901,0.011955789,-0.0002054482,0.0031677808
711163615,711163245,-0.008954622,0.004568134,-0.01007148
711164808,711164496,-0.011171677,0.0021455034,-0.009632778
711167278,711166955,-0.0072850375,-0.0057988684,-0.0025375956
711173503,711173202,0.007470777,-0.0019415001,0.0113816215
711174776,711174476,0.0076006404,0.002371142,0.009533417
711177344,711177013,0.0013283617,0.009163434,-0.0014990703
711182403,711182093,-0.0058889063,0.003262928,-0.008313165
711192543,711192241,0.0035634963,0.0016087327,0.008790073
711195142,711194803,7.551962e-05,0.009571514,0.0009861578
711198934,711198593,-0.0008045825,0.0068640443,-0.005134866
711203967,711203664,0.002670228,-0.011972933,-0.0022708909
711206514,711206200,0.001989653,-0.0137291225,0.0027006732
711209092,711208775,0.0017050131,-0.00880252,0.005907143
711212849,711212547,-0.006000009,0.008339761,0.002087469
711216691,711216356,-0.0017873907,0.0096765915,-0.0049753995
711220482,711220161,0.002778274,-0.0026658778,-0.0027550682
711224277,711223965,0.0051113116,-0.01051653,0.0030771373
711226827,711226502,-0.0005657385,-0.0079176575,0.005293466
711230658,711230318,-0.008346352,0.0031216776,0.0027855851
711234441,711234120,-0.003945053,0.007885114,-0.0017406137
711237033,711236668,0.0031677892,0.0027919067,-0.003301666
711240984,711240687,0.0056205685,-0.007826544,-0.00017363243
711244743,711244428,0.000509742,-0.0084396005,0.0021602316
711248498,711248175,-0.0079066595,-0.00068159425,-0.00011851678
711250982,711250673,-0.0068647,0.0033283741,0.0010612451
711254732,711254426,0.0036298113,0.0069663464,-0.0028782329
711258544,711258228,0.0066735325,0.0017856003,-0.00031839902
711263606,711263303,-0.0059897313,-0.0020126894,0.0012037939
711264897,711264586,-0.009614192,-0.0012167667,-0.00090501964
711268750,711268386,-0.004435119,-0.0024375198,-0.0007735276
711275029,711274724,0.009270397,0.00091837876,0.00023338874
711276304,711275994,0.0066487966,0.0009752103,1.6346761e-05
711295341,711295028,0.004069914,0.004747294,0.00087060547
711296598,711296298,-0.00081911066,0.008783789,0.0009287295
711300451,711300111,-0.010041658,0.00895194,-0.003397078
711304210,711303910,-0.0032021992,-0.004749148,-0.00039910458
711306782,711306449,0.008208239,-0.011275855,0.0014461929
711310596,711310286,0.011708551,-0.0083339065,0.002408542
711314361,711314062,7.514996e-05,0.004963458,-0.002014547
711319442,711319141,-0.014474846,0.009740907,-0.0020904078
711320923,711320616,-0.011047835,0.0054565948,-0.0014050596
711325967,711325664,0.010951371,-0.015606516,0.0032512383
711328475,711328169,0.013670716,-0.012517552,0.0049893856
711332351,711331987,0.0012380689,0.0027937754,-0.0023706427
711366410,711366099,0.009898247,-0.009754144,0.0036144494
711370227,711369898,-0.004196709,0.0031309042,-0.0065623345
711375285,711374973,-0.010320723,0.010143233,-0.0024652893
711377844,711377526,-0.0034001223,0.003572917,0.0047761723
711380366,711380052,0.0045250566,-0.0031317016,0.007097134
711385427,711385125,0.0051422403,-0.004878923,0.0028310912
711387977,711387664,0.0007183921,0.00060910574,-0.00695173
711391792,711391468,-0.008650572,0.004688296,-0.013016291
711398167,711397824,0.0027713599,-0.002101333,0.008072107
711402168,711401866,0.005547014,-0.003407928,0.0073447046
711407205,711406905,0.00078242266,0.002003418,-0.0041163126
711408457,711408142,-0.0013090313,0.0014481653,-0.006224899
711412289,711411933,-0.0024945668,-0.0017993806,-0.0065476624
711415925,711415625,-0.0033029858,-0.002414733,0.0055840523
711419698,711419395,-0.0005518244,0.003132701,0.0066368785
711423499,711423195,-8.054495e-06,0.004656298,0.002649809
711427328,711427001,0.00567613,0.00053352804,-0.004287914
711431184,711430833,0.005369935,-0.005783743,-0.0073546125
711433681,711433351,9.238802e-05,-0.003949758,0.00030896792
711437496,711437154,-0.007973853,0.0026072694,0.006340442
711440039,711439696,-0.009640457,0.005994872,0.004453414
711443800,711443502,0.001974077,0.00054639456,0.0015025381
711447613,711447305,0.013607949,-0.007413396,-0.0044993833
711451431,711451113,0.0040576174,-0.006390106,-0.0030963253
711453947,711453648,-0.007926321,0.0017183295,-0.0007217343
711457785,711457465,-0.016061578,0.0044578877,-0.00025006602
711461628,711461274,0.0012484544,0.0016630625,0.0026108455
711467926,711467625,0.013486142,-0.006807282,-0.0046754526
711471717,711471414,-0.0041465797,-0.0016893041,-0.0036071194
711476811,711476491,-0.015990619,0.0052354373,-0.0012724643
711479416,711479037,-0.0054671788,0.0018465334,0.002902142
711481922,711481581,0.00739398,-0.0012965692,0.006376266
711487182,711486863,0.011919372,-0.001121008,-0.0012562879
711489731,711489420,-0.0012679975,-0.0014162274,-0.005992515
711493425,711493097,-0.016848747,-0.001176867,-0.0068119466
711499654,711499353,0.0065782717,-0.0036389043,0.007482526
711503496,711503156,0.017043699,0.00028794998,0.0078054066
711507279,711506949,0.0032090326,0.0037269855,-0.0049155694
711509806,711509486,-0.010340554,0.0043652593,-0.00903469
711513659,711513292,-0.011370761,-0.0017511275,-0.004617853
711518676,711518368,0.007565269,-0.0042727627,0.005494567
711522481,711522174,0.009811864,0.003530853,0.0057550455
711525012,711524711,0.0015680564,0.0067770504,-0.003724328
711527573,711527250,-0.0073699034,0.0061592516,-0.008445307
711532689,711532333,-0.0029022836,-0.0067299656,-0.0004604809
711535211,711534872,0.0013508084,-0.008026084,0.0041759894
711538978,711538672,0.00978404,-0.0013809435,0.008166689
711541560,711541216,0.0019709046,0.006182354,0.0023371626
711545328,711545014,-0.0053049745,0.012051219,-0.0066637904
711549134,711548823,-0.0063051325,-0.0019989775,-0.0054485775
711552947,711552630,0.004486765,-0.0127729075,0.0036817673
711555472,711555168,0.008206905,-0.008985873,0.006608533
711559309,711558975,0.00093300955,0.0047699506,0.0038131194
711563085,711562783,-0.007162474,0.011181243,-0.0022677903
711569691,711569381,0.00223453,-0.006407743,-0.0017321599
711573449,711573117,0.009777312,-0.00968987,0.0054562357
711579638,711579337,-0.0066150273,0.009199848,0.00045198083
711580881,711580575,-0.008683212,0.012029502,-0.0008961233
711583434,711583098,-0.0048639583,0.011615,-0.0053198095
711588466,711588161,0.00657922,-0.005659734,0.0019795306
711590995,711590697,0.008073062,-0.010718958,0.0071351747
711594865,711594513,-0.0012720543,-0.004572137,0.0015793656
711599881,711599582,-0.0068808384,0.006303698,-0.00209585
711601156,711600852,-0.0037560377,0.007538627,-0.0013374982
711604962,711604656,0.002577502,0.0036982272,-0.0010853295
711608763,711608464,0.005734163,-0.0065755593,0.0074682115
711611332,711611001,-0.0009069839,-0.007126874,0.0038747122
711615176,711614820,-0.004267041,-0.0028155807,-0.0028418466
711618919,711618617,-0.001999898,0.0057322625,-0.0030554966
711622727,711622422,0.0044074166,0.006207805,0.0005881652
711626539,711626232,0.0012230687,-0.00037066342,0.0045297006
711629078,711628768,-0.0010108211,-0.0024193537,0.0051800157
711634174,711633853,-0.0014387437,-0.0053966604,-0.0029502
711636787,711636389,0.0036522462,-0.0036833547,-0.0059888493
711640496,711640189,0.005950037,0.002534096,-0.0013828033
711643041,711642735,0.0018061165,0.004433809,0.0008849203
711646848,711646540,-0.006891685,0.0012069314,0.004124037
711650867,711650569,-0.004768764,-0.0061430302,0.002700499
711653374,711653042,0.004837792,-0.007409857,-0.0020224554
711657109,711656796,0.008415307,-0.005349157,-0.0036271808
711660859,711660558,0.0019914887,0.006096386,-0.002358299
711664604,711664306,-0.011468305,0.006894908,9.608159e-05
711670987,711670654,0.002537168,-0.009589283,0.001514822
711674753,711674452,0.010723999,-0.010436465,0.0009571529
711681112,711680796,-0.007790398,0.007480601,-0.004609718
711682427,711682067,-0.012818185,0.0086763855,-0.0044481773
711684903,711684602,-0.01612406,0.0063933306,-0.001851806
711689978,711689679,0.008281928,-0.0040209177,0.0024088314
711692553,711692230,0.01756813,-0.0072604064,0.00052665395
711696333,711696022,0.011000804,-0.0011426642,2.3443117e-05
711701415,711701105,-0.016994104,0.008535959,-0.004841952
711702677,711702371,-0.018748514,0.008796271,-0.0029028503
711706555,711706190,-0.005550151,0.0021441004,0.0056366744
711710301,711709983,0.015470073,-0.007277122,0.004869835
711712856,711712521,0.015364731,-0.0073339725,0.0015905412
711716692,711716329,-0.0019946708,-0.000109550136,-0.003897325
711721721,711721404,-0.014999143,0.0047167083,-0.004375908
711724243,711723940,-0.007735679,0.0026992091,0.0017155338
711728128,711727760,0.010185008,-0.0019193611,0.009737139
711730853,711730554,0.016069723,-0.0043780026,0.0057653165
711734654,711734341,0.0029628472,-0.00044558416,-0.0044364915
711738401,711738034,-0.011311744,0.002689155,-0.011515278
711742084,711741783,-0.009653661,0.0030050632,-0.005139084
711744619,711744275,-0.00038542005,0.0005909945,0.004417171
711748383,711748071,0.012038945,-0.0025176448,0.010186545
711752187,711751859,0.0052826363,-0.001660187,-0.0005471265
711755985,711755671,-0.006160313,-0.0015321294,-0.0077245864
711758531,711758226,-0.006743279,-0.0022544567,-0.00787214
711762326,711762011,0.0020401003,-0.0014152961,0.0020727275
711766181,711765839,0.0048172805,0.0026844668,0.011376581
711771192,711770893,0.00035413052,0.0019403821,-0.00094620365
711772501,711772189,-0.00107499,0.00041062292,-0.002869147
711776297,711775970,-0.0010187522,-0.002154136,-0.0066815703
711782625,711782314,-0.00028883363,-0.00097136473,0.00431596
711783943,711783591,-0.0011690402,-9.886455e-05,0.006523458
711786422,711786122,-0.0018396691,0.0049875686,0.006281051
711791514,711791197,0.002031415,0.0013150525,-0.0029428022
711794107,711793743,0.0068082316,-0.0018304436,-0.004830733
711797887,711797563,0.005948955,-0.003997698,-0.004748275
711802920,711802618,-0.006839397,-0.0012699444,0.006423063
711822085,711821787,-0.011636592,-0.002080465,0.0024652695
711827050,711826751,-0.0012410752,0.0052833855,0.0026901353
711829660,711829317,0.008460421,0.005043832,-0.00073505763
711832166,711831803,0.0150235975,0.0026942594,-0.0012166252
711838450,711838149,-0.007166892,-0.0040432466,-0.0043037543
711839722,711839419,-0.011189825,-0.004231768,-0.0025571168
711843530,711843226,-0.011948561,-0.0027994805,0.0025959741
711847349,711847032,0.004987941,0.0026142441,0.0014919662
711849872,711849568,0.011662947,0.0017271632,0.0019269065
711853746,711853383,0.0056636077,0.0022477305,0.00062632037
711858774,711858453,-0.011231582,-0.004879476,-0.00295252
711860042,711859724,-0.0120447185,-0.005677172,-0.0024639845
711863853,711863550,0.00018622496,-0.0033561692,0.0016608199
711867656,711867338,0.011975573,0.0050339513,0.0025698782
711879055,711878756,-0.009839425,-0.0066674436,-0.0033155475
711881718,711881327,-0.0028375585,-0.0084191775,0.001730512
711885438,711885118,0.007303076,0.0014140484,0.0028240797
711887954,711887652,0.006582546,0.005739212,0.00017204227
711891769,711891444,-0.004758874,0.006849967,-0.0010191598
711895871,711895535,-0.006052865,-0.003954153,-0.0051470944
711899549,711899234,0.0015815314,-0.009852211,-0.00070093793
711902042,711901725,0.007944159,-0.006372744,0.003107849
711905916,711905577,0.005484434,0.005075537,0.000661125
711909543,711909242,-0.008732128,0.010048357,-0.0008662848
711913327,711913017,-0.009584271,0.003062485,-0.0032322048
711915859,711915555,-0.0036394752,-0.0048441323,-0.0030747321
711919664,711919364,0.011604737,-0.008995575,0.0027868373
711923469,711923169,0.0068339915,-0.0017811934,0.0025649008
711943780,711943473,-0.0005913397,-0.002605538,0.00060615333
711950136,711949819,-0.009387218,0.006862246,-0.0017032337
711951444,711951097,-0.0068843127,0.006613789,-0.00036459498
711955198,711954893,0.0060975887,-0.0007951893,0.0030537576
711960290,711959971,0.0054768007,-0.0066478155,0.004883258
711961559,711961251,0.0029046442,-0.003919226,0.0019031164
711965430,711965055,-0.008053342,0.0003722998,-0.008071211
711969192,711968860,-0.0074341875,0.007754934,-0.0036037506
711972997,711972667,0.0027438034,0.0018518255,0.004930336
711975724,711975407,0.0049380776,-0.004229001,0.004926532
711980743,711980443,0.0037089502,-0.008023547,-0.00014116762
711983339,711983011,-0.0010222205,-0.0038259425,-0.0068342853
711987016,711986695,-0.0055556633,0.00754312,-0.006596898
711989494,711989195,-0.0021854355,0.010836586,0.00067112915
711993278,711992963,0.0014239673,0.0038112963,0.0049202456
711997169,711996774,0.0014334641,-0.008541948,0.0077557615
712000885,712000579,0.002478491,-0.005270654,-0.0024956916
712003462,712003120,0.00075923523,-0.0014890642,-0.009042894
712007247,712006928,-0.00093599857,0.0056444667,-0.0041146297
712011036,712010730,-0.003867111,0.0046464875,0.0038764526
712014918,712014546,-0.0038614369,-0.003439623,0.0063730185
712017420,712017086,0.0016346525,-0.007113728,0.0044550207
712021195,712020889,0.0071305395,-0.0040246774,-0.0046607153
712025034,712024696,0.003513564,0.0055713938,-0.005056901
712031344,712031036,-0.008590474,0.0024335452,0.004852043
712035222,712034851,-0.0010233658,-0.003849261,0.004177079
712040224,712039916,0.014737286,-0.001939356,-0.0023135568
712045317,712044990,-0.0010565829,0.0019312123,-0.004490013
712051640,712051337,-0.012676054,0.0003840354,0.0048374687
712052910,712052607,-0.008303328,-0.0014791337,0.0050340206
712057040,712056688,0.0095298365,-0.002470934,0.003910924
712060736,712060436,0.014674892,-0.0027591442,-0.002845475
712063324,712062943,0.0045011207,-0.0029201608,-0.007451486
712067071,712066758,-0.013709885,-0.0012482916,-0.0029554574
712071986,712071670,-0.006272231,-0.0011786509,0.0039469306
712074575,712074231,0.0067890203,-0.0006522452,0.006563368
712077042,712076719,0.014586586,0.0029885678,0.00570157
712080828,712080526,0.009488554,0.0036371741,-0.0023946348
712084640,712084333,-0.010152997,0.00032276197,-0.005289991
712088474,712088141,-0.013315897,-2.2589353e-05,-0.00062078325
712092250,712091944,0.002376283,0.0011455383,0.0024658092
712116373,712116053,0.0076775625,0.0032578013,0.0074195247
712118918,712118593,0.0028919168,0.00069338875,-0.0011899566
712122737,712122400,-0.0050607356,-0.0034700893,-0.0063598417
712126533,712126216,-0.0037357693,-0.0029915539,-0.0034395552
712134128,712133820,0.002068554,0.0060066506,0.007042695
712136701,712136359,-0.0018604248,0.004185971,0.0026826232
712141960,712141661,-0.0018749462,-0.0060254,-0.007857907
712144463,712144154,1.2219748e-05,-0.0062296977,-0.0050833053
712146979,712146652,0.0028244255,-0.0055239843,0.0009842017
712153195,712152894,-0.0010356681,0.00035189925,0.007809101
712154451,712154151,-0.0008473419,0.001322375,0.0049451953
712158249,712157932,-0.002093769,0.0015105878,-0.0028929391
712162042,712161740,0.0011418076,0.002198383,-0.006629375
712164661,712164290,0.0003763889,-2.916878e-05,-0.0027286892
712168447,712168092,-0.0031655263,0.00036492568,0.0019560766
712173459,712173158,-0.00292159,0.0012417998,0.002682475
712176049,712175701,0.00011793357,0.0027314567,-0.0016237801
712178584,712178283,0.0047189356,0.0031086663,-0.0062566125
712182356,712182041,0.0050606322,-0.00088156125,-0.0012348553
