timestamp,ref_timestamp,ref_lat,ref_lon,x,y,z,delta_xy[0],delta_xy[1],delta_z,vx,vy,vz,z_deriv,delta_vxy[0],delta_vxy[1],delta_vz,ax,ay,az,heading,delta_heading,ref_alt,dist_bottom,eph,epv,evh,evv,vxy_max,vz_max,hagl_min,hagl_max,xy_valid,z_valid,v_xy_valid,v_z_valid,xy_reset_counter,z_reset_counter,vxy_reset_counter,vz_reset_counter,heading_reset_counter,xy_global,z_global,dist_bottom_valid
707922068,0,0.0,0.0,-0.02972857,0.6038696,-0.021991067,-0.014725093,0.004103156,0.59175354,0.0036252448,-0.00059461873,0.0061045215,0.0015640272,0.12236832,0.09785107,-0.058551528,-0.01701588,0.0125899995,0.011625615,1.572344,-0.6516362,0.0,0.1,0.03323133,0.01623508,0.057831556,0.030724091,inf,inf,inf,inf,1,1,1,1,4,1,2,1,4,0,0,1
708120028,0,0.0,0.0,-0.030030191,0.6039398,-0.022103239,-0.014725093,0.004103156,0.59175354,0.002978216,-0.0006227492,0.0020289454,-0.0025083018,0.12236832,0.09785107,-0.058551528,-0.0025270728,0.05599797,-0.06258483,1.5721885,-0.6516362,0.0,0.1,0.033489335,0.016235027,0.058056556,0.030723315,inf,inf,inf,inf,1,1,1,1,4,1,2,1,4,0,0,1
708221616,0,0.0,0.0,-0.030173646,0.603909,-0.022978114,-0.014725093,0.004103156,0.59175354,0.003445062,-0.0012194687,-0.008069635,-0.012632226,0.12236832,0.09785107,-0.058551528,0.011067501,0.10428948,-0.09576847,1.5722075,-0.6516362,0.0,0.1,0.03316236,0.016234964,0.05780747,0.030723367,inf,inf,inf,inf,1,1,1,1,4,1,2,1,4,0,0,1
708323067,0,0.0,0.0,-0.030356044,0.6038407,-0.02507669,-0.014725093,0.004103156,0.59175354,0.0032761123,-0.0026098166,-0.02132299,-0.025903653,0.12236832,0.09785107,-0.058551528,0.063244276,-0.22580999,-0.20232512,1.5722026,-0.6516362,0.0,0.101634264,0.032527864,0.016234918,0.05734685,0.030723514,inf,inf,inf,inf,1,1,1,1,4,1,2,1,4,0,0,1
708424587,0,0.0,0.0,-0.030502802,0.6036675,-0.028413663,-0.014725093,0.004103156,0.59175354,0.0025853806,-0.0035198615,-0.034,-0.03854665,0.12236832,0.09785107,-0.058551528,0.058623694,-0.21377054,-0.16179119,1.5722152,-0.6516362,0.0,0.1039642,0.03330638,0.016234897,0.058165032,0.030722788,inf,inf,inf,inf,1,1,1,1,4,1,2,1,4,0,0,1
708526112,0,0.0,0.0,-0.030655185,0.6034,-0.03291983,-0.014725093,0.004103156,0.59175354,0.0022966915,-0.0033357993,-0.04730025,-0.051705636,0.12236832,0.09785107,-0.058551528,-0.023204777,0.1477737,-0.12689097,1.5722442,-0.6516362,0.0,0.106705695,0.033112183,0.016234804,0.057948362,0.030722182,inf,inf,inf,inf,1,1,1,1,4,1,2,1,4,0,0,1
708622744,0,0.0,0.0,-0.030810198,0.6031096,-0.038313255,-0.014725093,0.004103156,0.59175354,0.0024648684,-0.004423983,-0.061657973,-0.06563734,0.12236832,0.09785107,-0.058551528,0.12695952,-0.15200701,-0.21406788,1.572267,-0.6516362,0.0,0.10963437,0.03297192,0.016234731,0.0579237,0.03072237,inf,inf,inf,inf,1,1,1,1,4,1,2,1,4,0,0,1
708825588,0,0.0,0.0,-0.03106825,0.60239214,-0.052542903,-0.014725093,0.004103156,0.59175354,0.0013958648,-0.0049979417,-0.092740685,-0.09446756,0.12236832,0.09785107,-0.058551528,-0.039476715,0.062481456,-0.11510111,1.5722593,-0.6516362,0.0,0.11800862,0.03281194,0.016234651,0.057863176,0.030721953,inf,inf,inf,inf,1,1,1,1,4,1,2,1,4,0,0,1
708927125,0,0.0,0.0,-0.03121505,0.6020322,-0.060905553,-0.014725093,0.004103156,0.59175354,0.0013239265,-0.0059609795,-0.10763845,-0.107362635,0.12236832,0.09785107,-0.058551528,0.007862877,0.056164958,-0.12529498,1.5723021,-0.6516362,0.0,0.12282482,0.032768942,0.016234603,0.05791876,0.03072226,inf,inf,inf,inf,1,1,1,1,4,1,2,1,4,0,0,1
709018479,0,0.0,0.0,-0.03135385,0.60167134,-0.06876054,-0.014725093,0.004103156,0.59175354,0.0013637925,-0.007187235,-0.12079287,-0.118111596,0.12236832,0.09785107,-0.058551528,0.0038116367,-0.018783102,-0.17174411,1.5722982,-0.6516362,0.0,0.12729856,0.03231145,0.016234588,0.05753346,0.030722676,inf,inf,inf,inf,1,1,1,1,4,1,2,1,4,0,0,1
709120115,0,0.0,0.0,-0.031520322,0.601282,-0.077727005,-0.014725093,0.004103156,0.59175354,0.0015133338,-0.006956394,-0.13439152,-0.12832274,0.12236832,0.09785107,-0.058551528,0.16111845,0.012967552,-0.13363118,1.5722574,-0.6516362,0.0,0.13237393,0.03230151,0.016234595,0.057598367,0.03072327,inf,inf,inf,inf,1,1,1,1,4,1,2,1,4,0,0,1
709221513,0,0.0,0.0,-0.031659774,0.60095906,-0.08665967,-0.014725093,0.004103156,0.59175354,0.00089703663,-0.0071370304,-0.14701523,-0.1367972,0.12236832,0.09785107,-0.058551528,-0.040284976,-0.03342877,-0.27991304,1.5722171,-0.6516362,0.0,0.1375501,0.03232316,0.016234629,0.057684194,0.030723758,inf,inf,inf,inf,1,1,1,1,4,1,2,1,4,0,0,1
709419477,0,0.0,0.0,-0.031869456,0.6004725,-0.102507755,-0.014725093,0.004103156,0.59175354,0.0010536384,-0.0076649007,-0.16612191,-0.14545168,0.12236832,0.09785107,-0.058551528,0.18189432,-0.115457244,-0.18720959,1.5722369,-0.6516362,0.0,0.14618763,0.032521233,0.016234761,0.058033086,0.03072489,inf,inf,inf,inf,1,1,1,1,4,1,2,1,4,0,0,1
709521240,0,0.0,0.0,-0.03192002,0.600291,-0.11011812,-0.014725093,0.004103156,0.59175354,0.00070598937,-0.006844855,-0.17392148,-0.14713143,0.12236832,0.09785107,-0.058551528,-0.013632271,-0.024769947,-0.13862461,1.5722916,-0.6516362,0.0,0.1511292,0.032504845,0.016234782,0.05786588,0.030723339,inf,inf,inf,inf,1,1,1,1,4,1,2,1,4,0,0,1
709622513,0,0.0,0.0,-0.03192787,0.60021836,-0.11700842,-0.014725093,0.004103156,0.59175354,0.0010593772,-0.0063456814,-0.18117765,-0.14780767,0.12236832,0.09785107,-0.058551528,-0.027643554,0.050643228,-0.18640456,1.5722581,-0.6516362,0.0,0.15498953,0.03253469,0.01623479,0.057914928,0.03072373,inf,inf,inf,inf,1,1,1,1,4,1,2,1,4,0,0,1
709724044,0,0.0,0.0,-0.03190987,0.6001974,-0.12321825,-0.014725093,0.004103156,0.59175354,0.000829518,-0.0064887954,-0.18795824,-0.14763074,0.12236832,0.09785107,-0.058551528,0.044120286,0.0057341317,-0.10218313,1.5722477,-0.6516362,0.0,0.15851456,0.032599483,0.016234813,0.05800958,0.030724049,inf,inf,inf,inf,1,1,1,1,4,1,2,1,4,0,0,1
709825557,0,0.0,0.0,-0.03193458,0.6003158,-0.1270438,-0.014725093,0.004103156,0.59175354,0.00036405463,-0.006123225,-0.19115388,-0.14286368,0.12236832,0.09785107,-0.058551528,-0.03466799,-0.05339486,-0.13670495,1.5722847,-0.6516362,0.0,0.15972304,0.03222389,0.016234854,0.057632554,0.030724358,inf,inf,inf,inf,1,1,1,1,4,1,2,1,4,0,0,1
709927084,0,0.0,0.0,-0.031946324,0.6004591,-0.131377,-0.014725093,0.004103156,0.59175354,0.0007581752,-0.005004074,-0.19464208,-0.13895328,0.12236832,0.09785107,-0.058551528,-0.010643119,0.035540957,-0.1488623,1.5722892,-0.6516362,0.0,0.16262373,0.03226077,0.016234875,0.05755103,0.030722374,inf,inf,inf,inf,1,1,1,1,4,1,2,1,4,0,0,1
710023641,0,0.0,0.0,-0.031921215,0.60067385,-0.13422704,-0.014725093,0.004103156,0.59175354,0.0011737508,-0.0044984976,-0.19604914,-0.13298212,0.12236832,0.09785107,-0.058551528,-0.014266886,0.10448206,0.030400457,1.5723182,-0.6516362,0.0,0.16414598,0.033062685,0.0162347,0.058212105,0.030720664,inf,inf,inf,inf,1,1,1,1,4,1,2,1,4,0,0,1
710125032,0,0.0,0.0,-0.031869166,0.600918,-0.13725373,-0.014725093,0.004103156,0.59175354,0.0012574295,-0.004426818,-0.19911304,-0.1287945,0.12236832,0.09785107,-0.058551528,-0.0645735,0.0036491705,-0.20971401,1.5722871,-0.6516362,0.0,0.16616827,0.032980558,0.01623454,0.057988495,0.030719096,inf,inf,inf,inf,1,1,1,1,4,1,2,1,4,0,0,1
710216398,0,0.0,0.0,-0.0318397,0.60113454,-0.13957359,-0.014725093,0.004103156,0.59175354,0.0009979724,-0.004348824,-0.20149417,-0.12481871,0.12236832,0.09785107,-0.058551528,0.023201851,0.0018397942,-0.122263476,1.5723132,-0.6516362,0.0,0.16711572,0.032473136,0.016234355,0.057478793,0.030719033,inf,inf,inf,inf,1,1,1,1,4,1,2,1,4,0,0,1
710317932,0,0.0,0.0,-0.031779755,0.6014164,-0.14164239,-0.014725093,0.004103156,0.59175354,0.0017509223,-0.0030405612,-0.20391786,-0.12043419,0.12236832,0.09785107,-0.058551528,0.08537469,-0.07150515,-0.32009417,1.5723171,-0.6516362,0.0,0.16798267,0.032418966,0.016234202,0.05745808,0.030719085,inf,inf,inf,inf,1,1,1,1,4,1,2,1,4,0,0,1
710419608,0,0.0,0.0,-0.031724323,0.6017052,-0.14318237,-0.014725093,0.004103156,0.59175354,0.0012344852,-0.0030136807,-0.20480788,-0.114813164,0.12236832,0.09785107,-0.058551528,-0.011741842,-0.020311052,-0.26083773,1.5723197,-0.6516362,0.0,0.16848186,0.032378864,0.016234094,0.057464413,0.03071922,inf,inf,inf,inf,1,1,1,1,4,1,2,1,4,0,0,1
710520951,0,0.0,0.0,-0.0316534,0.6019814,-0.14398165,-0.014725093,0.004103156,0.59175354,0.0016794506,-0.002467489,-0.20286599,-0.10668572,0.12236832,0.09785107,-0.058551528,-0.0011718492,0.17198958,-0.05245061,1.5723491,-0.6516362,0.0,0.16835883,0.03235073,0.01623402,0.05748526,0.030719362,inf,inf,inf,inf,1,1,1,1,4,1,2,1,4,0,0,1
710617398,0,0.0,0.0,-0.031612057,0.6023009,-0.14316574,-0.014725093,0.004103156,0.59175354,0.0009829988,-0.0023715498,-0.2016529,-0.099633075,0.12236832,0.09785107,-0.058551528,-0.048760626,0.023799852,-0.10691323,1.5723195,-0.6516362,0.0,0.16681513,0.032354675,0.01623397,0.057548653,0.030719418,inf,inf,inf,inf,1,1,1,1,4,1,2,1,4,0,0,1
710820429,0,0.0,0.0,-0.031626068,0.6027887,-0.14236712,-0.014725093,0.004103156,0.59175354,0.001439238,-0.0027595651,-0.2013446,-0.08870927,0.12236832,0.09785107,-0.058551528,0.073738836,-0.076799355,-0.16809644,1.5723377,-0.6516362,0.0,0.1659152,0.03245254,0.016233837,0.05765172,0.030717546,inf,inf,inf,inf,1,1,1,1,4,1,2,1,4,0,0,1
710922061,0,0.0,0.0,-0.03163302,0.6030093,-0.14167926,-0.014725093,0.004103156,0.59175354,0.0011779399,-0.0020895484,-0.200587,-0.08327935,0.12236832,0.09785107,-0.058551528,0.06780227,-0.10269989,-0.17276749,1.5723512,-0.6516362,0.0,0.16486807,0.032461934,0.01623372,0.057700496,0.030717677,inf,inf,inf,inf,1,1,1,1,4,1,2,1,4,0,0,1
711018422,0,0.0,0.0,-0.031672187,0.6032405,-0.13977553,-0.014725093,0.004103156,0.59175354,0.00086984504,-0.0013464963,-0.19907154,-0.07757503,0.12236832,0.09785107,-0.058551528,0.0616019,0.11441322,-0.11847286,1.5723746,-0.6516362,0.0,0.16273358,0.03253278,0.016233634,0.057826094,0.030717587,inf,inf,inf,inf,1,1,1,1,4,1,2,1,4,0,0,1
711119917,0,0.0,0.0,-0.03172412,0.6034769,-0.13860233,-0.014725093,0.004103156,0.59175354,0.00093647564,-0.0010280102,-0.19801937,-0.072780885,0.12236832,0.09785107,-0.058551528,0.10057384,0.005610566,-0.17679998,1.5724069,-0.6516362,0.0,0.1613631,0.032592073,0.016233567,0.05792517,0.03071767,inf,inf,inf,inf,1,1,1,1,4,1,2,1,4,0,0,1
711221434,0,0.0,0.0,-0.03176739,0.60372823,-0.1374084,-0.014725093,0.004103156,0.59175354,0.0010755233,-0.0007515589,-0.19663714,-0.06799445,0.12236832,0.09785107,-0.058551528,0.11671715,-0.12923773,-0.25246552,1.5723975,-0.6516362,0.0,0.16063915,0.03259277,0.01623348,0.05779553,0.030715587,inf,inf,inf,inf,1,1,1,1,4,1,2,1,4,0,0,1
711323165,0,0.0,0.0,-0.03180641,0.60402423,-0.13402666,-0.014725093,0.004103156,0.59175354,0.00074872235,-5.6497305e-05,-0.19223706,-0.060275637,0.12236832,0.09785107,-0.058551528,0.07108168,-0.24855934,-0.25216895,1.5724217,-0.6516362,0.0,0.15697068,0.032185577,0.016233314,0.05740906,0.03071561,inf,inf,inf,inf,1,1,1,1,4,1,2,1,4,0,0,1
711424466,0,0.0,0.0,-0.031839564,0.60431087,-0.13243918,-0.014725093,0.004103156,0.59175354,0.00049803994,0.0008527415,-0.19182092,-0.057299253,0.12236832,0.09785107,-0.058551528,0.08220489,-0.07775983,-0.1619699,1.5724709,-0.6516362,0.0,0.15527882,0.032219544,0.016233198,0.05746332,0.030715458,inf,inf,inf,inf,1,1,1,1,4,1,2,1,4,0,0,1
711525980,0,0.0,0.0,-0.03187462,0.60458547,-0.13106123,-0.014725093,0.004103156,0.59175354,0.00041632057,0.001534317,-0.19132085,-0.054417077,0.12236832,0.09785107,-0.058551528,-0.106597915,0.061408278,-0.37960294,1.5724258,-0.6516362,0.0,0.15520626,0.033067428,0.016233012,0.058085233,0.030711908,inf,inf,inf,inf,1,1,1,1,4,1,2,1,4,0,0,1
711617347,0,0.0,0.0,-0.03186122,0.6048017,-0.13009939,-0.014725093,0.004103156,0.59175354,0.0008316521,0.0010024938,-0.19052719,-0.051729474,0.12236832,0.09785107,-0.058551528,0.019307919,-0.018304767,-0.051642496,1.5724623,-0.6516362,0.0,0.15400845,0.03253986,0.016232753,0.057529733,0.030711772,inf,inf,inf,inf,1,1,1,1,4,1,2,1,4,0,0,1
711718872,0,0.0,0.0,-0.031866517,0.60498464,-0.12908025,-0.014725093,0.004103156,0.59175354,0.00027840398,0.0011510086,-0.19057755,-0.050143227,0.12236832,0.09785107,-0.058551528,-0.1524658,0.06239962,-0.19480379,1.5724738,-0.6516362,0.0,0.15278354,0.032469135,0.016232533,0.057473205,0.030711733,inf,inf,inf,inf,1,1,1,1,4,1,2,1,4,0,0,1
711825530,0,0.0,0.0,-0.031871088,0.60514575,-0.12694255,-0.014725093,0.004103156,0.59175354,0.0005900556,0.0016825416,-0.18802786,-0.04621937,0.12236832,0.09785107,-0.058551528,-0.012794515,0.043160524,-0.12272343,1.5725238,-0.6516362,0.0,0.15041915,0.032850083,0.01623236,0.057899985,0.030711753,inf,inf,inf,inf,1,1,1,1,4,1,2,1,4,0,0,1
712028508,0,0.0,0.0,-0.031870645,0.6053864,-0.12511475,-0.014725093,0.004103156,0.59175354,0.0004904964,0.001911182,-0.18958575,-0.045930695,0.12236832,0.09785107,-0.058551528,-0.016547043,0.10227868,-0.2228611,1.572544,-0.6516362,0.0,0.1489465,0.03271231,0.016232105,0.057696447,0.030710135,inf,inf,inf,inf,1,1,1,1,4,1,2,1,4,0,0,1
712119860,0,0.0,0.0,-0.031863354,0.6054564,-0.12465203,-0.014725093,0.004103156,0.59175354,0.00093865744,0.0013174536,-0.19048582,-0.046166085,0.12236832,0.09785107,-0.058551528,0.010330518,-0.14373454,-0.3220964,1.5725794,-0.6516362,0.0,0.14817187,0.033051204,0.016231963,0.05805312,0.030710157,inf,inf,inf,inf,1,1,1,1,4,1,2,1,4,0,0,1
712221627,0,0.0,0.0,-0.031806882,0.60550696,-0.124237575,-0.014725093,0.004103156,0.59175354,0.0014516802,0.0015868626,-0.19123954,-0.046395034,0.12236832,0.09785107,-0.058551528,0.11473881,-0.13511427,-0.34833455,1.5725836,-0.6516362,0.0,0.14738886,0.032953586,0.016231844,0.057993453,0.030710267,inf,inf,inf,inf,1,1,1,1,4,1,2,1,4,0,0,1
712322915,0,0.0,0.0,-0.03174211,0.60554963,-0.1238569,-0.014725093,0.004103156,0.59175354,0.0013905083,0.0021121094,-0.19118254,-0.045955975,0.12236832,0.09785107,-0.058551528,0.03757365,0.0103301555,-0.25034076,1.5726137,-0.6516362,0.0,0.14661145,0.03208866,0.016231759,0.05721555,0.030710405,inf,inf,inf,inf,1,1,1,1,4,1,2,1,4,0,0,1
712424423,0,0.0,0.0,-0.031661313,0.60560685,-0.12359426,-0.014725093,0.004103156,0.59175354,0.0015484213,0.0025908458,-0.19149666,-0.045964967,0.12236832,0.09785107,-0.058551528,0.069759876,0.16150686,-0.12885359,1.5726038,-0.6516362,0.0,0.1460073,0.03213051,0.016231699,0.057351936,0.030710531,inf,inf,inf,inf,1,1,1,1,4,1,2,1,4,0,0,1
712622383,0,0.0,0.0,-0.031483166,0.60571665,-0.12196835,-0.014725093,0.004103156,0.59175354,0.001364537,0.0028975857,-0.19112603,-0.045036986,0.12236832,0.09785107,-0.058551528,-0.086495526,-0.034373745,-0.29449573,1.5726466,-0.6516362,0.0,0.1443502,0.0322074,0.016231636,0.057424907,0.030708738,inf,inf,inf,inf,1,1,1,1,4,1,2,1,4,0,0,1
712723955,0,0.0,0.0,-0.031389225,0.6058065,-0.12180513,-0.014725093,0.004103156,0.59175354,0.0009614047,0.0031797916,-0.18909822,-0.04253596,0.12236832,0.09785107,-0.058551528,-0.14017211,0.004653463,-0.15625875,1.5726726,-0.6516362,0.0,0.1437147,0.032232758,0.0162315,0.05748615,0.03070877,inf,inf,inf,inf,1,1,1,1,4,1,2,1,4,0,0,1
712820333,0,0.0,0.0,-0.031347882,0.60592914,-0.12047005,-0.014725093,0.004103156,0.59175354,0.0017308269,0.0024849437,-0.18745819,-0.04054799,0.12236832,0.09785107,-0.058551528,-0.016257258,-0.13775642,-0.11389772,1.5727125,-0.6516362,0.0,0.14206958,0.032254823,0.016231397,0.057525024,0.030708672,inf,inf,inf,inf,1,1,1,1,4,1,2,1,4,0,0,1
713023369,0,0.0,0.0,-0.031363327,0.6061942,-0.1172408,-0.014725093,0.004103156,0.59175354,0.0008652991,0.0038063144,-0.18429194,-0.03670858,0.12236832,0.09785107,-0.058551528,-0.0056031113,-0.17144792,-0.35705367,1.5726907,-0.6516362,0.0,0.13922496,0.03272157,0.01623119,0.05791032,0.030706532,inf,inf,inf,inf,1,1,1,1,4,1,2,1,4,0,0,1
713216315,0,0.0,0.0,-0.03145459,0.60658586,-0.116931394,-0.014725093,0.004103156,0.59175354,0.00023003589,0.0054328474,-0.18632437,-0.037709903,0.12236832,0.09785107,-0.058551528,-0.017475683,-0.023252549,-0.2646584,1.5727538,-0.6516362,0.0,0.13972768,0.03286186,0.016230643,0.057716716,0.030703332,inf,inf,inf,inf,1,1,1,1,4,1,2,1,4,0,0,1
713317787,0,0.0,0.0,-0.031535376,0.6068251,-0.11693519,-0.014725093,0.004103156,0.59175354,-0.00015947019,0.005896336,-0.18552086,-0.036714245,0.12236832,0.09785107,-0.058551528,-0.06987682,-0.029733598,-0.22410746,1.5727711,-0.6516362,0.0,0.1393961,0.032696247,0.016230399,0.057548825,0.030703234,inf,inf,inf,inf,1,1,1,1,4,1,2,1,4,0,0,1
713419325,0,0.0,0.0,-0.031660262,0.60703677,-0.11688964,-0.014725093,0.004103156,0.59175354,-0.000555818,0.0061319037,-0.1855518,-0.036763325,0.12236832,0.09785107,-0.058551528,-0.17665868,0.14787677,-0.10625761,1.572864,-0.6516362,0.0,0.13894853,0.032569245,0.016230227,0.05746417,0.03070325,inf,inf,inf,inf,1,1,1,1,4,1,2,1,4,0,0,1
713622429,0,0.0,0.0,-0.032075323,0.60735786,-0.11458609,-0.014725093,0.004103156,0.59175354,-0.0011308854,0.0061066444,-0.18392618,-0.03545107,0.12236832,0.09785107,-0.058551528,-0.0037507867,0.123418525,-0.15698072,1.5728933,-0.6516362,0.0,0.13616478,0.031990077,0.01622999,0.057033297,0.030703435,inf,inf,inf,inf,1,1,1,1,4,1,2,1,4,0,0,1
713718785,0,0.0,0.0,-0.032299735,0.6074841,-0.11336744,-0.014725093,0.004103156,0.59175354,-0.0017192768,0.006094733,-0.18379323,-0.035406064,0.12236832,0.09785107,-0.058551528,-0.030274149,-0.043480244,-0.2531683,1.5729138,-0.6516362,0.0,0.13551322,0.03287798,0.0162299,0.05792788,0.030701835,inf,inf,inf,inf,1,1,1,1,4,1,2,1,4,0,0,1
713820282,0,0.0,0.0,-0.032536708,0.60765743,-0.11331193,-0.014725093,0.004103156,0.59175354,-0.0024487833,0.006517465,-0.1838087,-0.035259046,0.12236832,0.09785107,-0.058551528,-0.09180134,-0.06526048,-0.2110115,1.5729479,-0.6516362,0.0,0.13581166,0.032824162,0.016229719,0.057812184,0.030700482,inf,inf,inf,inf,1,1,1,1,4,1,2,1,4,0,0,1
713921798,0,0.0,0.0,-0.032772988,0.6078131,-0.11358643,-0.014725093,0.004103156,0.59175354,-0.001543867,0.006705423,-0.18526193,-0.03648294,0.12236832,0.09785107,-0.058551528,0.042991154,0.058429785,-0.18816498,1.5729841,-0.6516362,0.0,0.13629337,0.032712556,0.016229482,0.057604823,0.030699328,inf,inf,inf,inf,1,1,1,1,4,1,2,1,4,0,0,1
714023568,0,0.0,0.0,-0.03295052,0.6079591,-0.11407221,-0.014725093,0.004103156,0.59175354,-0.0015178182,0.007231412,-0.18634288,-0.037529867,0.12236832,0.09785107,-0.058551528,0.046850134,0.06608063,-0.2856917,1.5729637,-0.6516362,0.0,0.13630846,0.03267193,0.016229276,0.057646357,0.030699313,inf,inf,inf,inf,1,1,1,1,4,1,2,1,4,0,0,1
714124833,0,0.0,0.0,-0.033114996,0.60810137,-0.11443573,-0.014725093,0.004103156,0.59175354,-0.0019538736,0.007073748,-0.18630134,-0.037645128,0.12236832,0.09785107,-0.058551528,0.16922666,-0.032145098,-0.229218,1.5729738,-0.6516362,0.0,0.13619033,0.033501476,0.016229127,0.05853108,0.030699447,inf,inf,inf,inf,1,1,1,1,4,1,2,1,4,0,0,1
714226359,0,0.0,0.0,-0.03328114,0.60820436,-0.11472808,-0.014725093,0.004103156,0.59175354,-0.001957895,0.0067613972,-0.18623894,-0.037811134,0.12236832,0.09785107,-0.058551528,0.14131048,-0.030769482,-0.16423804,1.5730429,-0.6516362,0.0,0.13605076,0.0332902,0.016229024,0.0582814,0.030699588,inf,inf,inf,inf,1,1,1,1,4,1,2,1,4,0,0,1
714322796,0,0.0,0.0,-0.033410124,0.6082229,-0.113937676,-0.014725093,0.004103156,0.59175354,-0.002843354,0.006891944,-0.18522339,-0.037025917,0.12236832,0.09785107,-0.058551528,-0.02354939,0.058601055,-0.21774434,1.5730366,-0.6516362,0.0,0.13492683,0.033127222,0.016228955,0.05813468,0.030699795,inf,inf,inf,inf,1,1,1,1,4,1,2,1,4,0,0,1
714424320,0,0.0,0.0,-0.03353091,0.6082396,-0.113950804,-0.014725093,0.004103156,0.59175354,-0.002759114,0.007302596,-0.18453898,-0.03654037,0.12236832,0.09785107,-0.058551528,0.026997754,0.08436305,-0.14676046,1.5730443,-0.6516362,0.0,0.13470083,0.033004932,0.016228912,0.05806336,0.030700097,inf,inf,inf,inf,1,1,1,1,4,1,2,1,4,0,0,1
714525889,0,0.0,0.0,-0.033628907,0.60825664,-0.114147134,-0.014725093,0.004103156,0.59175354,-0.0030957288,0.007499967,-0.18514569,-0.0370665,0.12236832,0.09785107,-0.058551528,0.022277351,0.15495831,-0.2100111,1.573025,-0.6516362,0.0,0.1352905,0.032910567,0.016228816,0.057926606,0.030698685,inf,inf,inf,inf,1,1,1,1,4,1,2,1,4,0,0,1
714617196,0,0.0,0.0,-0.033751164,0.6082403,-0.114260204,-0.014725093,0.004103156,0.59175354,-0.0031677727,0.006815655,-0.18536074,-0.03728167,0.12236832,0.09785107,-0.058551528,-0.014570835,-0.04758092,-0.312773,1.5730295,-0.6516362,0.0,0.13518505,0.03240904,0.016228741,0.05748334,0.030698821,inf,inf,inf,inf,1,1,1,1,4,1,2,1,4,0,0,1
714718711,0,0.0,0.0,-0.033833407,0.6082,-0.1143111,-0.014725093,0.004103156,0.59175354,-0.0028411616,0.007169695,-0.18527056,-0.03724824,0.12236832,0.09785107,-0.058551528,0.060522053,0.103197545,-0.2649096,1.5729836,-0.6516362,0.0,0.13500047,0.032364313,0.016228687,0.05751056,0.030699052,inf,inf,inf,inf,1,1,1,1,4,1,2,1,4,0,0,1
714820230,0,0.0,0.0,-0.033894256,0.60812694,-0.11432235,-0.014725093,0.004103156,0.59175354,-0.0030735293,0.006086013,-0.185002,-0.037056252,0.12236832,0.09785107,-0.058551528,-0.023960786,0.01621996,-0.15845735,1.5729893,-0.6516362,0.0,0.13483202,0.03233654,0.016228657,0.057545427,0.030699272,inf,inf,inf,inf,1,1,1,1,4,1,2,1,4,0,0,1
714927027,0,0.0,0.0,-0.033912405,0.60800153,-0.11323738,-0.014725093,0.004103156,0.59175354,-0.0032661378,0.0069337357,-0.18206626,-0.034202196,0.12236832,0.09785107,-0.058551528,-0.14628951,0.1822107,-0.15684086,1.5729854,-0.6516362,0.0,0.13356668,0.032756552,0.01622865,0.058042437,0.030699693,inf,inf,inf,inf,1,1,1,1,4,1,2,1,4,0,0,1
715119701,0,0.0,0.0,-0.03386915,0.6079035,-0.11249957,-0.014725093,0.004103156,0.59175354,-0.002969181,0.007670971,-0.18266052,-0.034802698,0.12236832,0.09785107,-0.058551528,-0.05770485,0.11981292,-0.26173282,1.5730325,-0.6516362,0.0,0.1334931,0.032465603,0.01622864,0.05775999,0.030697694,inf,inf,inf,inf,1,1,1,1,4,1,2,1,4,0,0,1
715221220,0,0.0,0.0,-0.033798702,0.6078794,-0.11243559,-0.014725093,0.004103156,0.59175354,-0.0025045536,0.007390705,-0.18338755,-0.035378806,0.12236832,0.09785107,-0.058551528,-0.12133221,0.19959931,-0.19180968,1.5730256,-0.6516362,0.0,0.13338003,0.03243255,0.016228544,0.057709705,0.03069775,inf,inf,inf,inf,1,1,1,1,4,1,2,1,4,0,0,1
715322741,0,0.0,0.0,-0.033673853,0.6078313,-0.112387024,-0.014725093,0.004103156,0.59175354,-0.0013480857,0.006206264,-0.18302456,-0.03501436,0.12236832,0.09785107,-0.058551528,0.101072215,0.02283743,-0.027136715,1.5730641,-0.6516362,0.0,0.13318804,0.032428768,0.016228471,0.05771742,0.03069783,inf,inf,inf,inf,1,1,1,1,4,1,2,1,4,0,0,1
715424353,0,0.0,0.0,-0.033469483,0.60767984,-0.11035869,-0.014725093,0.004103156,0.59175354,-0.0016481417,0.00594133,-0.18005143,-0.032137543,0.12236832,0.09785107,-0.058551528,-0.05335132,-0.05442019,-0.14982861,1.5730608,-0.6516362,0.0,0.13094161,0.032090597,0.016228417,0.057436176,0.03069796,inf,inf,inf,inf,1,1,1,1,4,1,2,1,4,0,0,1
715520695,0,0.0,0.0,-0.03331332,0.60757756,-0.1090148,-0.014725093,0.004103156,0.59175354,-0.0019272496,0.006579173,-0.1781366,-0.030310214,0.12236832,0.09785107,-0.058551528,-0.1412893,0.19021954,-0.13308194,1.5730822,-0.6516362,0.0,0.13018191,0.03301943,0.016228385,0.058288146,0.030695854,inf,inf,inf,inf,1,1,1,1,4,1,2,1,4,0,0,1
715622219,0,0.0,0.0,-0.033187434,0.6075248,-0.1089643,-0.014725093,0.004103156,0.59175354,-0.0017295453,0.006518971,-0.18044958,-0.032354973,0.12236832,0.09785107,-0.058551528,-0.07321755,0.22232667,-0.1701638,1.5731235,-0.6516362,0.0,0.13061514,0.0329555,0.016228179,0.05806069,0.030694041,inf,inf,inf,inf,1,1,1,1,4,1,2,1,4,0,0,1
715723730,0,0.0,0.0,-0.03310374,0.6074736,-0.10927777,-0.014725093,0.004103156,0.59175354,-0.0016108338,0.0057747266,-0.18112282,-0.03272272,0.12236832,0.09785107,-0.058551528,-0.0122689465,0.038714066,-0.17355815,1.5731208,-0.6516362,0.0,0.13135934,0.032894608,0.016227892,0.057876766,0.030692566,inf,inf,inf,inf,1,1,1,1,4,1,2,1,4,0,0,1
715825514,0,0.0,0.0,-0.03303717,0.60743326,-0.10964371,-0.014725093,0.004103156,0.59175354,-0.0010318903,0.005891972,-0.18026598,-0.0318033,0.12236832,0.09785107,-0.058551528,0.164872,-0.044150826,-0.1465963,1.5731714,-0.6516362,0.0,0.13129157,0.032843232,0.01622764,0.05784779,0.030692516,inf,inf,inf,inf,1,1,1,1,4,1,2,1,4,0,0,1
715926761,0,0.0,0.0,-0.032982826,0.6073854,-0.109864384,-0.014725093,0.004103156,0.59175354,-0.0016044228,0.00607033,-0.18105455,-0.03275821,0.12236832,0.09785107,-0.058551528,0.074861966,-0.08011606,-0.24969834,1.5731797,-0.6516362,0.0,0.13113108,0.03280412,0.01622746,0.057841096,0.030692494,inf,inf,inf,inf,1,1,1,1,4,1,2,1,4,0,0,1
716216084,0,0.0,0.0,-0.032842413,0.60732085,-0.109386675,-0.014725093,0.004103156,0.59175354,-0.0011544705,0.0067344513,-0.17993836,-0.032511074,0.12236832,0.09785107,-0.058551528,-0.00721474,0.083443314,-0.16006094,1.5732172,-0.6516362,0.0,0.13009223,0.032308783,0.016227156,0.057459254,0.030692706,inf,inf,inf,inf,1,1,1,1,4,1,2,1,4,0,0,1
716317864,0,0.0,0.0,-0.03277105,0.6073363,-0.10956458,-0.014725093,0.004103156,0.59175354,-0.00083839794,0.0063168705,-0.17963338,-0.03226573,0.12236832,0.09785107,-0.058551528,-0.05672425,0.022002202,-0.29672438,1.5732344,-0.6516362,0.0,0.13077539,0.032297377,0.016227031,0.057375103,0.030691061,inf,inf,inf,inf,1,1,1,1,4,1,2,1,4,0,0,1
716419118,0,0.0,0.0,-0.032654483,0.6073634,-0.10965953,-0.014725093,0.004103156,0.59175354,-6.5256565e-05,0.0065173614,-0.17970957,-0.032472536,0.12236832,0.09785107,-0.058551528,0.0637107,0.09229212,-0.11674375,1.5732588,-0.6516362,0.0,0.13068542,0.03228984,0.016226914,0.05741388,0.030691123,inf,inf,inf,inf,1,1,1,1,4,1,2,1,4,0,0,1
716627228,0,0.0,0.0,-0.03236494,0.607429,-0.10910202,-0.014725093,0.004103156,0.59175354,-5.5641525e-05,0.006968018,-0.18098946,-0.034214288,0.12236832,0.09785107,-0.058551528,-0.059520215,0.056946605,-0.17123905,1.5732557,-0.6516362,0.0,0.12985785,0.03188067,0.016226757,0.05709009,0.030691387,inf,inf,inf,inf,1,1,1,1,4,1,2,1,4,0,0,1
716723671,0,0.0,0.0,-0.032213327,0.60742444,-0.10825922,-0.014725093,0.004103156,0.59175354,0.00069319207,0.0060424563,-0.18093488,-0.03439399,0.12236832,0.09785107,-0.058551528,0.13926703,-0.20505857,-0.22689708,1.5732528,-0.6516362,0.0,0.12882371,0.031982947,0.016226716,0.057289798,0.03069161,inf,inf,inf,inf,1,1,1,1,4,1,2,1,4,0,0,1
716820155,0,0.0,0.0,-0.03206206,0.60744345,-0.107541926,-0.014725093,0.004103156,0.59175354,0.00087568583,0.0076209535,-0.18134017,-0.034753658,0.12236832,0.09785107,-0.058551528,0.091521345,0.034806795,-0.21349995,1.5732694,-0.6516362,0.0,0.12926708,0.032877054,0.016226625,0.057989977,0.030688228,inf,inf,inf,inf,1,1,1,1,4,1,2,1,4,0,0,1
716921629,0,0.0,0.0,-0.031892616,0.6074909,-0.108105496,-0.014725093,0.004103156,0.59175354,0.000701631,0.0069675846,-0.17956671,-0.032662246,0.12236832,0.09785107,-0.058551528,-0.015477655,0.12445947,-0.1640614,1.5732268,-0.6516362,0.0,0.13007721,0.032815725,0.016226394,0.057789516,0.030686928,inf,inf,inf,inf,1,1,1,1,4,1,2,1,4,0,0,1
717124661,0,0.0,0.0,-0.031577095,0.6074034,-0.11084739,-0.014725093,0.004103156,0.59175354,0.0034661721,-0.00966969,-0.22063424,-0.07356896,0.12236832,0.09785107,-0.058551528,-0.2704562,-1.2436827,-1.549243,1.5713775,-0.6516362,0.0,0.13233323,0.032753013,0.01622602,0.06684836,0.030696327,inf,inf,inf,inf,1,1,1,1,4,1,2,1,4,0,0,1
717216198,0,0.0,0.0,-0.03131551,0.60495186,-0.12094752,-0.014725093,0.004103156,0.59175354,0.0008778777,-0.019234888,-0.33750898,-0.19059466,0.12236832,0.09785107,-0.058551528,0.20825613,1.2606212,-0.22051498,1.573995,-0.6516362,0.0,0.14243336,0.032623284,0.01622624,0.08143722,0.03071612,inf,inf,inf,inf,1,1,1,1,4,1,2,1,4,0,0,1
717327691,0,0.0,0.0,-0.030933764,0.601704,-0.14159039,-0.014725093,0.004103156,0.59175354,0.0025965523,-0.020506507,-0.387813,-0.24126908,0.12236832,0.09785107,-0.058551528,-0.27268314,-1.0943773,0.53467137,1.5824955,-0.6516362,0.0,0.16307622,0.034320273,0.016227541,0.10315832,0.030752122,inf,inf,inf,inf,1,1,1,1,4,1,2,1,4,0,0,1
717525665,0,0.0,0.0,-0.029541302,0.59667474,-0.19677392,-0.014725093,0.004103156,0.59175354,0.0010245794,-0.016081672,-0.5380549,-0.393165,0.12236832,0.09785107,-0.058551528,-0.14510486,-0.14391138,-3.2188377,1.5906566,-0.6516362,0.0,0.21825975,0.03912512,0.016231703,0.13386072,0.030748826,inf,inf,inf,inf,1,1,1,1,4,1,2,1,4,0,0,1
717627422,0,0.0,0.0,-0.03123405,0.59267986,-0.23770879,-0.014725093,0.004103156,0.59175354,-0.027653472,-0.033607103,-0.5696355,-0.4252735,0.12236832,0.09785107,-0.058551528,-0.69997406,-1.3416507,1.233767,1.5814849,-0.6516362,0.0,0.25919464,0.041667268,0.016232418,0.14050318,0.030736895,inf,inf,inf,inf,1,1,1,1,4,1,2,1,4,0,0,1
717820042,0,0.0,0.0,-0.03477104,0.58386296,-0.31093237,-0.014725093,0.004103156,0.59175354,-0.014809513,-0.02795728,-0.5380602,-0.39427286,0.12236832,0.09785107,-0.058551528,-0.81435174,-0.12286287,-0.8849259,1.5700167,-0.6516362,0.0,0.3324182,0.043342177,0.016232327,0.13503638,0.03072532,inf,inf,inf,inf,1,1,1,1,4,1,2,1,4,0,0,1
717921560,0,0.0,0.0,-0.037156574,0.5798327,-0.3447787,-0.014725093,0.004103156,0.59175354,-0.018202148,-0.022399014,-0.4860324,-0.34146374,0.12236832,0.09785107,-0.058551528,-0.48859787,0.1687662,0.48862207,1.5646328,-0.6516362,0.0,0.36626452,0.0436139,0.016231727,0.12861073,0.030711813,inf,inf,inf,inf,1,1,1,1,4,1,2,1,4,0,0,1
718023085,0,0.0,0.0,-0.038884755,0.5766887,-0.3734942,-0.014725093,0.004103156,0.59175354,-0.0063178185,-0.016329445,-0.47768426,-0.33122632,0.12236832,0.09785107,-0.058551528,1.3577716,0.3757802,-0.36758894,1.5623639,-0.6516362,0.0,0.39498004,0.04348217,0.01623082,0.12141132,0.0307032,inf,inf,inf,inf,1,1,1,1,4,1,2,1,4,0,0,1
718119781,0,0.0,0.0,-0.04051917,0.574951,-0.39861068,-0.014725093,0.004103156,0.59175354,-0.011001645,-0.006671013,-0.47813585,-0.32865283,0.12236832,0.09785107,-0.058551528,0.33978406,1.3798989,-1.6883197,1.5603306,-0.6516362,0.0,0.42009652,0.04330955,0.016229806,0.11475713,0.030695312,inf,inf,inf,inf,1,1,1,1,4,1,2,1,4,0,0,1
718221028,0,0.0,0.0,-0.04179265,0.5747143,-0.4231171,-0.014725093,0.004103156,0.59175354,-0.0090598,0.0013046674,-0.46479535,-0.3110921,0.12236832,0.09785107,-0.058551528,0.28473157,0.15439071,0.031479817,1.5597711,-0.6516362,0.0,0.44460294,0.042736746,0.016228832,0.10780356,0.03069067,inf,inf,inf,inf,1,1,1,1,4,1,2,1,4,0,0,1
718424064,0,0.0,0.0,-0.04300546,0.57915616,-0.4656566,-0.014725093,0.004103156,0.59175354,-0.002521992,0.017033713,-0.45496893,-0.28970033,0.12236832,0.09785107,-0.058551528,0.20635042,0.092436925,-0.7126648,1.5608584,-0.6516362,0.0,0.48714244,0.041109636,0.016227232,0.09520346,0.030688921,inf,inf,inf,inf,1,1,1,1,4,1,2,1,4,0,0,1
718622046,0,0.0,0.0,-0.042731717,0.58741456,-0.49253377,-0.014725093,0.004103156,0.59175354,0.0013444055,0.017383214,-0.44354737,-0.26293677,0.12236832,0.09785107,-0.058551528,0.23523708,-0.12483438,-0.029987685,1.5635086,-0.6516362,0.0,0.5140196,0.040518012,0.016226364,0.086745575,0.030685931,inf,inf,inf,inf,1,1,1,1,4,1,2,1,4,0,0,1
718723532,0,0.0,0.0,-0.042333696,0.59149534,-0.50607926,-0.014725093,0.004103156,0.59175354,0.00071346224,0.011958631,-0.45474946,-0.26568845,0.12236832,0.09785107,-0.058551528,-0.32084298,-0.9162157,-0.30836827,1.5645164,-0.6516362,0.0,0.5275651,0.03958792,0.016225912,0.082371116,0.03068352,inf,inf,inf,inf,1,1,1,1,4,1,2,1,4,0,0,1
718825038,0,0.0,0.0,-0.041855637,0.5952131,-0.5189122,-0.014725093,0.004103156,0.59175354,-0.00038750545,0.014727497,-0.4422626,-0.24454337,0.12236832,0.09785107,-0.058551528,-0.70138067,0.8269889,0.03652373,1.5654821,-0.6516362,0.0,0.54039806,0.04027039,0.016225426,0.08079016,0.030681748,inf,inf,inf,inf,1,1,1,1,4,1,2,1,4,0,0,1
718926555,0,0.0,0.0,-0.041353684,0.59880155,-0.52994996,-0.014725093,0.004103156,0.59175354,0.0026747547,0.014155842,-0.43726996,-0.2312496,0.12236832,0.09785107,-0.058551528,-0.15127593,-0.7609075,0.9091131,1.5657953,-0.6516362,0.0,0.5514358,0.03904831,0.01622503,0.07671708,0.03068181,inf,inf,inf,inf,1,1,1,1,4,1,2,1,4,0,0,1
719119436,0,0.0,0.0,-0.040801074,0.60732174,-0.54567266,-0.014725093,0.004103156,0.59175354,0.0034558913,0.03748709,-0.43992537,-0.21861498,0.12236832,0.09785107,-0.058551528,1.2056224,0.71057034,-0.33305228,1.5661079,-0.6516362,0.0,0.5671585,0.037294563,0.016224556,0.07101613,0.030680185,inf,inf,inf,inf,1,1,1,1,4,1,2,1,4,0,0,1
719317382,0,0.0,0.0,-0.04089295,0.6164569,-0.5525463,-0.014725093,0.004103156,0.59175354,-0.0013143751,0.027447805,-0.34873948,-0.11323001,0.12236832,0.09785107,-0.058551528,0.085608795,0.5634282,-1.7802082,1.5648794,-0.6516362,0.0,0.5740322,0.036005072,0.016224181,0.067072675,0.030679082,inf,inf,inf,inf,1,1,1,1,4,1,2,1,4,0,0,1
719418895,0,0.0,0.0,-0.041012984,0.61996037,-0.55008054,-0.014725093,0.004103156,0.59175354,-0.0007160772,0.019099876,-0.36973065,-0.12742345,0.12236832,0.09785107,-0.058551528,-0.7808135,-0.11024117,-1.0788913,1.563466,-0.6516362,0.0,0.5715664,0.03551241,0.016223969,0.06561472,0.03067821,inf,inf,inf,inf,1,1,1,1,4,1,2,1,4,0,0,1
719520527,0,0.0,0.0,-0.04126402,0.62251943,-0.54979753,-0.014725093,0.004103156,0.59175354,-0.004610064,0.015321752,-0.37297574,-0.123527065,0.12236832,0.09785107,-0.058551528,-0.6643558,1.0960107,-1.2169224,1.5619404,-0.6516362,0.0,0.5712834,0.035036184,0.016223643,0.06426564,0.030676106,inf,inf,inf,inf,1,1,1,1,4,1,2,1,4,0,0,1
719621935,0,0.0,0.0,-0.041637845,0.62431574,-0.5472606,-0.014725093,0.004103156,0.59175354,-0.0001825893,0.002255475,-0.3942938,-0.13797998,0.12236832,0.09785107,-0.058551528,0.50537986,-0.4639546,-1.3258882,1.5606756,-0.6516362,0.0,0.56874645,0.035699736,0.016223405,0.06439411,0.030676857,inf,inf,inf,inf,1,1,1,1,4,1,2,1,4,0,0,1
719723434,0,0.0,0.0,-0.041995082,0.6243868,-0.5514137,-0.014725093,0.004103156,0.59175354,-0.0015340497,-0.00994363,-0.4626702,-0.19990245,0.12236832,0.09785107,-0.058551528,-0.3621995,0.045685075,-0.76368445,1.5595152,-0.6516362,0.0,0.5728996,0.03628333,0.016223276,0.06442078,0.030677062,inf,inf,inf,inf,1,1,1,1,4,1,2,1,4,0,0,1
720022906,0,0.0,0.0,-0.04341833,0.6219026,-0.559383,-0.014725093,0.004103156,0.59175354,-0.0059485617,-0.011694313,-0.4404153,-0.16156341,0.12236832,0.09785107,-0.058551528,-0.45517886,0.33160147,-0.3150576,1.558882,-0.6516362,0.0,0.58086884,0.035416674,0.01622351,0.062073644,0.03068091,inf,inf,inf,inf,1,1,1,1,4,1,2,1,4,0,0,1
720124429,0,0.0,0.0,-0.044253547,0.6202458,-0.5625017,-0.014725093,0.004103156,0.59175354,-0.009679378,-0.018273167,-0.43401742,-0.1503999,0.12236832,0.09785107,-0.058551528,-1.8804154,-0.55585295,-0.2926668,1.5598571,-0.6516362,0.0,0.5839876,0.033867337,0.016223583,0.060172673,0.030681314,inf,inf,inf,inf,1,1,1,1,4,1,2,1,4,0,0,1
720215766,0,0.0,0.0,-0.045074947,0.6182328,-0.5645225,-0.014725093,0.004103156,0.59175354,-0.0011159773,-0.023570098,-0.4427474,-0.15539704,0.12236832,0.09785107,-0.058551528,0.82773656,0.21080784,-0.5632882,1.5604315,-0.6516362,0.0,0.58600837,0.034054834,0.01622368,0.060270086,0.030682782,inf,inf,inf,inf,1,1,1,1,4,1,2,1,4,0,0,1
720317284,0,0.0,0.0,-0.04647205,0.61539286,-0.56727695,-0.014725093,0.004103156,0.59175354,-0.014132848,-0.025650857,-0.43222085,-0.14131357,0.12236832,0.09785107,-0.058551528,0.9862475,0.87283194,-0.7738882,1.5611181,-0.6516362,0.0,0.5887628,0.033782795,0.01622382,0.059889585,0.03068299,inf,inf,inf,inf,1,1,1,1,4,1,2,1,4,0,0,1
720423888,0,0.0,0.0,-0.04928428,0.6101497,-0.56787264,-0.014725093,0.004103156,0.59175354,-0.023797758,-0.06831035,-0.4339787,-0.13989437,0.12236832,0.09785107,-0.058551528,0.90309274,-0.9911967,-0.04131569,1.5623518,-0.6516362,0.0,0.5893585,0.033089012,0.016223999,0.05912274,0.030684764,inf,inf,inf,inf,1,1,1,1,4,1,2,1,4,0,0,1
720626889,0,0.0,0.0,-0.05634976,0.5828216,-0.5695474,-0.014725093,0.004103156,0.59175354,-0.034338836,-0.21041904,-0.429497,-0.13106774,0.12236832,0.09785107,-0.058551528,-0.9120615,-1.5271776,0.48399296,1.5644248,-0.6516362,0.0,0.5910333,0.033276632,0.01622427,0.05914521,0.030682856,inf,inf,inf,inf,1,1,1,1,4,1,2,1,4,0,0,1
720718254,0,0.0,0.0,-0.05990481,0.5595277,-0.5730479,-0.014725093,0.004103156,0.59175354,-0.034061298,-0.29440284,-0.43763897,-0.13745731,0.12236832,0.09785107,-0.058551528,0.1848397,-0.7995848,-1.2506078,1.5669727,-0.6516362,0.0,0.59453374,0.03756938,0.016224205,0.0632192,0.030682309,inf,inf,inf,inf,1,1,1,1,4,1,2,1,4,0,0,1
720819974,0,0.0,0.0,-0.06423363,0.5218004,-0.5790769,-0.014725093,0.004103156,0.59175354,-0.035720043,-0.4350839,-0.43418667,-0.13237259,0.12236832,0.09785107,-0.058551528,-0.0054566157,-2.6536863,1.4293162,1.5724685,-0.6516362,0.0,0.60056275,0.036231868,0.01622407,0.061194897,0.030683462,inf,inf,inf,inf,1,1,1,1,4,1,2,1,4,0,0,1
721022788,0,0.0,0.0,-0.07288199,0.40181696,-0.5895454,-0.014725093,0.004103156,0.59175354,-0.024453286,-0.65880996,-0.42529565,-0.12300448,0.12236832,0.09785107,-0.058551528,0.17685242,0.07608717,-1.5332924,1.5880144,-0.6516362,0.0,0.6110313,0.03449539,0.016224543,0.059213042,0.030702507,inf,inf,inf,inf,1,1,1,1,4,1,2,1,4,0,0,1
721124313,0,0.0,0.0,-0.07627871,0.33060664,-0.59416544,-0.014725093,0.004103156,0.59175354,-0.015315592,-0.6573305,-0.42757693,-0.1256237,0.12236832,0.09785107,-0.058551528,0.016511606,0.050863214,0.24892588,1.5946424,-0.6516362,0.0,0.6156513,0.03308774,0.01622542,0.057972256,0.030716343,inf,inf,inf,inf,1,1,1,1,4,1,2,1,4,0,0,1
721226047,0,0.0,0.0,-0.07859388,0.26196426,-0.59948426,-0.014725093,0.004103156,0.59175354,-0.005066141,-0.6042323,-0.42582336,-0.124025255,0.12236832,0.09785107,-0.058551528,0.3723234,0.6490618,-0.6238385,1.600541,-0.6516362,0.0,0.62097013,0.032824304,0.01622661,0.05789276,0.030719232,inf,inf,inf,inf,1,1,1,1,4,1,2,1,4,0,0,1
721819636,0,0.0,0.0,-0.07228268,-0.16797863,-0.6078245,-0.014725093,0.004103156,0.59175354,0.040912263,-0.9121754,-0.4137347,-0.10278939,0.12236832,0.09785107,-0.058551528,0.3136238,-2.028685,-0.36376634,1.5928789,-0.6516362,0.0,0.62931037,0.032817647,0.016227994,0.058461063,0.030703574,inf,inf,inf,inf,1,1,1,1,4,1,2,1,4,0,0,1
722423630,0,0.0,0.0,-0.0521815,-0.79417527,-0.595203,-0.014725093,0.004103156,0.59175354,0.037979323,-1.0863526,-0.4102972,-0.08252548,0.12236832,0.09785107,-0.058551528,0.10464252,-0.17049804,-1.027265,1.5661006,-0.6516362,0.0,0.61668885,0.032038305,0.016232224,0.057626728,0.030728323,inf,inf,inf,inf,1,1,1,1,4,1,2,1,4,0,0,0
722525123,0,0.0,0.0,-0.05001469,-0.8999844,-0.58681476,-0.014725093,0.004103156,0.59175354,0.03148349,-1.1011424,-0.41888624,-0.08812081,0.12236832,0.09785107,-0.058551528,0.23493734,-0.04757235,-1.1258615,1.5616401,-0.6516362,0.0,0.6083006,0.033441175,0.016232843,0.05908281,0.030725513,inf,inf,inf,inf,1,1,1,1,4,1,2,1,4,0,0,0
722626726,0,0.0,0.0,-0.04831973,-1.0066059,-0.58451664,-0.014725093,0.004103156,0.59175354,0.025988052,-1.1126357,-0.42364413,-0.08987752,0.12236832,0.09785107,-0.058551528,-0.26201198,-0.3878545,-0.059217576,1.5587386,-0.6516362,0.0,0.6060025,0.03327071,0.016233066,0.058501367,0.030716954,inf,inf,inf,inf,1,1,1,1,4,1,2,1,4,0,0,0
722723057,0,0.0,0.0,-0.04748668,-1.1104835,-0.5796292,-0.014725093,0.004103156,0.59175354,0.02112455,-1.1840421,-0.4099062,-0.07222918,0.12236832,0.09785107,-0.058551528,-0.091699384,-1.4024252,-0.9573784,1.5573885,-0.6516362,0.0,0.60111505,0.033031255,0.016232872,0.05822628,0.030718293,inf,inf,inf,inf,1,1,1,1,4,1,2,1,4,0,0,0
722824571,0,0.0,0.0,-0.0475234,-1.2295796,-0.576419,-0.014725093,0.004103156,0.59175354,0.009705491,-1.2934479,-0.4522131,-0.11115211,0.12236832,0.09785107,-0.058551528,-0.08768045,-0.22498459,-2.10913,1.5557405,-0.6516362,0.0,0.59790486,0.032843985,0.01623285,0.057996135,0.030719075,inf,inf,inf,inf,1,1,1,1,4,1,2,1,4,0,0,0
722926077,0,0.0,0.0,-0.04856356,-1.3572854,-0.5794109,-0.014725093,0.004103156,0.59175354,0.004434207,-1.3541907,-0.49714157,-0.15242389,0.12236832,0.09785107,-0.058551528,0.42904407,-0.13217123,-0.89438874,1.5557001,-0.6516362,0.0,0.6008968,0.0326948,0.016232911,0.057758033,0.030720273,inf,inf,inf,inf,1,1,1,1,4,1,2,1,4,0,0,0
723017430,0,0.0,0.0,-0.05035517,-1.475822,-0.5816186,-0.014725093,0.004103156,0.59175354,-0.0026726301,-1.3777837,-0.4795771,-0.13164057,0.12236832,0.09785107,-0.058551528,-0.2362854,0.05847284,-0.31406137,1.5557142,-0.6516362,0.0,0.6031045,0.03304027,0.016233167,0.058326297,0.030727025,inf,inf,inf,inf,1,1,1,1,4,1,2,1,4,0,0,0
723119009,0,0.0,0.0,-0.05326646,-1.6093421,-0.58367425,-0.014725093,0.004103156,0.59175354,-0.0135642765,-1.3798355,-0.4983126,-0.14720137,0.12236832,0.09785107,-0.058551528,-0.5326451,0.3180257,-1.1616082,1.5562451,-0.6516362,0.0,0.6051601,0.03296232,0.016233774,0.058375265,0.030732118,inf,inf,inf,inf,1,1,1,1,4,1,2,1,4,0,0,0
723220450,0,0.0,0.0,-0.056964334,-1.7428385,-0.59074163,-0.014725093,0.004103156,0.59175354,-0.01745246,-1.3862579,-0.5796543,-0.2254378,0.12236832,0.09785107,-0.058551528,-0.54950154,0.21489736,-0.7681727,1.5573674,-0.6516362,0.0,0.6122275,0.03290838,0.016234389,0.058381908,0.030732907,inf,inf,inf,inf,1,1,1,1,4,1,2,1,4,0,0,0
723321947,0,0.0,0.0,-0.060997654,-1.8798356,-0.600684,-0.014725093,0.004103156,0.59175354,-0.01938527,-1.4530647,-0.5601509,-0.20281853,0.12236832,0.09785107,-0.058551528,-0.2367743,-1.444203,-0.13214114,1.5590968,-0.6516362,0.0,0.62216985,0.032875847,0.016234947,0.058529362,0.03073619,inf,inf,inf,inf,1,1,1,1,4,1,2,1,4,0,0,0
723418391,0,0.0,0.0,-0.06538989,-2.0174193,-0.6048305,-0.014725093,0.004103156,0.59175354,-0.025989067,-1.5341054,-0.55714226,-0.19693908,0.12236832,0.09785107,-0.058551528,-0.5209043,-0.08285076,-1.1754172,1.5587777,-0.6516362,0.0,0.62631637,0.032868356,0.016235745,0.058733765,0.030742994,inf,inf,inf,inf,1,1,1,1,4,1,2,1,4,0,0,0
723520091,0,0.0,0.0,-0.07042952,-2.1675603,-0.6132666,-0.014725093,0.004103156,0.59175354,-0.029411776,-1.5321463,-0.5822724,-0.2193433,0.12236832,0.09785107,-0.058551528,-0.10946939,0.77929467,-0.38661405,1.5586989,-0.6516362,0.0,0.63475245,0.032078225,0.016236566,0.057909433,0.030744215,inf,inf,inf,inf,1,1,1,1,4,1,2,1,4,0,0,0
723722898,0,0.0,0.0,-0.08214983,-2.4466553,-0.63047725,-0.014725093,0.004103156,0.59175354,-0.036243923,-1.2902888,-0.5878238,-0.2184749,0.12236832,0.09785107,-0.058551528,-0.9419375,1.4709878,0.051352996,1.56422,-0.6516362,0.0,0.6519631,0.032930374,0.016237821,0.0587384,0.030744556,inf,inf,inf,inf,1,1,1,1,4,1,2,1,4,0,0,0
723819346,0,0.0,0.0,-0.087221876,-2.5565176,-0.6355584,-0.014725093,0.004103156,0.59175354,-0.029310888,-1.1107482,-0.5498309,-0.17761402,0.12236832,0.09785107,-0.058551528,0.22266982,2.215573,-0.2762683,1.5635803,-0.6516362,0.0,0.6570443,0.032146435,0.01623809,0.05796509,0.030740358,inf,inf,inf,inf,1,1,1,1,4,1,2,1,4,0,0,0
723926191,0,0.0,0.0,-0.09249412,-2.6605835,-0.6386471,-0.014725093,0.004103156,0.59175354,-0.032248847,-0.97246546,-0.5729596,-0.19771647,0.12236832,0.09785107,-0.058551528,-0.6547999,1.1845534,-0.65384454,1.5614737,-0.6516362,0.0,0.66013294,0.032670803,0.016238103,0.058585413,0.030745722,inf,inf,inf,inf,1,1,1,1,4,1,2,1,4,0,0,0
724017398,0,0.0,0.0,-0.09713874,-2.740958,-0.64524275,-0.014725093,0.004103156,0.59175354,-0.038876563,-0.941133,-0.5660287,-0.18781243,0.12236832,0.09785107,-0.058551528,0.13016288,-0.6832681,-0.53118974,1.5552412,-0.6516362,0.0,0.6667286,0.03314498,0.016237805,0.05868244,0.030735957,inf,inf,inf,inf,1,1,1,1,4,1,2,1,4,0,0,0
724123844,0,0.0,0.0,-0.10300978,-2.83182,-0.6498269,-0.014725093,0.004103156,0.59175354,-0.046024743,-0.9365531,-0.5770583,-0.19463573,0.12236832,0.09785107,-0.058551528,0.37263522,0.39690027,-1.0770833,1.5476984,-0.6516362,0.0,0.67131275,0.032622483,0.016237175,0.058196038,0.03074642,inf,inf,inf,inf,1,1,1,1,4,1,2,1,4,0,0,0
724225355,0,0.0,0.0,-0.108570874,-2.9138818,-0.65909684,-0.014725093,0.004103156,0.59175354,-0.039967023,-0.85460734,-0.59491843,-0.20958936,0.12236832,0.09785107,-0.058551528,0.24276507,0.7398706,-0.83008385,1.5498483,-0.6516362,0.0,0.6805827,0.03257173,0.016237099,0.05808995,0.030740602,inf,inf,inf,inf,1,1,1,1,4,1,2,1,4,0,0,0
724326860,0,0.0,0.0,-0.11211733,-2.984533,-0.6678553,-0.014725093,0.004103156,0.59175354,-0.0130039025,-0.73890483,-0.58281475,-0.19472063,0.12236832,0.09785107,-0.058551528,0.69500715,1.742743,-0.65854234,1.5585923,-0.6516362,0.0,0.6893412,0.032526407,0.016236719,0.057992153,0.030728713,inf,inf,inf,inf,1,1,1,1,4,1,2,1,4,0,0,0
724418421,0,0.0,0.0,-0.11266203,-3.0400093,-0.6768066,-0.014725093,0.004103156,0.59175354,0.0075413412,-0.65286887,-0.6006158,-0.2107379,0.12236832,0.09785107,-0.058551528,-0.3646592,0.5934673,0.7451103,1.5720618,-0.6516362,0.0,0.6982925,0.032939296,0.016236365,0.05845962,0.030733768,inf,inf,inf,inf,1,1,1,1,4,1,2,1,4,0,0,0
724621219,0,0.0,0.0,-0.10537475,-3.1238503,-0.6954716,-0.014725093,0.004103156,0.59175354,0.045360338,-0.2988414,-0.5806569,-0.18882851,0.12236832,0.09785107,-0.058551528,-0.6863054,1.8003763,0.37055033,1.6105769,-0.6516362,0.0,0.71695745,0.032893777,0.01623632,0.05848453,0.03073766,inf,inf,inf,inf,1,1,1,1,4,1,2,1,4,0,0,0
724722719,0,0.0,0.0,-0.09992762,-3.1367018,-0.7032746,-0.014725093,0.004103156,0.59175354,0.037783645,-0.11138474,-0.58088064,-0.18873635,0.12236832,0.09785107,-0.058551528,-0.19810534,0.3074937,-0.2191124,1.6197602,-0.6516362,0.0,0.7247605,0.03288162,0.016236445,0.058510188,0.030749328,inf,inf,inf,inf,1,1,1,1,4,1,2,1,4,0,0,0
724819177,0,0.0,0.0,-0.09535991,-3.1356213,-0.709613,-0.014725093,0.004103156,0.59175354,0.02448734,-0.023761112,-0.5790235,-0.18691562,0.12236832,0.09785107,-0.058551528,0.13285829,-1.7815027,1.3784316,1.6190264,-0.6516362,0.0,0.7310989,0.032042664,0.01623716,0.057691626,0.030769672,inf,inf,inf,inf,1,1,1,1,4,1,2,1,4,0,0,0
724920685,0,0.0,0.0,-0.091910735,-3.1307733,-0.7178721,-0.014725093,0.004103156,0.59175354,0.0024174058,-0.011872316,-0.579522,-0.1879431,0.12236832,0.09785107,-0.058551528,0.022066992,-0.49715623,-0.94641155,1.6056215,-0.6516362,0.0,0.73935795,0.032137442,0.016238565,0.057916954,0.03078078,inf,inf,inf,inf,1,1,1,1,4,1,2,1,4,0,0,0
725027240,0,0.0,0.0,-0.090720944,-3.1291857,-0.7265812,-0.014725093,0.004103156,0.59175354,-0.024482185,-0.048688684,-0.5825422,-0.19160122,0.12236832,0.09785107,-0.058551528,-0.8501163,0.84698236,-0.54642236,1.5857828,-0.6516362,0.0,0.7480671,0.032586697,0.016239675,0.058199313,0.030760946,inf,inf,inf,inf,1,1,1,1,4,1,2,1,4,0,0,0
725225174,0,0.0,0.0,-0.09435226,-3.1449208,-0.74552757,-0.014725093,0.004103156,0.59175354,-0.050449844,-0.12485523,-0.58826727,-0.1996626,0.12236832,0.09785107,-0.058551528,-1.8479348,-0.1399682,-1.2355615,1.5609237,-0.6516362,0.0,0.76701343,0.03259603,0.016237184,0.058088306,0.030706199,inf,inf,inf,inf,1,1,1,1,4,1,2,1,4,0,0,0
725326778,0,0.0,0.0,-0.09728889,-3.1624663,-0.75873333,-0.014725093,0.004103156,0.59175354,-0.039960034,-0.1522923,-0.5727227,-0.18513095,0.12236832,0.09785107,-0.058551528,-0.7129542,-1.2805908,0.3995916,1.5605402,-0.6516362,0.0,0.7802192,0.03253988,0.016233936,0.057879012,0.030685293,inf,inf,inf,inf,1,1,1,1,4,1,2,1,4,0,0,0
725418021,0,0.0,0.0,-0.09970248,-3.1826382,-0.7702536,-0.014725093,0.004103156,0.59175354,-0.034620672,-0.15814795,-0.57552904,-0.18968788,0.12236832,0.09785107,-0.058551528,-0.16275653,0.42265242,-1.0136676,1.5641804,-0.6516362,0.0,0.79173946,0.032943193,0.016230907,0.058314707,0.030675657,inf,inf,inf,inf,1,1,1,1,4,1,2,1,4,0,0,0
725524606,0,0.0,0.0,-0.10268978,-3.2111092,-0.7813452,-0.014725093,0.004103156,0.59175354,-0.036084913,-0.17023596,-0.56919616,-0.18605255,0.12236832,0.09785107,-0.058551528,-0.63418555,-0.3139687,-0.11443139,1.5692683,-0.6516362,0.0,0.80283105,0.0324597,0.016227432,0.057812836,0.03066901,inf,inf,inf,inf,1,1,1,1,4,1,2,1,4,0,0,0
725621027,0,0.0,0.0,-0.10559054,-3.240036,-0.7915088,-0.014725093,0.004103156,0.59175354,-0.033322435,-0.16542605,-0.5714909,-0.19094838,0.12236832,0.09785107,-0.058551528,0.09163065,0.04421126,-0.058058325,1.5732806,-0.6516362,0.0,0.81299466,0.032432675,0.016224945,0.057810232,0.03066642,inf,inf,inf,inf,1,1,1,1,4,1,2,1,4,0,0,0
725727883,0,0.0,0.0,-0.10817367,-3.2735934,-0.8038507,-0.014725093,0.004103156,0.59175354,-0.009158695,-0.16393016,-0.5660991,-0.18763776,0.12236832,0.09785107,-0.058551528,1.1878283,0.49357748,-1.087413,1.5774153,-0.6516362,0.0,0.8253366,0.033743724,0.016222829,0.05894943,0.030660568,inf,inf,inf,inf,1,1,1,1,4,1,2,1,4,0,0,0
725920465,0,0.0,0.0,-0.09265779,-3.3417926,-0.83084667,-0.014725093,0.004103156,0.59175354,0.21503663,-0.2393271,-0.57246894,-0.19711237,0.12236832,0.09785107,-0.058551528,2.288916,0.07644482,-0.9462256,1.5823516,-0.6516362,0.0,0.85233253,0.033511132,0.016220326,0.058364928,0.030657772,inf,inf,inf,inf,1,1,1,1,4,1,2,1,4,0,0,0
726021968,0,0.0,0.0,-0.06210167,-3.383835,-0.84561664,-0.014725093,0.004103156,0.59175354,0.38132504,-0.24318157,-0.56400293,-0.1905621,0.12236832,0.09785107,-0.058551528,0.8387967,0.6761602,-0.90488476,1.5863767,-0.6516362,0.0,0.8671025,0.033169027,0.016219458,0.058063664,0.030659998,inf,inf,inf,inf,1,1,1,1,4,1,2,1,4,0,0,0
726225055,0,0.0,0.0,0.03819991,-3.4644036,-0.8753848,-0.014725093,0.004103156,0.59175354,0.52654386,-0.20445204,-0.5702484,-0.20205964,0.12236832,0.09785107,-0.058551528,0.07097975,0.6558088,-0.2772579,1.581427,-0.6516362,0.0,0.8968707,0.032813072,0.016218971,0.05797545,0.030682301,inf,inf,inf,inf,1,1,1,1,4,1,2,1,4,0,0,0
726316362,0,0.0,0.0,0.08713495,-3.4985578,-0.88882464,-0.014725093,0.004103156,0.59175354,0.48022026,-0.20058501,-0.5623167,-0.19674733,0.12236832,0.09785107,-0.058551528,-1.6868469,-0.5042755,-0.03709983,1.5804516,-0.6516362,0.0,0.9103105,0.03233805,0.016219543,0.05765898,0.03068998,inf,inf,inf,inf,1,1,1,1,4,1,2,1,4,0,0,0
726417827,0,0.0,0.0,0.13529472,-3.535028,-0.90338033,-0.014725093,0.004103156,0.59175354,0.40497085,-0.19351785,-0.5592139,-0.1965294,0.12236832,0.09785107,-0.058551528,-1.191196,-0.13224657,-0.318891,1.5802209,-0.6516362,0.0,0.9248662,0.03232168,0.01622049,0.0577738,0.030687768,inf,inf,inf,inf,1,1,1,1,4,1,2,1,4,0,0,0
726524409,0,0.0,0.0,0.17920077,-3.572027,-0.9145047,-0.014725093,0.004103156,0.59175354,0.37480888,-0.18398553,-0.5370413,-0.17718752,0.12236832,0.09785107,-0.058551528,0.54446906,0.9912428,-1.1736453,1.5793618,-0.6516362,0.0,0.9359906,0.033551637,0.016221216,0.05905203,0.030677442,inf,inf,inf,inf,1,1,1,1,4,1,2,1,4,0,0,0
726626159,0,0.0,0.0,0.22017962,-3.6044426,-0.9273294,-0.014725093,0.004103156,0.59175354,0.4194265,-0.17963472,-0.55894834,-0.20111935,0.12236832,0.09785107,-0.058551528,0.28124937,-0.046971004,-0.5358796,1.5774605,-0.6516362,0.0,0.9488153,0.03335311,0.016221227,0.058785725,0.030669954,inf,inf,inf,inf,1,1,1,1,4,1,2,1,4,0,0,0
726727409,0,0.0,0.0,0.26741678,-3.6345954,-0.94075805,-0.014725093,0.004103156,0.59175354,0.52272457,-0.16837959,-0.54458266,-0.18743956,0.12236832,0.09785107,-0.058551528,0.5489019,0.4240767,-0.84023994,1.5741543,-0.6516362,0.0,0.9622439,0.033193022,0.01622075,0.0585151,0.030665817,inf,inf,inf,inf,1,1,1,1,4,1,2,1,4,0,0,0
726818763,0,0.0,0.0,0.31840098,-3.6601553,-0.9516914,-0.014725093,0.004103156,0.59175354,0.6359472,-0.16201705,-0.553971,-0.19730195,0.12236832,0.09785107,-0.058551528,0.1896196,-0.09010452,-0.6699893,1.5721807,-0.6516362,0.0,0.97317725,0.032637887,0.016220504,0.05807489,0.030669406,inf,inf,inf,inf,1,1,1,1,4,1,2,1,4,0,0,0
726920255,0,0.0,0.0,0.3868766,-3.6861525,-0.96440876,-0.014725093,0.004103156,0.59175354,0.77008724,-0.14483729,-0.5525077,-0.19602442,0.12236832,0.09785107,-0.058551528,1.5956119,0.1089444,0.24421148,1.5698425,-0.6516362,0.0,0.9858946,0.032556757,0.016220558,0.05800361,0.03067316,inf,inf,inf,inf,1,1,1,1,4,1,2,1,4,0,0,0
727021767,0,0.0,0.0,0.4660994,-3.709391,-0.97572374,-0.014725093,0.004103156,0.59175354,0.85638404,-0.1320984,-0.5429467,-0.18620218,0.12236832,0.09785107,-0.058551528,1.6510885,0.35440913,-0.095685676,1.5675298,-0.6516362,0.0,0.9972096,0.032501925,0.01622096,0.058080997,0.030683383,inf,inf,inf,inf,1,1,1,1,4,1,2,1,4,0,0,0
727123361,0,0.0,0.0,0.5502946,-3.7306285,-0.9853687,-0.014725093,0.004103156,0.59175354,0.8746726,-0.12353739,-0.5408554,-0.18345052,0.12236832,0.09785107,-0.058551528,0.7711917,0.5310806,-0.066460356,1.5663286,-0.6516362,0.0,1.0068545,0.03246863,0.016221777,0.058114972,0.030694535,inf,inf,inf,inf,1,1,1,1,4,1,2,1,4,0,0,0
727219683,0,0.0,0.0,0.62889326,-3.7497983,-0.9916369,-0.014725093,0.004103156,0.59175354,0.83326715,-0.12012153,-0.5464971,-0.1879595,0.12236832,0.09785107,-0.058551528,0.6501826,1.085351,-1.4961456,1.566026,-0.6516362,0.0,1.0131227,0.03247125,0.016222816,0.0581447,0.030698571,inf,inf,inf,inf,1,1,1,1,4,1,2,1,4,0,0,0
727321184,0,0.0,0.0,0.70492226,-3.7684138,-1.0009971,-0.014725093,0.004103156,0.59175354,0.7346046,-0.112718694,-0.54911816,-0.1890745,0.12236832,0.09785107,-0.058551528,-0.08641217,0.30665445,0.59763896,1.5646209,-0.6516362,0.0,1.0224829,0.032563664,0.016223783,0.058362525,0.030697761,inf,inf,inf,inf,1,1,1,1,4,1,2,1,4,0,0,0
727422688,0,0.0,0.0,0.77153015,-3.7848918,-1.0095953,-0.014725093,0.004103156,0.59175354,0.66433424,-0.09936761,-0.5377709,-0.17548272,0.12236832,0.09785107,-0.058551528,-0.99288476,-0.50452876,-0.7083472,1.564368,-0.6516362,0.0,1.0310811,0.03257389,0.016224282,0.058269292,0.030688824,inf,inf,inf,inf,1,1,1,1,4,1,2,1,4,0,0,0
727524421,0,0.0,0.0,0.8333479,-3.8001099,-1.0169668,-0.014725093,0.004103156,0.59175354,0.66357833,-0.1022368,-0.5406846,-0.17597762,0.12236832,0.09785107,-0.058551528,-0.29474366,-1.176479,-0.41274333,1.5639105,-0.6516362,0.0,1.0384526,0.032586027,0.016224211,0.058291305,0.030684682,inf,inf,inf,inf,1,1,1,1,4,1,2,1,4,0,0,0
727625691,0,0.0,0.0,0.89746505,-3.8155656,-1.0252897,-0.014725093,0.004103156,0.59175354,0.7422816,-0.104002364,-0.56023353,-0.19312191,0.12236832,0.09785107,-0.058551528,0.36821735,0.052245945,-0.014188957,1.5640868,-0.6516362,0.0,1.0467755,0.03265853,0.016223904,0.058382455,0.030684344,inf,inf,inf,inf,1,1,1,1,4,1,2,1,4,0,0,0
727717044,0,0.0,0.0,0.9619741,-3.829742,-1.0267045,-0.014725093,0.004103156,0.59175354,0.83795387,-0.100164644,-0.53211033,-0.16252176,0.12236832,0.09785107,-0.058551528,0.34459347,0.367861,0.35757154,1.5623708,-0.6516362,0.0,1.0481904,0.03271886,0.016223783,0.058519617,0.030687185,inf,inf,inf,inf,1,1,1,1,4,1,2,1,4,0,0,0
727920034,0,0.0,0.0,1.1250724,-3.860185,-1.0380174,-0.014725093,0.004103156,0.59175354,0.87190115,-0.114807524,-0.5410389,-0.1651539,0.12236832,0.09785107,-0.058551528,-2.1416216,-0.6675673,-1.1119303,1.5619018,-0.6516362,0.0,1.0595032,0.03402918,0.016224118,0.05924987,0.030685738,inf,inf,inf,inf,1,1,1,1,4,1,2,1,4,0,0,0
728026648,0,0.0,0.0,1.2038407,-3.87713,-1.0420703,-0.014725093,0.004103156,0.59175354,0.7593391,-0.10686569,-0.5529617,-0.17390917,0.12236832,0.09785107,-0.058551528,-2.4964163,0.6102683,-1.3306168,1.5664281,-0.6516362,0.0,1.0635561,0.03319326,0.016224299,0.058363218,0.03068755,inf,inf,inf,inf,1,1,1,1,4,1,2,1,4,0,0,0
728117963,0,0.0,0.0,1.2591071,-3.890638,-1.0486232,-0.014725093,0.004103156,0.59175354,0.60591024,-0.09603866,-0.5532601,-0.17209226,0.12236832,0.09785107,-0.058551528,-2.5197415,-0.7362511,0.22675075,1.5709506,-0.6516362,0.0,1.070109,0.03343994,0.016224485,0.05851794,0.03068426,inf,inf,inf,inf,1,1,1,1,4,1,2,1,4,0,0,0
728219461,0,0.0,0.0,1.3008746,-3.9042914,-1.0570166,-0.014725093,0.004103156,0.59175354,0.37710547,-0.078117095,-0.560895,-0.1776298,0.12236832,0.09785107,-0.058551528,-1.5362464,0.9706348,-0.865341,1.5778867,-0.6516362,0.0,1.0785024,0.033195887,0.016224446,0.058383044,0.030686082,inf,inf,inf,inf,1,1,1,1,4,1,2,1,4,0,0,0
728320957,0,0.0,0.0,1.3174491,-3.9168727,-1.0648785,-0.014725093,0.004103156,0.59175354,0.14023997,-0.072715454,-0.5524212,-0.16800766,0.12236832,0.09785107,-0.058551528,-2.1800053,0.5297943,-0.196894,1.5836748,-0.6516362,0.0,1.0863643,0.033886574,0.016224429,0.059157018,0.030693544,inf,inf,inf,inf,1,1,1,1,4,1,2,1,4,0,0,0
728422693,0,0.0,0.0,1.3111937,-3.9291594,-1.0669515,-0.014725093,0.004103156,0.59175354,-0.021008769,-0.062883615,-0.5414698,-0.1564528,0.12236832,0.09785107,-0.058551528,-1.921518,1.9098806,-2.5538588,1.5848011,-0.6516362,0.0,1.0884373,0.033084974,0.016224746,0.058412988,0.030718556,inf,inf,inf,inf,1,1,1,1,4,1,2,1,4,0,0,0
728523970,0,0.0,0.0,1.2913063,-3.9394324,-1.0734017,-0.014725093,0.004103156,0.59175354,-0.11224836,-0.036457647,-0.55864346,-0.17323682,0.12236832,0.09785107,-0.058551528,-0.7024595,0.953537,-1.4932916,1.5804089,-0.6516362,0.0,1.0948875,0.032873422,0.016225845,0.058258913,0.030743478,inf,inf,inf,inf,1,1,1,1,4,1,2,1,4,0,0,0
728625456,0,0.0,0.0,1.2645421,-3.9421458,-1.0822096,-0.014725093,0.004103156,0.59175354,-0.13056937,0.08198719,-0.55942,-0.17250405,0.12236832,0.09785107,-0.058551528,0.19016315,2.5691817,-0.8285668,1.5751643,-0.6516362,0.0,1.1036954,0.03271119,0.01622731,0.057920095,0.030742297,inf,inf,inf,inf,1,1,1,1,4,1,2,1,4,0,0,0
728726989,0,0.0,0.0,1.2385002,-3.9284968,-1.0901961,-0.014725093,0.004103156,0.59175354,-0.098530136,0.27189648,-0.54974645,-0.16144975,0.12236832,0.09785107,-0.058551528,0.2711974,2.612483,-0.5634399,1.570994,-0.6516362,0.0,1.1116819,0.03259443,0.016228821,0.058017366,0.0307411,inf,inf,inf,inf,1,1,1,1,4,1,2,1,4,0,0,0
728823379,0,0.0,0.0,1.2171464,-3.89457,-1.0947065,-0.014725093,0.004103156,0.59175354,-0.06567567,0.50458866,-0.555127,-0.16602986,0.12236832,0.09785107,-0.058551528,-0.37739256,2.6358984,-0.86390245,1.5679257,-0.6516362,0.0,1.1161923,0.032518547,0.0162299,0.058015674,0.030726712,inf,inf,inf,inf,1,1,1,1,4,1,2,1,4,0,0,0
728925011,0,0.0,0.0,1.2003099,-3.8306081,-1.1021917,-0.014725093,0.004103156,0.59175354,-0.03706575,0.789062,-0.54550153,-0.15583193,0.12236832,0.09785107,-0.058551528,0.8328344,2.6192856,0.1250596,1.5655006,-0.6516362,0.0,1.1236775,0.032469746,0.016230002,0.057919245,0.030716611,inf,inf,inf,inf,1,1,1,1,4,1,2,1,4,0,0,0
729117731,0,0.0,0.0,1.1842713,-3.6285381,-1.1178167,-0.014725093,0.004103156,0.59175354,0.0073639485,1.2643614,-0.5573001,-0.16690364,0.12236832,0.09785107,-0.058551528,0.77945983,3.4422457,-0.6674896,1.5620915,-0.6516362,0.0,1.1393025,0.03285989,0.016229851,0.05853782,0.030768631,inf,inf,inf,inf,1,1,1,1,4,1,2,1,4,0,0,0
729219224,0,0.0,0.0,1.1838933,-3.4851685,-1.1257328,-0.014725093,0.004103156,0.59175354,0.020352174,1.4719956,-0.5475882,-0.15804897,0.12236832,0.09785107,-0.058551528,0.3714334,1.7907751,-1.0333916,1.5616863,-0.6516362,0.0,1.1472186,0.032855332,0.016231658,0.0586868,0.030815186,inf,inf,inf,inf,1,1,1,1,4,1,2,1,4,0,0,0
729320939,0,0.0,0.0,1.1885526,-3.319914,-1.1344122,-0.014725093,0.004103156,0.59175354,0.03796663,1.646378,-0.5476028,-0.15973963,0.12236832,0.09785107,-0.058551528,0.8801888,0.4906931,-0.28099498,1.5619978,-0.6516362,0.0,1.155898,0.03286074,0.016235232,0.058728814,0.03085137,inf,inf,inf,inf,1,1,1,1,4,1,2,1,4,0,0,0
729422221,0,0.0,0.0,1.1977028,-3.1397438,-1.1438352,-0.014725093,0.004103156,0.59175354,0.04816018,1.7663656,-0.5550173,-0.16961102,0.12236832,0.09785107,-0.058551528,0.61908585,1.7902877,-1.6519507,1.5628974,-0.6516362,0.0,1.165321,0.03286949,0.016240114,0.058789596,0.030883238,inf,inf,inf,inf,1,1,1,1,4,1,2,1,4,0,0,0
729518657,0,0.0,0.0,1.2103373,-2.9598677,-1.151774,-0.014725093,0.004103156,0.59175354,0.053830523,1.8169415,-0.5508025,-0.16860484,0.12236832,0.09785107,-0.058551528,-0.045090135,-1.1127228,0.36772856,1.5648116,-0.6516362,0.0,1.1732599,0.032881096,0.016245637,0.0588102,0.030895334,inf,inf,inf,inf,1,1,1,1,4,1,2,1,4,0,0,0
729721647,0,0.0,0.0,1.2446921,-2.5803578,-1.1779007,-0.014725093,0.004103156,0.59175354,0.06775725,1.7969183,-0.5652698,-0.19087638,0.12236832,0.09785107,-0.058551528,0.124535486,-0.5024713,-1.5045699,1.5681067,-0.6516362,0.0,1.1993865,0.03297653,0.016253946,0.058783103,0.030863512,inf,inf,inf,inf,1,1,1,1,4,1,2,1,4,0,0,0
729823208,0,0.0,0.0,1.2643986,-2.398557,-1.1935618,-0.014725093,0.004103156,0.59175354,0.06874223,1.787877,-0.54806554,-0.17819929,0.12236832,0.09785107,-0.058551528,-0.8255295,-0.77924615,0.5425098,1.5668352,-0.6516362,0.0,1.2150476,0.032960348,0.016255204,0.058698505,0.03083707,inf,inf,inf,inf,1,1,1,1,4,1,2,1,4,0,0,0
730015990,0,0.0,0.0,1.3058074,-2.0528173,-1.2191803,-0.014725093,0.004103156,0.59175354,0.083798096,1.9511065,-0.54674906,-0.1876899,0.12236832,0.09785107,-0.058551528,0.4583081,1.713858,-0.62495494,1.5670302,-0.6516362,0.0,1.2406662,0.032171518,0.016253086,0.057834353,0.030810123,inf,inf,inf,inf,1,1,1,1,4,1,2,1,4,0,0,0
730117484,0,0.0,0.0,1.327562,-1.8627003,-1.2366289,-0.014725093,0.004103156,0.59175354,0.08937866,2.007963,-0.54063463,-0.18680543,0.12236832,0.09785107,-0.058551528,-0.029927656,-0.9276894,0.0685673,1.5685383,-0.6516362,0.0,1.2581147,0.033035498,0.01625234,0.05854753,0.030814236,inf,inf,inf,inf,1,1,1,1,4,1,2,1,4,0,0,0
