timestamp,q[0],q[1],q[2],q[3],delta_q_reset[0],delta_q_reset[1],delta_q_reset[2],delta_q_reset[3],quat_reset_counter
707922068,0.7064738,-0.011016657,0.012630605,0.70754075,0.94738925,-3.8694037e-10,8.6731296e-11,-0.32008398,4
707927142,0.70650655,-0.011011663,0.012633748,0.7075081,0.94738925,-3.8694037e-10,8.6731296e-11,-0.32008398,4
708033745,0.70655143,-0.011017145,0.012600896,0.70746374,0.94738925,-3.8694037e-10,8.6731296e-11,-0.32008398,4
708038821,0.7065108,-0.011035233,0.012574458,0.7075045,0.94738925,-3.8694037e-10,8.6731296e-11,-0.32008398,4
708043893,0.7064902,-0.011043468,0.012598487,0.70752454,0.94738925,-3.8694037e-10,8.6731296e-11,-0.32008398,4
708049186,0.70650905,-0.011036578,0.012639535,0.7075051,0.94738925,-3.8694037e-10,8.6731296e-11,-0.32008398,4
708054155,0.70653343,-0.011000864,0.012655414,0.707481,0.94738925,-3.8694037e-10,8.6731296e-11,-0.32008398,4
708059183,0.7065366,-0.010985432,0.012646776,0.7074783,0.94738925,-3.8694037e-10,8.6731296e-11,-0.32008398,4
708064212,0.7065293,-0.011029138,0.012624263,0.70748526,0.94738925,-3.8694037e-10,8.6731296e-11,-0.32008398,4
708069272,0.7065141,-0.011069372,0.012610851,0.70750004,0.94738925,-3.8694037e-10,8.6731296e-11,-0.32008398,4
708074360,0.70650697,-0.011045713,0.012600337,0.7075078,0.94738925,-3.8694037e-10,8.6731296e-11,-0.32008398,4
708079440,0.7065132,-0.011001867,0.0126139,0.707502,0.94738925,-3.8694037e-10,8.6731296e-11,-0.32008398,4
708084503,0.7065327,-0.011010036,0.012645771,0.70748174,0.94738925,-3.8694037e-10,8.6731296e-11,-0.32008398,4
708089572,0.7065328,-0.011025819,0.012657268,0.7074812,0.94738925,-3.8694037e-10,8.6731296e-11,-0.32008398,4
708094657,0.70651567,-0.011026903,0.012636371,0.70749867,0.94738925,-3.8694037e-10,8.6731296e-11,-0.32008398,4
708099726,0.7065096,-0.011027803,0.012627108,0.7075049,0.94738925,-3.8694037e-10,8.6731296e-11,-0.32008398,4
708104800,0.7065159,-0.0110487,0.012624533,0.7074983,0.94738925,-3.8694037e-10,8.6731296e-11,-0.32008398,4
708109879,0.70652586,-0.011039051,0.012625542,0.7074885,0.94738925,-3.8694037e-10,8.6731296e-11,-0.32008398,4
708114960,0.70652217,-0.011005557,0.01262942,0.7074927,0.94738925,-3.8694037e-10,8.6731296e-11,-0.32008398,4
708120028,0.70652914,-0.010996143,0.01264473,0.70748556,0.94738925,-3.8694037e-10,8.6731296e-11,-0.32008398,4
708125117,0.70652235,-0.011020744,0.012640284,0.70749205,0.94738925,-3.8694037e-10,8.6731296e-11,-0.32008398,4
708130443,0.70651424,-0.011040367,0.012628668,0.70750004,0.94738925,-3.8694037e-10,8.6731296e-11,-0.32008398,4
708135424,0.7065106,-0.011048894,0.012635402,0.70750344,0.94738925,-3.8694037e-10,8.6731296e-11,-0.32008398,4
708140381,0.70652837,-0.011037835,0.012646252,0.7074857,0.94738925,-3.8694037e-10,8.6731296e-11,-0.32008398,4
708155560,0.7065117,-0.011029211,0.012640803,0.70750254,0.94738925,-3.8694037e-10,8.6731296e-11,-0.32008398,4
708160643,0.7065145,-0.011016872,0.012641994,0.7074999,0.94738925,-3.8694037e-10,8.6731296e-11,-0.32008398,4
708165715,0.7065234,-0.011023426,0.012632546,0.7074911,0.94738925,-3.8694037e-10,8.6731296e-11,-0.32008398,4
708170794,0.706522,-0.011051095,0.012636329,0.70749205,0.94738925,-3.8694037e-10,8.6731296e-11,-0.32008398,4
708175882,0.7065239,-0.0110402685,0.012655258,0.7074899,0.94738925,-3.8694037e-10,8.6731296e-11,-0.32008398,4
708180940,0.7065281,-0.011010715,0.012658205,0.7074861,0.94738925,-3.8694037e-10,8.6731296e-11,-0.32008398,4
708186020,0.70652455,-0.011028475,0.012648452,0.70748955,0.94738925,-3.8694037e-10,8.6731296e-11,-0.32008398,4
708191110,0.70651114,-0.011051074,0.012648251,0.7075026,0.94738925,-3.8694037e-10,8.6731296e-11,-0.32008398,4
708196200,0.7065094,-0.011024967,0.012652528,0.70750463,0.94738925,-3.8694037e-10,8.6731296e-11,-0.32008398,4
708201298,0.7065224,-0.010995323,0.012645015,0.7074923,0.94738925,-3.8694037e-10,8.6731296e-11,-0.32008398,4
708206323,0.7065363,-0.011030117,0.012637775,0.707478,0.94738925,-3.8694037e-10,8.6731296e-11,-0.32008398,4
708211613,0.70652825,-0.011053401,0.0126385605,0.7074856,0.94738925,-3.8694037e-10,8.6731296e-11,-0.32008398,4
708216625,0.706518,-0.011020475,0.012649829,0.7074962,0.94738925,-3.8694037e-10,8.6731296e-11,-0.32008398,4
708221616,0.7065222,-0.011009295,0.012649346,0.7074922,0.94738925,-3.8694037e-10,8.6731296e-11,-0.32008398,4
708226656,0.70652986,-0.011041527,0.012636013,0.7074843,0.94738925,-3.8694037e-10,8.6731296e-11,-0.32008398,4
708231727,0.7065218,-0.011031517,0.012630671,0.7074926,0.94738925,-3.8694037e-10,8.6731296e-11,-0.32008398,4
708236831,0.7065229,-0.010997182,0.012643138,0.7074918,0.94738925,-3.8694037e-10,8.6731296e-11,-0.32008398,4
708241852,0.7065352,-0.01101436,0.012644214,0.7074792,0.94738925,-3.8694037e-10,8.6731296e-11,-0.32008398,4
708246942,0.7065339,-0.011040645,0.012634158,0.70748025,0.94738925,-3.8694037e-10,8.6731296e-11,-0.32008398,4
708252004,0.706516,-0.01102192,0.012638085,0.70749843,0.94738925,-3.8694037e-10,8.6731296e-11,-0.32008398,4
708257130,0.70652044,-0.011011091,0.012662689,0.7074938,0.94738925,-3.8694037e-10,8.6731296e-11,-0.32008398,4
708262156,0.70653325,-0.011029773,0.0126598235,0.7074807,0.94738925,-3.8694037e-10,8.6731296e-11,-0.32008398,4
708267240,0.7065293,-0.011022868,0.0126367835,0.70748514,0.94738925,-3.8694037e-10,8.6731296e-11,-0.32008398,4
708272334,0.7065123,-0.010999813,0.012643875,0.7075024,0.94738925,-3.8694037e-10,8.6731296e-11,-0.32008398,4
708277388,0.7065178,-0.011012732,0.012656016,0.70749646,0.94738925,-3.8694037e-10,8.6731296e-11,-0.32008398,4
708282471,0.70652753,-0.0110225575,0.012643262,0.70748675,0.94738925,-3.8694037e-10,8.6731296e-11,-0.32008398,4
708287540,0.70652074,-0.010998412,0.012628438,0.7074942,0.94738925,-3.8694037e-10,8.6731296e-11,-0.32008398,4
708292886,0.7065125,-0.011001612,0.012649665,0.70750207,0.94738925,-3.8694037e-10,8.6731296e-11,-0.32008398,4
708297907,0.7065211,-0.011029616,0.0126643,0.7074927,0.94738925,-3.8694037e-10,8.6731296e-11,-0.32008398,4
708302863,0.7065252,-0.01102048,0.012647311,0.70748913,0.94738925,-3.8694037e-10,8.6731296e-11,-0.32008398,4
708323067,0.706524,-0.011004252,0.012637724,0.7074907,0.94738925,-3.8694037e-10,8.6731296e-11,-0.32008398,4
708328179,0.706512,-0.010992431,0.012634049,0.7075029,0.94738925,-3.8694037e-10,8.6731296e-11,-0.32008398,4
708333243,0.7065137,-0.0110252835,0.012654676,0.70750034,0.94738925,-3.8694037e-10,8.6731296e-11,-0.32008398,4
708338301,0.7065192,-0.01103445,0.0126600675,0.7074946,0.94738925,-3.8694037e-10,8.6731296e-11,-0.32008398,4
708343375,0.7065185,-0.011010108,0.012644222,0.707496,0.94738925,-3.8694037e-10,8.6731296e-11,-0.32008398,4
708348456,0.7065137,-0.011007761,0.012639875,0.7075009,0.94738925,-3.8694037e-10,8.6731296e-11,-0.32008398,4
708353530,0.7065205,-0.011026322,0.012656548,0.7074935,0.94738925,-3.8694037e-10,8.6731296e-11,-0.32008398,4
708358601,0.7065182,-0.011010405,0.012658302,0.70749605,0.94738925,-3.8694037e-10,8.6731296e-11,-0.32008398,4
708363681,0.70651126,-0.01098478,0.012647697,0.70750356,0.94738925,-3.8694037e-10,8.6731296e-11,-0.32008398,4
708368754,0.70651084,-0.010999742,0.012650383,0.7075037,0.94738925,-3.8694037e-10,8.6731296e-11,-0.32008398,4
708374067,0.70651835,-0.01101953,0.012661274,0.7074957,0.94738925,-3.8694037e-10,8.6731296e-11,-0.32008398,4
708379062,0.70651454,-0.011009834,0.012662665,0.7074997,0.94738925,-3.8694037e-10,8.6731296e-11,-0.32008398,4
708384066,0.7065136,-0.011006366,0.012655772,0.70750076,0.94738925,-3.8694037e-10,8.6731296e-11,-0.32008398,4
708389114,0.70651567,-0.011007594,0.012656627,0.70749867,0.94738925,-3.8694037e-10,8.6731296e-11,-0.32008398,4
708394140,0.70652074,-0.010995892,0.012662594,0.70749366,0.94738925,-3.8694037e-10,8.6731296e-11,-0.32008398,4
708399210,0.70651305,-0.010996633,0.012658178,0.7075014,0.94738925,-3.8694037e-10,8.6731296e-11,-0.32008398,4
708404286,0.70651317,-0.010999345,0.012651421,0.7075014,0.94738925,-3.8694037e-10,8.6731296e-11,-0.32008398,4
708419515,0.7065164,-0.011011912,0.012651426,0.7074979,0.94738925,-3.8694037e-10,8.6731296e-11,-0.32008398,4
708424587,0.7065196,-0.011000135,0.012645137,0.707495,0.94738925,-3.8694037e-10,8.6731296e-11,-0.32008398,4
708429672,0.7065222,-0.010968684,0.012645127,0.7074928,0.94738925,-3.8694037e-10,8.6731296e-11,-0.32008398,4
708434748,0.706521,-0.0109919105,0.012644875,0.7074938,0.94738925,-3.8694037e-10,8.6731296e-11,-0.32008398,4
708439817,0.7065177,-0.011016875,0.01264104,0.7074967,0.94738925,-3.8694037e-10,8.6731296e-11,-0.32008398,4
708444914,0.70651734,-0.010984053,0.012635691,0.7074977,0.94738925,-3.8694037e-10,8.6731296e-11,-0.32008398,4
708449974,0.7065211,-0.010962152,0.0126399,0.7074942,0.94738925,-3.8694037e-10,8.6731296e-11,-0.32008398,4
708455248,0.70652556,-0.011004746,0.012643099,0.707489,0.94738925,-3.8694037e-10,8.6731296e-11,-0.32008398,4
708460304,0.7065232,-0.011018912,0.012644097,0.7074912,0.94738925,-3.8694037e-10,8.6731296e-11,-0.32008398,4
708465341,0.70651543,-0.0109717995,0.012648452,0.70749956,0.94738925,-3.8694037e-10,8.6731296e-11,-0.32008398,4
708470312,0.70652217,-0.010967617,0.012654125,0.7074929,0.94738925,-3.8694037e-10,8.6731296e-11,-0.32008398,4
708475347,0.70652705,-0.01101623,0.012650662,0.7074873,0.94738925,-3.8694037e-10,8.6731296e-11,-0.32008398,4
708480426,0.7065238,-0.011006641,0.012649874,0.70749074,0.94738925,-3.8694037e-10,8.6731296e-11,-0.32008398,4
708485499,0.7065171,-0.010956462,0.0126536,0.707498,0.94738925,-3.8694037e-10,8.6731296e-11,-0.32008398,4
708490575,0.7065242,-0.010975779,0.012651238,0.70749074,0.94738925,-3.8694037e-10,8.6731296e-11,-0.32008398,4
708495659,0.70652515,-0.011015245,0.012644984,0.7074893,0.94738925,-3.8694037e-10,8.6731296e-11,-0.32008398,4
708500729,0.70651704,-0.010989022,0.012654283,0.7074976,0.94738925,-3.8694037e-10,8.6731296e-11,-0.32008398,4
708505803,0.7065157,-0.010958594,0.012663882,0.7074992,0.94738925,-3.8694037e-10,8.6731296e-11,-0.32008398,4
708510884,0.7065308,-0.010990744,0.012660771,0.7074837,0.94738925,-3.8694037e-10,8.6731296e-11,-0.32008398,4
708515955,0.70652175,-0.011009993,0.012649813,0.7074927,0.94738925,-3.8694037e-10,8.6731296e-11,-0.32008398,4
708521046,0.7065061,-0.010975114,0.012655356,0.70750874,0.94738925,-3.8694037e-10,8.6731296e-11,-0.32008398,4
708526112,0.7065099,-0.010965433,0.012664218,0.70750487,0.94738925,-3.8694037e-10,8.6731296e-11,-0.32008398,4
708531198,0.7065229,-0.010985762,0.012650981,0.7074919,0.94738925,-3.8694037e-10,8.6731296e-11,-0.32008398,4
708536500,0.7065095,-0.010977559,0.012641877,0.7075055,0.94738925,-3.8694037e-10,8.6731296e-11,-0.32008398,4
708541594,0.7064989,-0.010962644,0.012652303,0.7075161,0.94738925,-3.8694037e-10,8.6731296e-11,-0.32008398,4
708546548,0.7065126,-0.010973229,0.012665943,0.7075021,0.94738925,-3.8694037e-10,8.6731296e-11,-0.32008398,4
708551528,0.7065201,-0.010976147,0.012654808,0.70749474,0.94738925,-3.8694037e-10,8.6731296e-11,-0.32008398,4
708556563,0.70650494,-0.010964961,0.0126544,0.70751005,0.94738925,-3.8694037e-10,8.6731296e-11,-0.32008398,4
708561641,0.70649976,-0.010974674,0.012671161,0.7075148,0.94738925,-3.8694037e-10,8.6731296e-11,-0.32008398,4
708566725,0.70651245,-0.010982495,0.012676471,0.7075019,0.94738925,-3.8694037e-10,8.6731296e-11,-0.32008398,4
708571793,0.70651305,-0.010965611,0.012653557,0.70750195,0.94738925,-3.8694037e-10,8.6731296e-11,-0.32008398,4
708576881,0.7065015,-0.010965657,0.01264927,0.70751363,0.94738925,-3.8694037e-10,8.6731296e-11,-0.32008398,4
708581950,0.7065036,-0.010981029,0.012668293,0.7075109,0.94738925,-3.8694037e-10,8.6731296e-11,-0.32008398,4
708587020,0.7065134,-0.010968206,0.012671344,0.70750123,0.94738925,-3.8694037e-10,8.6731296e-11,-0.32008398,4
708592122,0.70650715,-0.010959099,0.012662003,0.7075078,0.94738925,-3.8694037e-10,8.6731296e-11,-0.32008398,4
708597177,0.70649785,-0.0109797,0.012660118,0.7075168,0.94738925,-3.8694037e-10,8.6731296e-11,-0.32008398,4
708602249,0.7065009,-0.010990972,0.012674747,0.70751333,0.94738925,-3.8694037e-10,8.6731296e-11,-0.32008398,4
708607325,0.70650935,-0.010963947,0.0126729775,0.7075053,0.94738925,-3.8694037e-10,8.6731296e-11,-0.32008398,4
708612406,0.70650786,-0.010959873,0.0126524065,0.7075072,0.94738925,-3.8694037e-10,8.6731296e-11,-0.32008398,4
708617480,0.70650613,-0.010983417,0.012655416,0.7075085,0.94738925,-3.8694037e-10,8.6731296e-11,-0.32008398,4
708622744,0.70650166,-0.010972981,0.012670751,0.70751286,0.94738925,-3.8694037e-10,8.6731296e-11,-0.32008398,4
708627754,0.70650303,-0.01095263,0.012665709,0.7075119,0.94738925,-3.8694037e-10,8.6731296e-11,-0.32008398,4
708632786,0.70650035,-0.010972139,0.012652098,0.7075145,0.94738925,-3.8694037e-10,8.6731296e-11,-0.32008398,4
708637814,0.7065029,-0.010982494,0.0126587525,0.7075117,0.94738925,-3.8694037e-10,8.6731296e-11,-0.32008398,4
708642856,0.7065023,-0.010961191,0.012677819,0.70751226,0.94738925,-3.8694037e-10,8.6731296e-11,-0.32008398,4
708673316,0.70650756,-0.010966976,0.012643008,0.7075076,0.94738925,-3.8694037e-10,8.6731296e-11,-0.32008398,4
708678388,0.7065064,-0.010948781,0.01265766,0.7075088,0.94738925,-3.8694037e-10,8.6731296e-11,-0.32008398,4
708683464,0.7065058,-0.01096438,0.012675877,0.70750886,0.94738925,-3.8694037e-10,8.6731296e-11,-0.32008398,4
708688544,0.70650804,-0.010985605,0.012661641,0.7075065,0.94738925,-3.8694037e-10,8.6731296e-11,-0.32008398,4
708693624,0.70650667,-0.010962118,0.012653057,0.7075084,0.94738925,-3.8694037e-10,8.6731296e-11,-0.32008398,4
708698723,0.7064995,-0.010949076,0.012663884,0.7075155,0.94738925,-3.8694037e-10,8.6731296e-11,-0.32008398,4
708703962,0.7065076,-0.010982183,0.012669016,0.70750684,0.94738925,-3.8694037e-10,8.6731296e-11,-0.32008398,4
708708959,0.70650953,-0.01098063,0.0126589285,0.70750517,0.94738925,-3.8694037e-10,8.6731296e-11,-0.32008398,4
708713976,0.70650524,-0.01093862,0.012659968,0.7075101,0.94738925,-3.8694037e-10,8.6731296e-11,-0.32008398,4
708719001,0.70650524,-0.010952917,0.012667878,0.70750976,0.94738925,-3.8694037e-10,8.6731296e-11,-0.32008398,4
708724069,0.7065158,-0.01100084,0.012671065,0.7074984,0.94738925,-3.8694037e-10,8.6731296e-11,-0.32008398,4
708739327,0.7065089,-0.010956852,0.012666891,0.707506,0.94738925,-3.8694037e-10,8.6731296e-11,-0.32008398,4
708744373,0.70651674,-0.01099107,0.012668076,0.7074976,0.94738925,-3.8694037e-10,8.6731296e-11,-0.32008398,4
708749453,0.7065053,-0.010947907,0.012665986,0.70750976,0.94738925,-3.8694037e-10,8.6731296e-11,-0.32008398,4
708754534,0.70650333,-0.010927853,0.012659748,0.70751214,0.94738925,-3.8694037e-10,8.6731296e-11,-0.32008398,4
708759601,0.706512,-0.010969849,0.012662386,0.7075028,0.94738925,-3.8694037e-10,8.6731296e-11,-0.32008398,4
708764687,0.7065148,-0.0109792445,0.012665943,0.70749974,0.94738925,-3.8694037e-10,8.6731296e-11,-0.32008398,4
708769764,0.7065034,-0.010941086,0.012669463,0.70751166,0.94738925,-3.8694037e-10,8.6731296e-11,-0.32008398,4
708774835,0.7065128,-0.01094,0.012669867,0.70750225,0.94738925,-3.8694037e-10,8.6731296e-11,-0.32008398,4
708779908,0.7065238,-0.010972272,0.012667023,0.7074909,0.94738925,-3.8694037e-10,8.6731296e-11,-0.32008398,4
708785185,0.7065145,-0.010968359,0.012663382,0.70750034,0.94738925,-3.8694037e-10,8.6731296e-11,-0.32008398,4
708815436,0.70651793,-0.010958974,0.012663518,0.70749694,0.94738925,-3.8694037e-10,8.6731296e-11,-0.32008398,4
708820521,0.7065207,-0.010958241,0.012661186,0.7074943,0.94738925,-3.8694037e-10,8.6731296e-11,-0.32008398,4
708825588,0.70650464,-0.010961257,0.012656186,0.70751035,0.94738925,-3.8694037e-10,8.6731296e-11,-0.32008398,4
708830672,0.7065054,-0.010958277,0.012664092,0.7075095,0.94738925,-3.8694037e-10,8.6731296e-11,-0.32008398,4
708835746,0.70651656,-0.010944759,0.012665313,0.7074986,0.94738925,-3.8694037e-10,8.6731296e-11,-0.32008398,4
708840819,0.706513,-0.010946609,0.012659376,0.7075022,0.94738925,-3.8694037e-10,8.6731296e-11,-0.32008398,4
708845895,0.7065004,-0.010960944,0.012657979,0.7075145,0.94738925,-3.8694037e-10,8.6731296e-11,-0.32008398,4
708850978,0.70650375,-0.010950743,0.012669389,0.7075112,0.94738925,-3.8694037e-10,8.6731296e-11,-0.32008398,4
708856044,0.7065101,-0.010930619,0.012667643,0.7075051,0.94738925,-3.8694037e-10,8.6731296e-11,-0.32008398,4
708861134,0.7065061,-0.010950443,0.01265401,0.7075091,0.94738925,-3.8694037e-10,8.6731296e-11,-0.32008398,4
708866491,0.70649654,-0.010974407,0.012649476,0.7075184,0.94738925,-3.8694037e-10,8.6731296e-11,-0.32008398,4
708871442,0.7064988,-0.010944781,0.012661413,0.7075164,0.94738925,-3.8694037e-10,8.6731296e-11,-0.32008398,4
708876454,0.7065034,-0.010932821,0.012659419,0.70751196,0.94738925,-3.8694037e-10,8.6731296e-11,-0.32008398,4
708881452,0.70650095,-0.010964969,0.012644946,0.70751417,0.94738925,-3.8694037e-10,8.6731296e-11,-0.32008398,4
708886503,0.70649123,-0.0109706,0.012650725,0.7075237,0.94738925,-3.8694037e-10,8.6731296e-11,-0.32008398,4
708891606,0.7064964,-0.010930942,0.012669515,0.7075188,0.94738925,-3.8694037e-10,8.6731296e-11,-0.32008398,4
708896665,0.706504,-0.010936791,0.012662223,0.70751125,0.94738925,-3.8694037e-10,8.6731296e-11,-0.32008398,4
708901730,0.70650303,-0.010967018,0.012646418,0.707512,0.94738925,-3.8694037e-10,8.6731296e-11,-0.32008398,4
708906805,0.7064887,-0.010947041,0.012661471,0.7075264,0.94738925,-3.8694037e-10,8.6731296e-11,-0.32008398,4
708911882,0.7064912,-0.010922294,0.012675583,0.70752406,0.94738925,-3.8694037e-10,8.6731296e-11,-0.32008398,4
708916973,0.706499,-0.010946437,0.012654566,0.7075163,0.94738925,-3.8694037e-10,8.6731296e-11,-0.32008398,4
708927125,0.70649,-0.010929192,0.01266309,0.7075254,0.94738925,-3.8694037e-10,8.6731296e-11,-0.32008398,4
708932187,0.7064959,-0.0109255025,0.012666972,0.7075195,0.94738925,-3.8694037e-10,8.6731296e-11,-0.32008398,4
708972791,0.70650476,-0.0109486785,0.012651071,0.70751053,0.94738925,-3.8694037e-10,8.6731296e-11,-0.32008398,4
708977869,0.7065068,-0.010927373,0.012635751,0.7075091,0.94738925,-3.8694037e-10,8.6731296e-11,-0.32008398,4
708982951,0.70649415,-0.01090869,0.012635337,0.70752203,0.94738925,-3.8694037e-10,8.6731296e-11,-0.32008398,4
708988022,0.7064947,-0.010936042,0.012650522,0.7075208,0.94738925,-3.8694037e-10,8.6731296e-11,-0.32008398,4
708993104,0.7065047,-0.010948379,0.012647322,0.70751065,0.94738925,-3.8694037e-10,8.6731296e-11,-0.32008398,4
708998184,0.7065063,-0.010918313,0.012639449,0.7075097,0.94738925,-3.8694037e-10,8.6731296e-11,-0.32008398,4
709003249,0.7064973,-0.010915032,0.012638746,0.70751876,0.94738925,-3.8694037e-10,8.6731296e-11,-0.32008398,4
709008327,0.7065037,-0.010949969,0.012639579,0.7075118,0.94738925,-3.8694037e-10,8.6731296e-11,-0.32008398,4
709023550,0.7064906,-0.010926602,0.012631261,0.70752543,0.94738925,-3.8694037e-10,8.6731296e-11,-0.32008398,4
709028912,0.7065065,-0.01095378,0.012642349,0.7075089,0.94738925,-3.8694037e-10,8.6731296e-11,-0.32008398,4
709033902,0.70650023,-0.01093099,0.012644049,0.7075155,0.94738925,-3.8694037e-10,8.6731296e-11,-0.32008398,4
709038857,0.70649457,-0.010914415,0.012628299,0.7075217,0.94738925,-3.8694037e-10,8.6731296e-11,-0.32008398,4
709043870,0.7064976,-0.010936606,0.012621817,0.7075184,0.94738925,-3.8694037e-10,8.6731296e-11,-0.32008398,4
709048933,0.70650226,-0.010942741,0.012633147,0.70751345,0.94738925,-3.8694037e-10,8.6731296e-11,-0.32008398,4
709054010,0.70649385,-0.010925991,0.012638879,0.70752203,0.94738925,-3.8694037e-10,8.6731296e-11,-0.32008398,4
709059089,0.7064956,-0.010918724,0.012627114,0.7075206,0.94738925,-3.8694037e-10,8.6731296e-11,-0.32008398,4
709064178,0.7065083,-0.010931856,0.012627457,0.70750767,0.94738925,-3.8694037e-10,8.6731296e-11,-0.32008398,4
709069278,0.7065064,-0.010930691,0.012635092,0.70750946,0.94738925,-3.8694037e-10,8.6731296e-11,-0.32008398,4
709079392,0.706499,-0.010919306,0.012619955,0.7075173,0.94738925,-3.8694037e-10,8.6731296e-11,-0.32008398,4
709084462,0.7065115,-0.010919689,0.012624136,0.7075047,0.94738925,-3.8694037e-10,8.6731296e-11,-0.32008398,4
709089547,0.70650434,-0.010925667,0.01263451,0.7075116,0.94738925,-3.8694037e-10,8.6731296e-11,-0.32008398,4
709094623,0.7065024,-0.01093329,0.012623723,0.70751363,0.94738925,-3.8694037e-10,8.6731296e-11,-0.32008398,4
709099697,0.70651,-0.010916435,0.012617326,0.7075064,0.94738925,-3.8694037e-10,8.6731296e-11,-0.32008398,4
709104770,0.70651394,-0.010908714,0.01262966,0.70750237,0.94738925,-3.8694037e-10,8.6731296e-11,-0.32008398,4
709125081,0.7065131,-0.0108983945,0.012622016,0.7075035,0.94738925,-3.8694037e-10,8.6731296e-11,-0.32008398,4
709130167,0.7065103,-0.010930247,0.012608561,0.70750606,0.94738925,-3.8694037e-10,8.6731296e-11,-0.32008398,4
709135221,0.7065063,-0.010917461,0.012609732,0.7075103,0.94738925,-3.8694037e-10,8.6731296e-11,-0.32008398,4
709140298,0.7065087,-0.010888636,0.012625542,0.70750797,0.94738925,-3.8694037e-10,8.6731296e-11,-0.32008398,4
709145380,0.70651716,-0.010914318,0.01261961,0.7074992,0.94738925,-3.8694037e-10,8.6731296e-11,-0.32008398,4
709150449,0.7065161,-0.010945243,0.012610267,0.7075,0.94738925,-3.8694037e-10,8.6731296e-11,-0.32008398,4
709155529,0.70651114,-0.010913776,0.012616578,0.7075053,0.94738925,-3.8694037e-10,8.6731296e-11,-0.32008398,4
709160609,0.70651233,-0.010877537,0.012630136,0.7075044,0.94738925,-3.8694037e-10,8.6731296e-11,-0.32008398,4
709165688,0.7065176,-0.010908671,0.012607876,0.7074991,0.94738925,-3.8694037e-10,8.6731296e-11,-0.32008398,4
709170753,0.7065119,-0.010927305,0.012598522,0.70750463,0.94738925,-3.8694037e-10,8.6731296e-11,-0.32008398,4
709175829,0.706504,-0.01089182,0.012620505,0.7075127,0.94738925,-3.8694037e-10,8.6731296e-11,-0.32008398,4
709180905,0.70651144,-0.010887061,0.0126270605,0.7075053,0.94738925,-3.8694037e-10,8.6731296e-11,-0.32008398,4
709185981,0.7065215,-0.010921678,0.0126060415,0.7074951,0.94738925,-3.8694037e-10,8.6731296e-11,-0.32008398,4
709191338,0.706514,-0.010915728,0.0126049705,0.7075027,0.94738925,-3.8694037e-10,8.6731296e-11,-0.32008398,4
709196391,0.706505,-0.010886788,0.012622205,0.7075118,0.94738925,-3.8694037e-10,8.6731296e-11,-0.32008398,4
709201377,0.7065172,-0.010890592,0.012612414,0.7074997,0.94738925,-3.8694037e-10,8.6731296e-11,-0.32008398,4
709206315,0.7065223,-0.010904984,0.012591187,0.70749474,0.94738925,-3.8694037e-10,8.6731296e-11,-0.32008398,4
709226591,0.7065229,-0.010901486,0.01260046,0.707494,0.94738925,-3.8694037e-10,8.6731296e-11,-0.32008398,4
709231672,0.7065082,-0.010889278,0.012618224,0.70750856,0.94738925,-3.8694037e-10,8.6731296e-11,-0.32008398,4
709236743,0.7065047,-0.010899283,0.012631893,0.7075117,0.94738925,-3.8694037e-10,8.6731296e-11,-0.32008398,4
709241821,0.7065199,-0.010903087,0.012622523,0.7074967,0.94738925,-3.8694037e-10,8.6731296e-11,-0.32008398,4
709246898,0.70651644,-0.010887673,0.012611281,0.7075006,0.94738925,-3.8694037e-10,8.6731296e-11,-0.32008398,4
709251968,0.70650476,-0.010888772,0.012617122,0.7075121,0.94738925,-3.8694037e-10,8.6731296e-11,-0.32008398,4
709257048,0.7065095,-0.010902515,0.012616732,0.70750713,0.94738925,-3.8694037e-10,8.6731296e-11,-0.32008398,4
709262167,0.7065214,-0.010891774,0.012611242,0.70749545,0.94738925,-3.8694037e-10,8.6731296e-11,-0.32008398,4
709267197,0.70651615,-0.010881707,0.012605107,0.707501,0.94738925,-3.8694037e-10,8.6731296e-11,-0.32008398,4
709272300,0.7065087,-0.010900857,0.012605485,0.70750815,0.94738925,-3.8694037e-10,8.6731296e-11,-0.32008398,4
709282609,0.706519,-0.010882676,0.012610865,0.7074981,0.94738925,-3.8694037e-10,8.6731296e-11,-0.32008398,4
709287574,0.7065117,-0.01088272,0.012595312,0.7075057,0.94738925,-3.8694037e-10,8.6731296e-11,-0.32008398,4
709292599,0.70651054,-0.0108985845,0.0125961965,0.70750654,0.94738925,-3.8694037e-10,8.6731296e-11,-0.32008398,4
709297666,0.70651656,-0.010889548,0.012614432,0.7075004,0.94738925,-3.8694037e-10,8.6731296e-11,-0.32008398,4
709302730,0.7065139,-0.010874662,0.012607201,0.7075033,0.94738925,-3.8694037e-10,8.6731296e-11,-0.32008398,4
709307833,0.7065099,-0.010884608,0.01259426,0.70750743,0.94738925,-3.8694037e-10,8.6731296e-11,-0.32008398,4
709312904,0.7065103,-0.010892897,0.012603843,0.7075067,0.94738925,-3.8694037e-10,8.6731296e-11,-0.32008398,4
709317957,0.70651186,-0.010882326,0.012621938,0.70750505,0.94738925,-3.8694037e-10,8.6731296e-11,-0.32008398,4
709343351,0.70650667,-0.010883752,0.012584894,0.7075109,0.94738925,-3.8694037e-10,8.6731296e-11,-0.32008398,4
709348414,0.7065112,-0.010877264,0.012581733,0.7075064,0.94738925,-3.8694037e-10,8.6731296e-11,-0.32008398,4
709353502,0.70651394,-0.010880972,0.012599631,0.7075033,0.94738925,-3.8694037e-10,8.6731296e-11,-0.32008398,4
709358763,0.70651466,-0.010895761,0.012597619,0.7075024,0.94738925,-3.8694037e-10,8.6731296e-11,-0.32008398,4
709363806,0.7065137,-0.010889269,0.012572817,0.707504,0.94738925,-3.8694037e-10,8.6731296e-11,-0.32008398,4
709368767,0.70651567,-0.010866506,0.012574911,0.7075023,0.94738925,-3.8694037e-10,8.6731296e-11,-0.32008398,4
709373815,0.70650846,-0.0108810915,0.01258754,0.70750904,0.94738925,-3.8694037e-10,8.6731296e-11,-0.32008398,4
709378869,0.70650923,-0.010899834,0.012569472,0.70750827,0.94738925,-3.8694037e-10,8.6731296e-11,-0.32008398,4
709383942,0.70651126,-0.0108771,0.012553511,0.7075069,0.94738925,-3.8694037e-10,8.6731296e-11,-0.32008398,4
709389018,0.70651233,-0.010857867,0.012565284,0.7075059,0.94738925,-3.8694037e-10,8.6731296e-11,-0.32008398,4
709394120,0.70651245,-0.010888389,0.012571657,0.70750517,0.94738925,-3.8694037e-10,8.6731296e-11,-0.32008398,4
709399173,0.70651263,-0.010906049,0.012561364,0.707505,0.94738925,-3.8694037e-10,8.6731296e-11,-0.32008398,4
709404249,0.7065081,-0.010871776,0.012565654,0.70750993,0.94738925,-3.8694037e-10,8.6731296e-11,-0.32008398,4
709409325,0.706511,-0.010856443,0.012565251,0.70750725,0.94738925,-3.8694037e-10,8.6731296e-11,-0.32008398,4
709414415,0.706516,-0.010885381,0.012555021,0.707502,0.94738925,-3.8694037e-10,8.6731296e-11,-0.32008398,4
709419477,0.7065137,-0.0108854985,0.012544847,0.70750445,0.94738925,-3.8694037e-10,8.6731296e-11,-0.32008398,4
709424565,0.70651037,-0.010845285,0.012557987,0.7075082,0.94738925,-3.8694037e-10,8.6731296e-11,-0.32008398,4
709429637,0.70651245,-0.010849993,0.012556102,0.7075061,0.94738925,-3.8694037e-10,8.6731296e-11,-0.32008398,4
709434710,0.706518,-0.01088813,0.012549225,0.7075001,0.94738925,-3.8694037e-10,8.6731296e-11,-0.32008398,4
709440034,0.7065094,-0.010884243,0.012552489,0.7075087,0.94738925,-3.8694037e-10,8.6731296e-11,-0.32008398,4
709444980,0.7065035,-0.010853009,0.0125635285,0.7075149,0.94738925,-3.8694037e-10,8.6731296e-11,-0.32008398,4
709449984,0.7065154,-0.010861758,0.012557427,0.70750296,0.94738925,-3.8694037e-10,8.6731296e-11,-0.32008398,4
709455006,0.7065237,-0.010885584,0.0125474725,0.70749444,0.94738925,-3.8694037e-10,8.6731296e-11,-0.32008398,4
709460102,0.7065073,-0.010863882,0.012552586,0.70751107,0.94738925,-3.8694037e-10,8.6731296e-11,-0.32008398,4
709465159,0.7065014,-0.010844809,0.012550596,0.70751727,0.94738925,-3.8694037e-10,8.6731296e-11,-0.32008398,4
709470245,0.706509,-0.010860253,0.012540172,0.70750964,0.94738925,-3.8694037e-10,8.6731296e-11,-0.32008398,4
709500689,0.7064954,-0.010854404,0.012544063,0.7075233,0.94738925,-3.8694037e-10,8.6731296e-11,-0.32008398,4
709505765,0.70650357,-0.0108448025,0.012546299,0.70751524,0.94738925,-3.8694037e-10,8.6731296e-11,-0.32008398,4
709510841,0.7065155,-0.01084059,0.012547291,0.7075033,0.94738925,-3.8694037e-10,8.6731296e-11,-0.32008398,4
709515923,0.70651037,-0.010853539,0.012540462,0.7075083,0.94738925,-3.8694037e-10,8.6731296e-11,-0.32008398,4
709521240,0.7064948,-0.010853497,0.012542318,0.7075238,0.94738925,-3.8694037e-10,8.6731296e-11,-0.32008398,4
709526207,0.7065064,-0.010835655,0.012549913,0.7075125,0.94738925,-3.8694037e-10,8.6731296e-11,-0.32008398,4
709531252,0.70651215,-0.010836588,0.012554646,0.7075066,0.94738925,-3.8694037e-10,8.6731296e-11,-0.32008398,4
709536278,0.7065009,-0.010851831,0.012537944,0.7075179,0.94738925,-3.8694037e-10,8.6731296e-11,-0.32008398,4
709546375,0.70650244,-0.010833296,0.012550267,0.70751643,0.94738925,-3.8694037e-10,8.6731296e-11,-0.32008398,4
709551451,0.7065069,-0.01083659,0.012541673,0.7075121,0.94738925,-3.8694037e-10,8.6731296e-11,-0.32008398,4
709556526,0.7064957,-0.01085371,0.012521304,0.70752335,0.94738925,-3.8694037e-10,8.6731296e-11,-0.32008398,4
709561618,0.70649534,-0.010846738,0.012534999,0.7075236,0.94738925,-3.8694037e-10,8.6731296e-11,-0.32008398,4
709566721,0.7065029,-0.010833181,0.012554502,0.70751584,0.94738925,-3.8694037e-10,8.6731296e-11,-0.32008398,4
709571752,0.7065061,-0.010844893,0.012531155,0.707513,0.94738925,-3.8694037e-10,8.6731296e-11,-0.32008398,4
709576855,0.7064994,-0.010849397,0.012516232,0.70751977,0.94738925,-3.8694037e-10,8.6731296e-11,-0.32008398,4
709581908,0.7065026,-0.01083528,0.01254373,0.7075164,0.94738925,-3.8694037e-10,8.6731296e-11,-0.32008398,4
709586980,0.7065062,-0.010827641,0.012550234,0.7075128,0.94738925,-3.8694037e-10,8.6731296e-11,-0.32008398,4
709607440,0.706507,-0.010839081,0.012531997,0.7075121,0.94738925,-3.8694037e-10,8.6731296e-11,-0.32008398,4
709612470,0.7065097,-0.010839826,0.012506175,0.7075099,0.94738925,-3.8694037e-10,8.6731296e-11,-0.32008398,4
709617474,0.7065078,-0.010835348,0.012521192,0.7075116,0.94738925,-3.8694037e-10,8.6731296e-11,-0.32008398,4
709622513,0.70650697,-0.010837957,0.012543845,0.707512,0.94738925,-3.8694037e-10,8.6731296e-11,-0.32008398,4
709627590,0.70650893,-0.010841776,0.012523419,0.70751035,0.94738925,-3.8694037e-10,8.6731296e-11,-0.32008398,4
709632672,0.7065101,-0.010826851,0.01250095,0.70750976,0.94738925,-3.8694037e-10,8.6731296e-11,-0.32008398,4
709637745,0.70650345,-0.010815215,0.012517478,0.70751625,0.94738925,-3.8694037e-10,8.6731296e-11,-0.32008398,4
709642815,0.70650554,-0.010831254,0.012523176,0.70751387,0.94738925,-3.8694037e-10,8.6731296e-11,-0.32008398,4
709647893,0.7065115,-0.010833817,0.012504687,0.70750815,0.94738925,-3.8694037e-10,8.6731296e-11,-0.32008398,4
709673276,0.7065095,-0.010813439,0.012511373,0.7075104,0.94738925,-3.8694037e-10,8.6731296e-11,-0.32008398,4
709678351,0.70650876,-0.0108243385,0.012511309,0.707511,0.94738925,-3.8694037e-10,8.6731296e-11,-0.32008398,4
709683701,0.7065085,-0.010846423,0.012500581,0.707511,0.94738925,-3.8694037e-10,8.6731296e-11,-0.32008398,4
709688674,0.7065103,-0.010826688,0.012501757,0.7075095,0.94738925,-3.8694037e-10,8.6731296e-11,-0.32008398,4
709693700,0.706504,-0.010806891,0.012507339,0.707516,0.94738925,-3.8694037e-10,8.6731296e-11,-0.32008398,4
709698673,0.70650977,-0.0108278245,0.012504517,0.70750993,0.94738925,-3.8694037e-10,8.6731296e-11,-0.32008398,4
709703726,0.7065119,-0.010847849,0.012498766,0.7075076,0.94738925,-3.8694037e-10,8.6731296e-11,-0.32008398,4
709708805,0.7065057,-0.01082903,0.012504126,0.707514,0.94738925,-3.8694037e-10,8.6731296e-11,-0.32008398,4
709713894,0.70649993,-0.010810577,0.012495899,0.7075202,0.94738925,-3.8694037e-10,8.6731296e-11,-0.32008398,4
709724044,0.7065106,-0.010839076,0.012496794,0.70750916,0.94738925,-3.8694037e-10,8.6731296e-11,-0.32008398,4
709729125,0.70649886,-0.010828411,0.01249793,0.70752096,0.94738925,-3.8694037e-10,8.6731296e-11,-0.32008398,4
709734190,0.70650005,-0.010821547,0.012488529,0.7075201,0.94738925,-3.8694037e-10,8.6731296e-11,-0.32008398,4
709739313,0.7065109,-0.010835252,0.012485403,0.7075091,0.94738925,-3.8694037e-10,8.6731296e-11,-0.32008398,4
709744336,0.7065055,-0.010840923,0.012494081,0.7075143,0.94738925,-3.8694037e-10,8.6731296e-11,-0.32008398,4
709749418,0.70649344,-0.01082197,0.012487058,0.7075267,0.94738925,-3.8694037e-10,8.6731296e-11,-0.32008398,4
709754496,0.70650375,-0.010810247,0.012479225,0.7075168,0.94738925,-3.8694037e-10,8.6731296e-11,-0.32008398,4
709759567,0.7065129,-0.010823526,0.012485257,0.7075073,0.94738925,-3.8694037e-10,8.6731296e-11,-0.32008398,4
709790025,0.7064945,-0.010821989,0.012474534,0.7075259,0.94738925,-3.8694037e-10,8.6731296e-11,-0.32008398,4
709795105,0.70650506,-0.010807905,0.012485116,0.70751536,0.94738925,-3.8694037e-10,8.6731296e-11,-0.32008398,4
709800178,0.70650834,-0.010827736,0.012481854,0.7075119,0.94738925,-3.8694037e-10,8.6731296e-11,-0.32008398,4
709805260,0.7065024,-0.010836046,0.012464415,0.70751804,0.94738925,-3.8694037e-10,8.6731296e-11,-0.32008398,4
709810323,0.7065,-0.010812826,0.012471973,0.7075206,0.94738925,-3.8694037e-10,8.6731296e-11,-0.32008398,4
709815399,0.70650905,-0.010806591,0.012483442,0.7075114,0.94738925,-3.8694037e-10,8.6731296e-11,-0.32008398,4
709820479,0.70650405,-0.010822155,0.012463939,0.7075165,0.94738925,-3.8694037e-10,8.6731296e-11,-0.32008398,4
709825557,0.7064977,-0.010824764,0.012453834,0.7075229,0.94738925,-3.8694037e-10,8.6731296e-11,-0.32008398,4
709830633,0.70649695,-0.010805778,0.012480192,0.7075236,0.94738925,-3.8694037e-10,8.6731296e-11,-0.32008398,4
709835721,0.70651037,-0.010805769,0.012483631,0.7075102,0.94738925,-3.8694037e-10,8.6731296e-11,-0.32008398,4
709840776,0.70650804,-0.010826524,0.012462638,0.70751256,0.94738925,-3.8694037e-10,8.6731296e-11,-0.32008398,4
709846111,0.7065,-0.01082036,0.0124685345,0.7075205,0.94738925,-3.8694037e-10,8.6731296e-11,-0.32008398,4
709851117,0.7064949,-0.010798494,0.012491158,0.7075255,0.94738925,-3.8694037e-10,8.6731296e-11,-0.32008398,4
709856107,0.70650643,-0.010795176,0.012476342,0.70751435,0.94738925,-3.8694037e-10,8.6731296e-11,-0.32008398,4
709861158,0.70650333,-0.010801101,0.012447543,0.70751786,0.94738925,-3.8694037e-10,8.6731296e-11,-0.32008398,4
709866173,0.70649743,-0.010796172,0.012458381,0.70752364,0.94738925,-3.8694037e-10,8.6731296e-11,-0.32008398,4
709871245,0.70649934,-0.0107864095,0.012480197,0.70752144,0.94738925,-3.8694037e-10,8.6731296e-11,-0.32008398,4
709876311,0.7065072,-0.010791625,0.012461297,0.70751387,0.94738925,-3.8694037e-10,8.6731296e-11,-0.32008398,4
709881384,0.70650613,-0.010802263,0.012449092,0.70751506,0.94738925,-3.8694037e-10,8.6731296e-11,-0.32008398,4
709886459,0.7064958,-0.010799314,0.012470482,0.707525,0.94738925,-3.8694037e-10,8.6731296e-11,-0.32008398,4
709891544,0.7064977,-0.010793648,0.012475957,0.70752305,0.94738925,-3.8694037e-10,8.6731296e-11,-0.32008398,4
709896614,0.7065072,-0.010790756,0.012451524,0.70751405,0.94738925,-3.8694037e-10,8.6731296e-11,-0.32008398,4
709901709,0.7065085,-0.0107872905,0.012447319,0.70751286,0.94738925,-3.8694037e-10,8.6731296e-11,-0.32008398,4
709906784,0.7064973,-0.010793246,0.012465569,0.70752364,0.94738925,-3.8694037e-10,8.6731296e-11,-0.32008398,4
709911839,0.7065007,-0.010791215,0.012465633,0.70752037,0.94738925,-3.8694037e-10,8.6731296e-11,-0.32008398,4
709916944,0.70650774,-0.01078647,0.012450928,0.70751363,0.94738925,-3.8694037e-10,8.6731296e-11,-0.32008398,4
709921995,0.706505,-0.010789085,0.01245634,0.70751625,0.94738925,-3.8694037e-10,8.6731296e-11,-0.32008398,4
709927084,0.7064966,-0.010794995,0.012468337,0.7075243,0.94738925,-3.8694037e-10,8.6731296e-11,-0.32008398,4
709932404,0.7065063,-0.010794242,0.012461621,0.7075147,0.94738925,-3.8694037e-10,8.6731296e-11,-0.32008398,4
709937379,0.70651054,-0.010786643,0.012455706,0.70751077,0.94738925,-3.8694037e-10,8.6731296e-11,-0.32008398,4
709942354,0.7065021,-0.010779398,0.01244936,0.7075195,0.94738925,-3.8694037e-10,8.6731296e-11,-0.32008398,4
709947382,0.7064932,-0.010786321,0.012450265,0.7075282,0.94738925,-3.8694037e-10,8.6731296e-11,-0.32008398,4
709952456,0.70650035,-0.010783664,0.012453678,0.707521,0.94738925,-3.8694037e-10,8.6731296e-11,-0.32008398,4
709957525,0.7065012,-0.0107754795,0.012453082,0.7075203,0.94738925,-3.8694037e-10,8.6731296e-11,-0.32008398,4
709962601,0.7064974,-0.010779482,0.012446684,0.7075242,0.94738925,-3.8694037e-10,8.6731296e-11,-0.32008398,4
709967706,0.7064989,-0.010788028,0.012452278,0.7075224,0.94738925,-3.8694037e-10,8.6731296e-11,-0.32008398,4
709972750,0.70650727,-0.01078834,0.012466735,0.7075138,0.94738925,-3.8694037e-10,8.6731296e-11,-0.32008398,4
709977837,0.70649767,-0.010773697,0.012459805,0.7075237,0.94738925,-3.8694037e-10,8.6731296e-11,-0.32008398,4
709982905,0.7064911,-0.010765345,0.012439407,0.70753074,0.94738925,-3.8694037e-10,8.6731296e-11,-0.32008398,4
709987987,0.706493,-0.0107720075,0.012448359,0.7075286,0.94738925,-3.8694037e-10,8.6731296e-11,-0.32008398,4
709993065,0.7064971,-0.010785504,0.012456108,0.7075242,0.94738925,-3.8694037e-10,8.6731296e-11,-0.32008398,4
709998179,0.70649236,-0.010773799,0.012438937,0.70752937,0.94738925,-3.8694037e-10,8.6731296e-11,-0.32008398,4
710003209,0.706494,-0.010763563,0.012433227,0.707528,0.94738925,-3.8694037e-10,8.6731296e-11,-0.32008398,4
710008303,0.70649844,-0.010782707,0.012455138,0.70752287,0.94738925,-3.8694037e-10,8.6731296e-11,-0.32008398,4
710013597,0.7064912,-0.010794477,0.01245814,0.7075299,0.94738925,-3.8694037e-10,8.6731296e-11,-0.32008398,4
710018594,0.7064855,-0.010771234,0.012427981,0.70753646,0.94738925,-3.8694037e-10,8.6731296e-11,-0.32008398,4
710023641,0.7064869,-0.0107628675,0.012424594,0.7075353,0.94738925,-3.8694037e-10,8.6731296e-11,-0.32008398,4
710028582,0.7064942,-0.010777342,0.012445954,0.7075274,0.94738925,-3.8694037e-10,8.6731296e-11,-0.32008398,4
710033664,0.7064904,-0.010779503,0.0124332495,0.7075314,0.94738925,-3.8694037e-10,8.6731296e-11,-0.32008398,4
710038746,0.7064896,-0.010751685,0.012425724,0.70753264,0.94738925,-3.8694037e-10,8.6731296e-11,-0.32008398,4
710043813,0.70649034,-0.010752078,0.012443778,0.7075316,0.94738925,-3.8694037e-10,8.6731296e-11,-0.32008398,4
710048889,0.7064924,-0.010784654,0.012454813,0.7075289,0.94738925,-3.8694037e-10,8.6731296e-11,-0.32008398,4
710053984,0.7064851,-0.010784847,0.012435241,0.7075365,0.94738925,-3.8694037e-10,8.6731296e-11,-0.32008398,4
710059043,0.7064889,-0.010750494,0.012431862,0.7075333,0.94738925,-3.8694037e-10,8.6731296e-11,-0.32008398,4
710064126,0.70649624,-0.010755394,0.012444656,0.70752573,0.94738925,-3.8694037e-10,8.6731296e-11,-0.32008398,4
710069193,0.70649683,-0.010782731,0.012434352,0.7075249,0.94738925,-3.8694037e-10,8.6731296e-11,-0.32008398,4
710074288,0.7064861,-0.010768545,0.0124223875,0.707536,0.94738925,-3.8694037e-10,8.6731296e-11,-0.32008398,4
710079356,0.70648634,-0.010745046,0.012441707,0.7075358,0.94738925,-3.8694037e-10,8.6731296e-11,-0.32008398,4
710084421,0.7064915,-0.010761776,0.012451648,0.70753026,0.94738925,-3.8694037e-10,8.6731296e-11,-0.32008398,4
710089503,0.70649177,-0.010784169,0.012434522,0.7075299,0.94738925,-3.8694037e-10,8.6731296e-11,-0.32008398,4
710094812,0.7064831,-0.010768754,0.012433047,0.7075388,0.94738925,-3.8694037e-10,8.6731296e-11,-0.32008398,4
710099798,0.70648587,-0.010753429,0.012446511,0.70753604,0.94738925,-3.8694037e-10,8.6731296e-11,-0.32008398,4
710104775,0.7064933,-0.010768635,0.012436527,0.70752853,0.94738925,-3.8694037e-10,8.6731296e-11,-0.32008398,4
710109811,0.70649165,-0.010778688,0.012418406,0.7075304,0.94738925,-3.8694037e-10,8.6731296e-11,-0.32008398,4
710114879,0.7064809,-0.010759868,0.012436376,0.7075411,0.94738925,-3.8694037e-10,8.6731296e-11,-0.32008398,4
710119961,0.7064863,-0.010745557,0.012452519,0.7075357,0.94738925,-3.8694037e-10,8.6731296e-11,-0.32008398,4
710125032,0.70649797,-0.010755571,0.012438211,0.70752406,0.94738925,-3.8694037e-10,8.6731296e-11,-0.32008398,4
710130104,0.7064903,-0.010770217,0.012426842,0.7075317,0.94738925,-3.8694037e-10,8.6731296e-11,-0.32008398,4
710135188,0.7064817,-0.0107683325,0.012445635,0.70754,0.94738925,-3.8694037e-10,8.6731296e-11,-0.32008398,4
710140258,0.70648223,-0.0107542705,0.012442959,0.70753974,0.94738925,-3.8694037e-10,8.6731296e-11,-0.32008398,4
710145334,0.7064938,-0.010754537,0.012423695,0.70752853,0.94738925,-3.8694037e-10,8.6731296e-11,-0.32008398,4
710150424,0.7064872,-0.010766724,0.012428382,0.7075348,0.94738925,-3.8694037e-10,8.6731296e-11,-0.32008398,4
710155484,0.7064827,-0.010758149,0.012443915,0.7075391,0.94738925,-3.8694037e-10,8.6731296e-11,-0.32008398,4
710160568,0.7064891,-0.010735382,0.012438444,0.70753324,0.94738925,-3.8694037e-10,8.6731296e-11,-0.32008398,4
710165645,0.7064993,-0.010749389,0.012424325,0.70752305,0.94738925,-3.8694037e-10,8.6731296e-11,-0.32008398,4
710170711,0.70648795,-0.010771623,0.01243083,0.70753396,0.94738925,-3.8694037e-10,8.6731296e-11,-0.32008398,4
710176052,0.70648503,-0.010754573,0.012441827,0.70753694,0.94738925,-3.8694037e-10,8.6731296e-11,-0.32008398,4
710181035,0.7064935,-0.010732476,0.012439248,0.7075289,0.94738925,-3.8694037e-10,8.6731296e-11,-0.32008398,4
710186021,0.7065062,-0.010743326,0.012432055,0.70751613,0.94738925,-3.8694037e-10,8.6731296e-11,-0.32008398,4
710191020,0.70648897,-0.010752714,0.012434411,0.7075332,0.94738925,-3.8694037e-10,8.6731296e-11,-0.32008398,4
710196103,0.7064839,-0.010736424,0.012438279,0.7075385,0.94738925,-3.8694037e-10,8.6731296e-11,-0.32008398,4
710201169,0.70649374,-0.010730296,0.012440895,0.7075287,0.94738925,-3.8694037e-10,8.6731296e-11,-0.32008398,4
710206276,0.70650154,-0.010750252,0.01243637,0.7075206,0.94738925,-3.8694037e-10,8.6731296e-11,-0.32008398,4
710211322,0.70648897,-0.010747259,0.012432182,0.7075333,0.94738925,-3.8694037e-10,8.6731296e-11,-0.32008398,4
710216398,0.7064891,-0.010732096,0.012439536,0.7075333,0.94738925,-3.8694037e-10,8.6731296e-11,-0.32008398,4
710221477,0.7064997,-0.0107333725,0.012443215,0.7075226,0.94738925,-3.8694037e-10,8.6731296e-11,-0.32008398,4
710226558,0.7064972,-0.010745042,0.012423385,0.70752525,0.94738925,-3.8694037e-10,8.6731296e-11,-0.32008398,4
710231631,0.7064843,-0.010731047,0.012411228,0.7075385,0.94738925,-3.8694037e-10,8.6731296e-11,-0.32008398,4
710236699,0.7064875,-0.010721074,0.0124281645,0.70753527,0.94738925,-3.8694037e-10,8.6731296e-11,-0.32008398,4
710241784,0.7065004,-0.010728603,0.012436142,0.7075221,0.94738925,-3.8694037e-10,8.6731296e-11,-0.32008398,4
710246850,0.7064951,-0.010728855,0.012416983,0.70752776,0.94738925,-3.8694037e-10,8.6731296e-11,-0.32008398,4
710251935,0.70648646,-0.0107264165,0.012420329,0.7075363,0.94738925,-3.8694037e-10,8.6731296e-11,-0.32008398,4
710257253,0.7064878,-0.010742518,0.012448159,0.70753425,0.94738925,-3.8694037e-10,8.6731296e-11,-0.32008398,4
710262307,0.7064953,-0.010748953,0.0124457525,0.70752674,0.94738925,-3.8694037e-10,8.6731296e-11,-0.32008398,4
710267324,0.7064894,-0.010719029,0.012422996,0.70753354,0.94738925,-3.8694037e-10,8.6731296e-11,-0.32008398,4
710272241,0.7064912,-0.010711329,0.01242437,0.70753175,0.94738925,-3.8694037e-10,8.6731296e-11,-0.32008398,4
710277321,0.70649225,-0.010730201,0.012444383,0.70753,0.94738925,-3.8694037e-10,8.6731296e-11,-0.32008398,4
710282408,0.70649016,-0.010726052,0.012434297,0.70753235,0.94738925,-3.8694037e-10,8.6731296e-11,-0.32008398,4
710287463,0.7064805,-0.010703772,0.012414392,0.7075428,0.94738925,-3.8694037e-10,8.6731296e-11,-0.32008398,4
710292534,0.70648456,-0.010716929,0.012433474,0.7075382,0.94738925,-3.8694037e-10,8.6731296e-11,-0.32008398,4
710297619,0.70649207,-0.01073774,0.01244831,0.70753,0.94738925,-3.8694037e-10,8.6731296e-11,-0.32008398,4
710302688,0.7064906,-0.010720832,0.012426563,0.70753217,0.94738925,-3.8694037e-10,8.6731296e-11,-0.32008398,4
710307764,0.70648664,-0.010696648,0.012413898,0.70753664,0.94738925,-3.8694037e-10,8.6731296e-11,-0.32008398,4
710312848,0.7064891,-0.010716801,0.012432375,0.70753366,0.94738925,-3.8694037e-10,8.6731296e-11,-0.32008398,4
710317932,0.70648766,-0.010734812,0.012435825,0.70753473,0.94738925,-3.8694037e-10,8.6731296e-11,-0.32008398,4
710322994,0.70647967,-0.010711891,0.012410921,0.7075435,0.94738925,-3.8694037e-10,8.6731296e-11,-0.32008398,4
710328072,0.7064805,-0.010697574,0.012412553,0.7075429,0.94738925,-3.8694037e-10,8.6731296e-11,-0.32008398,4
710333148,0.70648843,-0.010720941,0.012428791,0.7075343,0.94738925,-3.8694037e-10,8.6731296e-11,-0.32008398,4
710338464,0.70649046,-0.010724838,0.012423117,0.7075323,0.94738925,-3.8694037e-10,8.6731296e-11,-0.32008398,4
710343467,0.70648706,-0.010703794,0.012412391,0.70753616,0.94738925,-3.8694037e-10,8.6731296e-11,-0.32008398,4
710348457,0.7064889,-0.010698437,0.012423325,0.7075342,0.94738925,-3.8694037e-10,8.6731296e-11,-0.32008398,4
710353507,0.70649123,-0.010715443,0.012420517,0.70753175,0.94738925,-3.8694037e-10,8.6731296e-11,-0.32008398,4
710358523,0.7064886,-0.010717995,0.012408233,0.7075345,0.94738925,-3.8694037e-10,8.6731296e-11,-0.32008398,4
710363599,0.70648485,-0.010697537,0.012411751,0.70753855,0.94738925,-3.8694037e-10,8.6731296e-11,-0.32008398,4
710368678,0.70649254,-0.010699691,0.012421636,0.7075306,0.94738925,-3.8694037e-10,8.6731296e-11,-0.32008398,4
710373767,0.7064914,-0.010710431,0.012418225,0.70753163,0.94738925,-3.8694037e-10,8.6731296e-11,-0.32008398,4
710378838,0.70648813,-0.010715649,0.012411566,0.7075349,0.94738925,-3.8694037e-10,8.6731296e-11,-0.32008398,4
710383911,0.70648426,-0.010710999,0.012418914,0.7075388,0.94738925,-3.8694037e-10,8.6731296e-11,-0.32008398,4
710388982,0.70649016,-0.010696496,0.012415852,0.7075331,0.94738925,-3.8694037e-10,8.6731296e-11,-0.32008398,4
710394052,0.7064906,-0.010701206,0.012406725,0.7075328,0.94738925,-3.8694037e-10,8.6731296e-11,-0.32008398,4
710399132,0.7064867,-0.010716194,0.012412513,0.70753634,0.94738925,-3.8694037e-10,8.6731296e-11,-0.32008398,4
710404204,0.7064814,-0.010701823,0.012419102,0.70754176,0.94738925,-3.8694037e-10,8.6731296e-11,-0.32008398,4
710409290,0.7064896,-0.010679858,0.012410097,0.7075341,0.94738925,-3.8694037e-10,8.6731296e-11,-0.32008398,4
710414358,0.70649195,-0.010694424,0.012409591,0.7075315,0.94738925,-3.8694037e-10,8.6731296e-11,-0.32008398,4
710419608,0.70648706,-0.010712256,0.0124207605,0.7075359,0.94738925,-3.8694037e-10,8.6731296e-11,-0.32008398,4
710424689,0.70647854,-0.0106851375,0.01242363,0.70754486,0.94738925,-3.8694037e-10,8.6731296e-11,-0.32008398,4
710429734,0.70648515,-0.010661789,0.012417311,0.70753866,0.94738925,-3.8694037e-10,8.6731296e-11,-0.32008398,4
710434741,0.70648724,-0.01069098,0.012418198,0.7075361,0.94738925,-3.8694037e-10,8.6731296e-11,-0.32008398,4
710439738,0.70648116,-0.010708658,0.0124170575,0.70754194,0.94738925,-3.8694037e-10,8.6731296e-11,-0.32008398,4
710444811,0.7064772,-0.010671748,0.012418835,0.70754635,0.94738925,-3.8694037e-10,8.6731296e-11,-0.32008398,4
710449888,0.70648515,-0.010655596,0.012418892,0.70753866,0.94738925,-3.8694037e-10,8.6731296e-11,-0.32008398,4
710454963,0.7064857,-0.010688986,0.012420063,0.70753765,0.94738925,-3.8694037e-10,8.6731296e-11,-0.32008398,4
710460039,0.70647603,-0.010695142,0.012410233,0.70754737,0.94738925,-3.8694037e-10,8.6731296e-11,-0.32008398,4
710465124,0.7064765,-0.010652113,0.012405976,0.7075476,0.94738925,-3.8694037e-10,8.6731296e-11,-0.32008398,4
710470199,0.70649207,-0.010655375,0.012409147,0.7075319,0.94738925,-3.8694037e-10,8.6731296e-11,-0.32008398,4
710475276,0.706493,-0.010689649,0.0124052465,0.70753056,0.94738925,-3.8694037e-10,8.6731296e-11,-0.32008398,4
710480343,0.7064783,-0.01067285,0.01240238,0.70754564,0.94738925,-3.8694037e-10,8.6731296e-11,-0.32008398,4
710485422,0.7064808,-0.010643994,0.012414887,0.7075433,0.94738925,-3.8694037e-10,8.6731296e-11,-0.32008398,4
710490494,0.7064914,-0.010663051,0.01241086,0.70753247,0.94738925,-3.8694037e-10,8.6731296e-11,-0.32008398,4
710495576,0.70648897,-0.0106748305,0.012392445,0.707535,0.94738925,-3.8694037e-10,8.6731296e-11,-0.32008398,4
710500866,0.7064758,-0.010647992,0.0123903835,0.7075487,0.94738925,-3.8694037e-10,8.6731296e-11,-0.32008398,4
710505914,0.7064852,-0.010643325,0.012408884,0.707539,0.94738925,-3.8694037e-10,8.6731296e-11,-0.32008398,4
710520951,0.7064777,-0.010646935,0.012396368,0.7075467,0.94738925,-3.8694037e-10,8.6731296e-11,-0.32008398,4
710526037,0.7064867,-0.010654859,0.012416016,0.70753723,0.94738925,-3.8694037e-10,8.6731296e-11,-0.32008398,4
710531119,0.70649064,-0.010652805,0.012400728,0.7075336,0.94738925,-3.8694037e-10,8.6731296e-11,-0.32008398,4
710536182,0.7064837,-0.01063195,0.012384291,0.7075411,0.94738925,-3.8694037e-10,8.6731296e-11,-0.32008398,4
710541268,0.70647776,-0.010639476,0.012400628,0.70754665,0.94738925,-3.8694037e-10,8.6731296e-11,-0.32008398,4
710546329,0.7064887,-0.010653518,0.012412701,0.7075353,0.94738925,-3.8694037e-10,8.6731296e-11,-0.32008398,4
710551405,0.7064904,-0.010640982,0.012391991,0.7075342,0.94738925,-3.8694037e-10,8.6731296e-11,-0.32008398,4
710556504,0.706483,-0.0106343655,0.012386659,0.7075417,0.94738925,-3.8694037e-10,8.6731296e-11,-0.32008398,4
710561557,0.7064829,-0.010655312,0.01240724,0.70754117,0.94738925,-3.8694037e-10,8.6731296e-11,-0.32008398,4
710576786,0.7064826,-0.01062715,0.012382844,0.7075423,0.94738925,-3.8694037e-10,8.6731296e-11,-0.32008398,4
710581869,0.7064821,-0.010644792,0.012405882,0.7075421,0.94738925,-3.8694037e-10,8.6731296e-11,-0.32008398,4
710587171,0.7064874,-0.01063513,0.012399937,0.7075371,0.94738925,-3.8694037e-10,8.6731296e-11,-0.32008398,4
710592139,0.70648974,-0.010616553,0.012388258,0.70753527,0.94738925,-3.8694037e-10,8.6731296e-11,-0.32008398,4
710597215,0.7064876,-0.010631556,0.012393012,0.70753706,0.94738925,-3.8694037e-10,8.6731296e-11,-0.32008398,4
710602188,0.70648956,-0.010638049,0.012406143,0.7075348,0.94738925,-3.8694037e-10,8.6731296e-11,-0.32008398,4
710607258,0.7064917,-0.010618869,0.012398347,0.70753306,0.94738925,-3.8694037e-10,8.6731296e-11,-0.32008398,4
710612319,0.70649165,-0.010612513,0.0123861,0.7075334,0.94738925,-3.8694037e-10,8.6731296e-11,-0.32008398,4
710617398,0.70648843,-0.01062669,0.0123835085,0.70753646,0.94738925,-3.8694037e-10,8.6731296e-11,-0.32008398,4
710622479,0.7064862,-0.010621464,0.012392109,0.70753866,0.94738925,-3.8694037e-10,8.6731296e-11,-0.32008398,4
710627554,0.7064871,-0.010612574,0.012387759,0.707538,0.94738925,-3.8694037e-10,8.6731296e-11,-0.32008398,4
710632623,0.70649153,-0.010616392,0.0123804845,0.70753366,0.94738925,-3.8694037e-10,8.6731296e-11,-0.32008398,4
710637716,0.7064885,-0.010623178,0.012378316,0.7075366,0.94738925,-3.8694037e-10,8.6731296e-11,-0.32008398,4
710642772,0.70649016,-0.01062172,0.0123805795,0.7075349,0.94738925,-3.8694037e-10,8.6731296e-11,-0.32008398,4
710647850,0.7064904,-0.010629496,0.012380183,0.70753455,0.94738925,-3.8694037e-10,8.6731296e-11,-0.32008398,4
710652926,0.7064929,-0.010621821,0.012369189,0.70753235,0.94738925,-3.8694037e-10,8.6731296e-11,-0.32008398,4
710658002,0.7064869,-0.010602051,0.012363679,0.7075388,0.94738925,-3.8694037e-10,8.6731296e-11,-0.32008398,4
710663075,0.7064904,-0.010608657,0.012371328,0.707535,0.94738925,-3.8694037e-10,8.6731296e-11,-0.32008398,4
710668434,0.70649004,-0.010633408,0.012370677,0.707535,0.94738925,-3.8694037e-10,8.6731296e-11,-0.32008398,4
710673360,0.7064895,-0.010613443,0.012361884,0.707536,0.94738925,-3.8694037e-10,8.6731296e-11,-0.32008398,4
710678359,0.70649004,-0.010593186,0.012362242,0.7075358,0.94738925,-3.8694037e-10,8.6731296e-11,-0.32008398,4
710683382,0.70649266,-0.010624935,0.012374461,0.7075325,0.94738925,-3.8694037e-10,8.6731296e-11,-0.32008398,4
710688463,0.70649385,-0.010635424,0.0123726055,0.7075312,0.94738925,-3.8694037e-10,8.6731296e-11,-0.32008398,4
710693535,0.7064878,-0.0105910655,0.012362668,0.7075381,0.94738925,-3.8694037e-10,8.6731296e-11,-0.32008398,4
710698610,0.7064925,-0.010589188,0.012362449,0.7075334,0.94738925,-3.8694037e-10,8.6731296e-11,-0.32008398,4
710703683,0.70649576,-0.010634155,0.012367288,0.7075293,0.94738925,-3.8694037e-10,8.6731296e-11,-0.32008398,4
710708759,0.70649344,-0.010623747,0.012360274,0.7075319,0.94738925,-3.8694037e-10,8.6731296e-11,-0.32008398,4
710713847,0.7064873,-0.010575905,0.012356031,0.7075389,0.94738925,-3.8694037e-10,8.6731296e-11,-0.32008398,4
710744290,0.70649385,-0.010635849,0.012358588,0.7075314,0.94738925,-3.8694037e-10,8.6731296e-11,-0.32008398,4
710749644,0.70647985,-0.010595398,0.0123587595,0.70754594,0.94738925,-3.8694037e-10,8.6731296e-11,-0.32008398,4
710754658,0.7064826,-0.01058468,0.012366489,0.70754325,0.94738925,-3.8694037e-10,8.6731296e-11,-0.32008398,4
710759620,0.70649666,-0.0106216865,0.012363026,0.70752877,0.94738925,-3.8694037e-10,8.6731296e-11,-0.32008398,4
710764623,0.7064872,-0.010629475,0.012352592,0.7075383,0.94738925,-3.8694037e-10,8.6731296e-11,-0.32008398,4
710769674,0.70647913,-0.010599249,0.012357685,0.7075467,0.94738925,-3.8694037e-10,8.6731296e-11,-0.32008398,4
710774748,0.7064917,-0.010602117,0.012371545,0.70753384,0.94738925,-3.8694037e-10,8.6731296e-11,-0.32008398,4
710779821,0.7065021,-0.010626302,0.012363838,0.7075233,0.94738925,-3.8694037e-10,8.6731296e-11,-0.32008398,4
710784897,0.7064836,-0.010619963,0.012361409,0.7075418,0.94738925,-3.8694037e-10,8.6731296e-11,-0.32008398,4
710789977,0.7064741,-0.010608956,0.012374616,0.70755124,0.94738925,-3.8694037e-10,8.6731296e-11,-0.32008398,4
710795058,0.7064867,-0.010615488,0.012379417,0.7075385,0.94738925,-3.8694037e-10,8.6731296e-11,-0.32008398,4
710800128,0.70649236,-0.010616492,0.012352115,0.70753324,0.94738925,-3.8694037e-10,8.6731296e-11,-0.32008398,4
710805201,0.7064773,-0.010607309,0.012349172,0.70754856,0.94738925,-3.8694037e-10,8.6731296e-11,-0.32008398,4
710810290,0.7064757,-0.010615725,0.012367901,0.7075497,0.94738925,-3.8694037e-10,8.6731296e-11,-0.32008398,4
710815353,0.70648825,-0.010614096,0.012368217,0.7075371,0.94738925,-3.8694037e-10,8.6731296e-11,-0.32008398,4
710820429,0.7064823,-0.010604893,0.012349373,0.70754355,0.94738925,-3.8694037e-10,8.6731296e-11,-0.32008398,4
710825513,0.7064705,-0.0106121525,0.012357527,0.7075551,0.94738925,-3.8694037e-10,8.6731296e-11,-0.32008398,4
710855960,0.70648116,-0.010588764,0.012364517,0.7075447,0.94738925,-3.8694037e-10,8.6731296e-11,-0.32008398,4
710861038,0.7064827,-0.010607026,0.012346796,0.70754313,0.94738925,-3.8694037e-10,8.6731296e-11,-0.32008398,4
710866112,0.7064795,-0.010625921,0.012352453,0.707546,0.94738925,-3.8694037e-10,8.6731296e-11,-0.32008398,4
710871196,0.70647645,-0.010599943,0.012362016,0.7075492,0.94738925,-3.8694037e-10,8.6731296e-11,-0.32008398,4
710876302,0.70648134,-0.010583431,0.012355203,0.7075447,0.94738925,-3.8694037e-10,8.6731296e-11,-0.32008398,4
710881345,0.7064783,-0.010607148,0.012343583,0.70754766,0.94738925,-3.8694037e-10,8.6731296e-11,-0.32008398,4
710886415,0.7064773,-0.010611435,0.012352902,0.70754844,0.94738925,-3.8694037e-10,8.6731296e-11,-0.32008398,4
710891503,0.7064766,-0.010587523,0.012361732,0.7075493,0.94738925,-3.8694037e-10,8.6731296e-11,-0.32008398,4
710922061,0.70647776,-0.0105886655,0.012337522,0.7075485,0.94738925,-3.8694037e-10,8.6731296e-11,-0.32008398,4
710927076,0.70647264,-0.010574067,0.012350478,0.7075537,0.94738925,-3.8694037e-10,8.6731296e-11,-0.32008398,4
710932116,0.70647854,-0.010596334,0.012359087,0.70754725,0.94738925,-3.8694037e-10,8.6731296e-11,-0.32008398,4
710937176,0.7064837,-0.010606877,0.012341799,0.70754224,0.94738925,-3.8694037e-10,8.6731296e-11,-0.32008398,4
710942255,0.70647675,-0.010569379,0.012333326,0.70754987,0.94738925,-3.8694037e-10,8.6731296e-11,-0.32008398,4
710947329,0.7064725,-0.0105690425,0.012349311,0.70755386,0.94738925,-3.8694037e-10,8.6731296e-11,-0.32008398,4
710952405,0.706481,-0.010609916,0.012361204,0.70754457,0.94738925,-3.8694037e-10,8.6731296e-11,-0.32008398,4
710982861,0.7064693,-0.010559405,0.012331786,0.7075575,0.94738925,-3.8694037e-10,8.6731296e-11,-0.32008398,4
710987944,0.7064737,-0.010600713,0.012339146,0.7075524,0.94738925,-3.8694037e-10,8.6731296e-11,-0.32008398,4
710993248,0.7064755,-0.010617582,0.01233644,0.7075504,0.94738925,-3.8694037e-10,8.6731296e-11,-0.32008398,4
710998341,0.7064675,-0.010580516,0.012326473,0.7075591,0.94738925,-3.8694037e-10,8.6731296e-11,-0.32008398,4
711003301,0.7064744,-0.010572358,0.012329183,0.70755225,0.94738925,-3.8694037e-10,8.6731296e-11,-0.32008398,4
711008255,0.7064837,-0.010606053,0.012335111,0.70754236,0.94738925,-3.8694037e-10,8.6731296e-11,-0.32008398,4
711013316,0.7064764,-0.01059431,0.012328565,0.70755,0.94738925,-3.8694037e-10,8.6731296e-11,-0.32008398,4
711018422,0.7064699,-0.0105668185,0.012329611,0.7075569,0.94738925,-3.8694037e-10,8.6731296e-11,-0.32008398,4
711023485,0.70647913,-0.010584119,0.012331827,0.7075473,0.94738925,-3.8694037e-10,8.6731296e-11,-0.32008398,4
711028573,0.7064815,-0.0106019,0.012330825,0.70754474,0.94738925,-3.8694037e-10,8.6731296e-11,-0.32008398,4
711043772,0.7064818,-0.010598037,0.012321277,0.70754457,0.94738925,-3.8694037e-10,8.6731296e-11,-0.32008398,4
711048849,0.7064749,-0.010602373,0.01231588,0.70755154,0.94738925,-3.8694037e-10,8.6731296e-11,-0.32008398,4
711053929,0.70646274,-0.01060758,0.012312586,0.7075637,0.94738925,-3.8694037e-10,8.6731296e-11,-0.32008398,4
711058996,0.7064693,-0.010598972,0.01232097,0.70755714,0.94738925,-3.8694037e-10,8.6731296e-11,-0.32008398,4
711064083,0.7064792,-0.010579589,0.0123158265,0.7075476,0.94738925,-3.8694037e-10,8.6731296e-11,-0.32008398,4
711069155,0.70648295,-0.010592307,0.0123153925,0.7075436,0.94738925,-3.8694037e-10,8.6731296e-11,-0.32008398,4
711074230,0.70647424,-0.010612083,0.012319484,0.70755196,0.94738925,-3.8694037e-10,8.6731296e-11,-0.32008398,4
711079491,0.70647275,-0.010590587,0.012321249,0.70755374,0.94738925,-3.8694037e-10,8.6731296e-11,-0.32008398,4
711084470,0.7064728,-0.010575993,0.012316049,0.707554,0.94738925,-3.8694037e-10,8.6731296e-11,-0.32008398,4
711089509,0.70647377,-0.010608162,0.012313226,0.7075526,0.94738925,-3.8694037e-10,8.6731296e-11,-0.32008398,4
711094539,0.70646685,-0.010615899,0.012311588,0.7075594,0.94738925,-3.8694037e-10,8.6731296e-11,-0.32008398,4
711099606,0.7064653,-0.01057017,0.012313909,0.7075616,0.94738925,-3.8694037e-10,8.6731296e-11,-0.32008398,4
711104680,0.7064686,-0.010571894,0.012314862,0.7075584,0.94738925,-3.8694037e-10,8.6731296e-11,-0.32008398,4
711109755,0.7064702,-0.0106174,0.012308552,0.7075561,0.94738925,-3.8694037e-10,8.6731296e-11,-0.32008398,4
711114837,0.70645577,-0.010607263,0.012312992,0.7075707,0.94738925,-3.8694037e-10,8.6731296e-11,-0.32008398,4
711119917,0.70645833,-0.010573429,0.012323667,0.7075684,0.94738925,-3.8694037e-10,8.6731296e-11,-0.32008398,4
711124983,0.70646816,-0.010591756,0.012320731,0.70755833,0.94738925,-3.8694037e-10,8.6731296e-11,-0.32008398,4
711140214,0.70645475,-0.010559842,0.012320399,0.7075722,0.94738925,-3.8694037e-10,8.6731296e-11,-0.32008398,4
711145303,0.70646656,-0.010595437,0.012304921,0.7075602,0.94738925,-3.8694037e-10,8.6731296e-11,-0.32008398,4
711150366,0.7064553,-0.010597375,0.012287709,0.70757174,0.94738925,-3.8694037e-10,8.6731296e-11,-0.32008398,4
711155448,0.7064441,-0.01057445,0.0123042,0.70758295,0.94738925,-3.8694037e-10,8.6731296e-11,-0.32008398,4
711160719,0.70645976,-0.010586803,0.012308918,0.707567,0.94738925,-3.8694037e-10,8.6731296e-11,-0.32008398,4
711165699,0.7064699,-0.010598973,0.01228971,0.707557,0.94738925,-3.8694037e-10,8.6731296e-11,-0.32008398,4
711170698,0.7064535,-0.010580748,0.012281246,0.7075739,0.94738925,-3.8694037e-10,8.6731296e-11,-0.32008398,4
711175745,0.7064475,-0.010583902,0.012298995,0.7075795,0.94738925,-3.8694037e-10,8.6731296e-11,-0.32008398,4
711180818,0.70645845,-0.010602439,0.012303665,0.7075682,0.94738925,-3.8694037e-10,8.6731296e-11,-0.32008398,4
711190970,0.7064508,-0.010579391,0.012286449,0.70757645,0.94738925,-3.8694037e-10,8.6731296e-11,-0.32008398,4
711196053,0.7064562,-0.010599144,0.012301969,0.70757055,0.94738925,-3.8694037e-10,8.6731296e-11,-0.32008398,4
711201127,0.706464,-0.010594854,0.01229987,0.70756286,0.94738925,-3.8694037e-10,8.6731296e-11,-0.32008398,4
711206200,0.70646006,-0.010567334,0.012281791,0.70756745,0.94738925,-3.8694037e-10,8.6731296e-11,-0.32008398,4
711211292,0.7064519,-0.010578449,0.012280517,0.7075755,0.94738925,-3.8694037e-10,8.6731296e-11,-0.32008398,4
711216356,0.70646006,-0.010595561,0.012293542,0.70756686,0.94738925,-3.8694037e-10,8.6731296e-11,-0.32008398,4
711221434,0.7064616,-0.010576278,0.0122893285,0.70756567,0.94738925,-3.8694037e-10,8.6731296e-11,-0.32008398,4
711226502,0.7064526,-0.010565434,0.012274855,0.707575,0.94738925,-3.8694037e-10,8.6731296e-11,-0.32008398,4
711231585,0.70644826,-0.010589199,0.012271462,0.7075791,0.94738925,-3.8694037e-10,8.6731296e-11,-0.32008398,4
711236668,0.7064537,-0.0105878115,0.0122809205,0.7075735,0.94738925,-3.8694037e-10,8.6731296e-11,-0.32008398,4
711241932,0.7064514,-0.010561541,0.012272227,0.70757633,0.94738925,-3.8694037e-10,8.6731296e-11,-0.32008398,4
