timestamp,roll,pitch,yaw,thrust_body[0],thrust_body[1],thrust_body[2]
707922797,-0.018461362,-0.2675244,-1.7045117e-05,0.0,0.0,-0.0
707928199,-0.018548276,-0.2675037,0.00052370864,0.0,0.0,-0.0
708034715,-0.018090233,-0.26719606,-1.9488278e-05,0.0,0.0,-0.0
708039732,-0.017597932,-0.26710114,-0.0003089569,0.0,0.0,-0.0
708044668,-0.01778757,-0.26746526,-8.299654e-05,0.0,0.0,-0.0
708049984,-0.01832895,-0.2678514,0.0003655287,0.0,0.0,-0.0
708054894,-0.018904148,-0.26762718,0.00042726923,0.0,0.0,-0.0
708059957,-0.018976565,-0.26735514,0.00019203793,0.0,0.0,-0.0
708065112,-0.018228708,-0.26759535,7.749478e-05,0.0,0.0,-0.0
708070057,-0.01762643,-0.26789892,-1.6033193e-05,0.0,0.0,-0.0
708075044,-0.017778754,-0.26751193,6.361378e-05,0.0,0.0,-0.0
708080343,-0.018427791,-0.2671689,0.00021742635,0.0,0.0,-0.0
708085222,-0.018690929,-0.26762205,0.00037888446,0.0,0.0,-0.0
708090462,-0.0186396,-0.26793098,0.0001599276,0.0,0.0,-0.0
708095743,-0.018394632,-0.26770672,-3.8973238e-05,0.0,0.0,-0.0
708100668,-0.018283557,-0.2676119,8.4014646e-05,0.0,0.0,-0.0
708105639,-0.018017597,-0.26781943,0.00022533856,0.0,0.0,-0.0
708110758,-0.01813487,-0.26772183,0.0002628066,0.0,0.0,-0.0
708116047,-0.018556843,-0.26738647,0.00010586192,0.0,0.0,-0.0
708120891,-0.018835668,-0.26745307,0.0002337998,0.0,0.0,-0.0
708125889,-0.018507693,-0.26768124,8.34505e-05,0.0,0.0,-0.0
708131574,-0.01815712,-0.2677719,6.4577755e-05,0.0,0.0,-0.0
708136478,-0.018138925,-0.26794448,0.00011167642,0.0,0.0,-0.0
708141190,-0.018383285,-0.26794216,0.00035205888,0.0,0.0,-0.0
708156336,-0.01842027,-0.26778287,-3.4641405e-05,0.0,0.0,-0.0
708161516,-0.018575178,-0.2676565,0.0001850744,0.0,0.0,-0.0
708166811,-0.018391678,-0.267624,0.00025580756,0.0,0.0,-0.0
708171803,-0.018120576,-0.2679801,0.00013945696,0.0,0.0,-0.0
708176702,-0.018457016,-0.2680716,0.00017506766,0.0,0.0,-0.0
708181934,-0.018823314,-0.2677704,0.00020045126,0.0,0.0,-0.0
708186874,-0.018512325,-0.26786116,0.00011748535,0.0,0.0,-0.0
708192002,-0.018258061,-0.2681145,4.595027e-06,0.0,0.0,-0.0
708197393,-0.018604051,-0.26786712,0.0001310475,0.0,0.0,-0.0
708202157,-0.018851586,-0.26744676,0.0002990393,0.0,0.0,-0.0
708207233,-0.018371142,-0.26775917,0.00031655602,0.0,0.0,-0.0
708212399,-0.018116398,-0.2680317,6.533201e-05,0.0,0.0,-0.0
708217402,-0.01861974,-0.2677861,3.340567e-05,0.0,0.0,-0.0
708222400,-0.01874137,-0.26765394,0.00020295402,0.0,0.0,-0.0
708227406,-0.018223623,-0.2678683,0.00024394653,0.0,0.0,-0.0
708232933,-0.018276984,-0.26769456,6.116499e-05,0.0,0.0,-0.0
708237739,-0.01880733,-0.26744667,0.00016406958,0.0,0.0,-0.0
708242671,-0.018622361,-0.26765355,0.00029797808,0.0,0.0,-0.0
708247739,-0.018209713,-0.26783755,0.00014223836,0.0,0.0,-0.0
708252926,-0.018470079,-0.26766965,-5.2261166e-05,0.0,0.0,-0.0
708258106,-0.01887281,-0.26782513,0.00020554582,0.0,0.0,-0.0
708263096,-0.018625572,-0.2680045,0.00030389574,0.0,0.0,-0.0
708268659,-0.018441763,-0.26766586,0.00010934455,0.0,0.0,-0.0
708273657,-0.01878721,-0.2674847,-3.9994142e-05,0.0,0.0,-0.0
708278218,-0.018779948,-0.2677682,0.00022309825,0.0,0.0,-0.0
708283543,-0.018521396,-0.26773548,0.000267507,0.0,0.0,-0.0
708288371,-0.018626662,-0.26729447,7.48251e-05,0.0,0.0,-0.0
708293685,-0.018833691,-0.2675705,6.383907e-05,0.0,0.0,-0.0
708298665,-0.018682001,-0.26805303,0.0002595423,0.0,0.0,-0.0
708323978,-0.01866572,-0.2674656,0.00016806019,0.0,0.0,-0.0
708328916,-0.01876035,-0.26729003,1.7985192e-05,0.0,0.0,-0.0
708334570,-0.018623827,-0.2678951,0.0001811962,0.0,0.0,-0.0
708339018,-0.018579619,-0.26805994,0.00021867192,0.0,0.0,-0.0
708344279,-0.018674804,-0.26760522,0.00014324374,0.0,0.0,-0.0
708349259,-0.018653398,-0.26752946,0.00010111904,0.0,0.0,-0.0
708354427,-0.018631432,-0.26792812,0.00023571351,0.0,0.0,-0.0
708359487,-0.01883072,-0.26776782,0.00012766238,0.0,0.0,-0.0
708364824,-0.019002378,-0.26735765,7.5317905e-05,0.0,0.0,-0.0
708369644,-0.01886482,-0.2675573,0.00015577444,0.0,0.0,-0.0
708374839,-0.018762656,-0.26790458,0.00024489147,0.0,0.0,-0.0
708379738,-0.018887741,-0.26781058,0.00011284949,0.0,0.0,-0.0
708384888,-0.018849755,-0.26769325,0.00014695866,0.0,0.0,-0.0
708389790,-0.018845208,-0.26771685,0.0001811341,0.0,0.0,-0.0
708395371,-0.019043613,-0.267652,0.00021383211,0.0,0.0,-0.0
708399941,-0.018986244,-0.26761034,7.198806e-05,0.0,0.0,-0.0
708405081,-0.018880228,-0.2675646,0.00015929798,0.0,0.0,-0.0
708420323,-0.018736705,-0.26770705,0.00014126785,0.0,0.0,-0.0
708425475,-0.018798167,-0.26750258,0.00019178115,0.0,0.0,-0.0
708430709,-0.01915261,-0.26714656,0.00018349309,0.0,0.0,-0.0
708436084,-0.018887091,-0.26740664,0.00014656308,0.0,0.0,-0.0
708440603,-0.01856228,-0.26764584,0.00012274117,0.0,0.0,-0.0
708445762,-0.018873388,-0.26721373,0.00014732541,0.0,0.0,-0.0
708450766,-0.019167962,-0.2670134,0.00019844758,0.0,0.0,-0.0
708456041,-0.018720997,-0.26753193,0.00021477819,0.0,0.0,-0.0
708461068,-0.018571883,-0.2677036,0.00013064552,0.0,0.0,-0.0
708466467,-0.019156009,-0.2672193,6.488868e-05,0.0,0.0,-0.0
708470986,-0.019267261,-0.2672361,0.0002355798,0.0,0.0,-0.0
708476146,-0.018676257,-0.26774752,0.00022031702,0.0,0.0,-0.0
708481599,-0.018775653,-0.26763,0.00011845229,0.0,0.0,-0.0
708486409,-0.019387264,-0.2671039,7.727333e-05,0.0,0.0,-0.0
708491363,-0.019141598,-0.2672959,0.00024351457,0.0,0.0,-0.0
708497048,-0.01862323,-0.26767212,0.00017428982,0.0,0.0,-0.0
708501603,-0.019026581,-0.26748025,6.19032e-05,0.0,0.0,-0.0
708506778,-0.019480908,-0.26724425,0.000142031,0.0,0.0,-0.0
708511776,-0.019078996,-0.2675732,0.00033608248,0.0,0.0,-0.0
708516896,-0.018737003,-0.2676673,5.709377e-05,0.0,0.0,-0.0
708522024,-0.01919904,-0.26733473,-2.192469e-05,0.0,0.0,-0.0
708527022,-0.019410394,-0.26732525,0.0002039175,0.0,0.0,-0.0
708532351,-0.019027175,-0.26740596,0.0003088701,0.0,0.0,-0.0
708537320,-0.01901792,-0.2672101,5.478365e-06,0.0,0.0,-0.0
708542293,-0.01930903,-0.26715875,3.93746e-05,0.0,0.0,-0.0
708547326,-0.019342273,-0.26743293,0.00031737873,0.0,0.0,-0.0
708552215,-0.019179458,-0.26734036,0.00024605752,0.0,0.0,-0.0
708557437,-0.0193036,-0.2672089,-1.2231669e-05,0.0,0.0,-0.0
708562384,-0.019386994,-0.26750812,0.00010403612,0.0,0.0,-0.0
708568621,-0.019356543,-0.26765683,0.00030741186,0.0,0.0,-0.0
708572532,-0.019286012,-0.26720682,0.00016484241,0.0,0.0,-0.0
708578029,-0.019239523,-0.2671587,2.9258896e-05,0.0,0.0,-0.0
708582692,-0.019282319,-0.2675477,0.00018855266,0.0,0.0,-0.0
708588077,-0.019459246,-0.2674372,0.00027116487,0.0,0.0,-0.0
708592878,-0.019456476,-0.26722842,9.080234e-05,0.0,0.0,-0.0
708598405,-0.019205267,-0.26744023,5.8851423e-05,0.0,0.0,-0.0
708603020,-0.019244084,-0.2677332,0.00019697989,0.0,0.0,-0.0
708608298,-0.019527242,-0.26740733,0.0002551523,0.0,0.0,-0.0
708613247,-0.019339543,-0.2671287,0.00014270081,0.0,0.0,-0.0
708618449,-0.019108022,-0.26742926,0.00014490432,0.0,0.0,-0.0
708623454,-0.019400822,-0.2674844,0.00010899086,0.0,0.0,-0.0
708628559,-0.019574262,-0.26719695,0.00017479288,0.0,0.0,-0.0
708633693,-0.019200033,-0.26726395,0.00013306215,0.0,0.0,-0.0
708638678,-0.01915806,-0.26745638,0.00019116707,0.0,0.0,-0.0
708674400,-0.019153414,-0.2671028,0.00017826098,0.0,0.0,-0.0
708679363,-0.019525051,-0.2670625,0.00014698268,0.0,0.0,-0.0
708684224,-0.019555215,-0.26744497,0.00015913526,0.0,0.0,-0.0
708689424,-0.019153627,-0.26752442,0.00019009007,0.0,0.0,-0.0
708694417,-0.01932196,-0.2671615,0.0001424283,0.0,0.0,-0.0
708699642,-0.019593865,-0.26713604,8.130487e-05,0.0,0.0,-0.0
708704662,-0.019276863,-0.26756895,0.00025784678,0.0,0.0,-0.0
708709717,-0.019178506,-0.2674375,0.00018079227,0.0,0.0,-0.0
708714748,-0.01966598,-0.2669735,0.00010731963,0.0,0.0,-0.0
708720037,-0.019594608,-0.2672248,0.00016586113,0.0,0.0,-0.0
708740435,-0.019538237,-0.26725823,0.00021575119,0.0,0.0,-0.0
708745110,-0.01916224,-0.26765922,0.00025482205,0.0,0.0,-0.0
708750363,-0.019627972,-0.26714683,2.6466942e-05,0.0,0.0,-0.0
708755595,-0.019786399,-0.266849,0.00013961886,0.0,0.0,-0.0
708760525,-0.019339772,-0.26735452,0.00026612022,0.0,0.0,-0.0
708765889,-0.019271763,-0.26750118,0.00019430662,0.0,0.0,-0.0
708770700,-0.019745205,-0.26710883,2.9056408e-05,0.0,0.0,-0.0
708775866,-0.019761715,-0.2671011,0.0002701035,0.0,0.0,-0.0
708781028,-0.019360725,-0.2674346,0.00029162993,0.0,0.0,-0.0
708785857,-0.019364137,-0.26734915,5.539477e-05,0.0,0.0,-0.0
708816284,-0.019474173,-0.26724425,0.00033009215,0.0,0.0,-0.0
708821464,-0.019453196,-0.26720983,0.00019278908,0.0,0.0,-0.0
708826451,-0.019365706,-0.26718715,-1.858736e-05,0.0,0.0,-0.0
708832035,-0.019491164,-0.26724264,0.000171372,0.0,0.0,-0.0
708836545,-0.01965518,-0.26710358,0.0002871976,0.0,0.0,-0.0
708841792,-0.01956621,-0.2670575,0.00012282007,0.0,0.0,-0.0
708846721,-0.019391688,-0.26720378,2.2394906e-05,0.0,0.0,-0.0
708851824,-0.019637318,-0.2672172,0.00019971289,0.0,0.0,-0.0
708856912,-0.019843176,-0.2669697,0.00023496868,0.0,0.0,-0.0
708862075,-0.019464696,-0.26704007,0.000120141354,0.0,0.0,-0.0
708867799,-0.019145114,-0.2672599,5.584043e-05,0.0,0.0,-0.0
708872230,-0.01961612,-0.2670594,0.00018357259,0.0,0.0,-0.0
708877320,-0.019727476,-0.26690152,0.00021482607,0.0,0.0,-0.0
708882308,-0.019200014,-0.26710185,0.00013858234,0.0,0.0,-0.0
708887240,-0.019204255,-0.2672308,5.021522e-05,0.0,0.0,-0.0
708892481,-0.019865647,-0.26699418,0.00021740228,0.0,0.0,-0.0
708898099,-0.019714564,-0.26697814,0.0002507572,0.0,0.0,-0.0
708902548,-0.019192956,-0.2671418,0.00015564187,0.0,0.0,-0.0
708907688,-0.019592552,-0.26708552,-1.0875498e-06,0.0,0.0,-0.0
708912843,-0.02003377,-0.2669648,0.00019118868,0.0,0.0,-0.0
708917903,-0.019520782,-0.26700065,0.00025495846,0.0,0.0,-0.0
708927952,-0.019812783,-0.2669017,4.1944546e-05,0.0,0.0,-0.0
708933077,-0.019898798,-0.26690382,0.00023226638,0.0,0.0,-0.0
708973559,-0.019454056,-0.26698667,0.00028311607,0.0,0.0,-0.0
708978598,-0.01951948,-0.2665724,0.00018165284,0.0,0.0,-0.0
708983940,-0.019728623,-0.266356,1.731756e-05,0.0,0.0,-0.0
708988760,-0.019593092,-0.2668372,0.00017439807,0.0,0.0,-0.0
708994046,-0.01941496,-0.2669409,0.0002770118,0.0,0.0,-0.0
708999173,-0.0196639,-0.26651156,0.0001767301,0.0,0.0,-0.0
709004099,-0.019694904,-0.26646635,6.228435e-05,0.0,0.0,-0.0
709024421,-0.019483088,-0.26651242,0.00015301444,0.0,0.0,-0.0
709029635,-0.019297821,-0.26694575,0.00034495996,0.0,0.0,-0.0
709035003,-0.019573705,-0.26670697,8.830339e-05,0.0,0.0,-0.0
709039565,-0.019585133,-0.26634115,9.6598305e-05,0.0,0.0,-0.0
709044659,-0.01926103,-0.2665191,0.00019880928,0.0,0.0,-0.0
709049686,-0.019318346,-0.26671678,0.00021434587,0.0,0.0,-0.0
709054747,-0.019573808,-0.26659185,6.434454e-05,0.0,0.0,-0.0
709059992,-0.019523721,-0.26637653,0.00018070234,0.0,0.0,-0.0
709065392,-0.019376004,-0.26652926,0.00030634901,0.0,0.0,-0.0
709070155,-0.019474111,-0.26660252,0.00014067235,0.0,0.0,-0.0
709080168,-0.019434819,-0.26630217,0.00017909313,0.0,0.0,-0.0
709085339,-0.019474747,-0.26635405,0.00030343997,0.0,0.0,-0.0
709090513,-0.019524314,-0.26653904,8.2435814e-05,0.0,0.0,-0.0
709095827,-0.019317528,-0.2665033,0.0001396377,0.0,0.0,-0.0
709100558,-0.019434262,-0.26624027,0.0002448641,0.0,0.0,-0.0
709105663,-0.019659184,-0.26629242,0.00020685699,0.0,0.0,-0.0
709125846,-0.019690115,-0.26608917,0.00024016525,0.0,0.0,-0.0
709131168,-0.019177256,-0.26629764,0.00013265933,0.0,0.0,-0.0
709135963,-0.019336332,-0.266166,0.00011257797,0.0,0.0,-0.0
709140981,-0.019841319,-0.26601842,0.00018664467,0.0,0.0,-0.0
709146369,-0.019481583,-0.26624233,0.00026263145,0.0,0.0,-0.0
709151194,-0.019025058,-0.26648688,0.00015144584,0.0,0.0,-0.0
709156431,-0.01945351,-0.26620188,0.00010058341,0.0,0.0,-0.0
709161441,-0.020017289,-0.2659448,0.00017308048,0.0,0.0,-0.0
709167004,-0.01941199,-0.26604572,0.00022588014,0.0,0.0,-0.0
709171604,-0.01909582,-0.26615092,9.856606e-05,0.0,0.0,-0.0
709176723,-0.019748492,-0.2659975,6.79803e-05,0.0,0.0,-0.0
709181756,-0.019876096,-0.26601776,0.00024742231,0.0,0.0,-0.0
709186881,-0.019243384,-0.26617226,0.00027973787,0.0,0.0,-0.0
709192033,-0.019298628,-0.2660928,7.395229e-05,0.0,0.0,-0.0
709197756,-0.019824138,-0.26595977,5.8425925e-05,0.0,0.0,-0.0
709202080,-0.019668953,-0.26589224,0.00030206106,0.0,0.0,-0.0
709227473,-0.019406816,-0.26588073,0.00018853474,0.0,0.0,-0.0
709232863,-0.019748868,-0.2659431,-4.2544248e-06,0.0,0.0,-0.0
709237816,-0.019793516,-0.2662107,0.00012678248,0.0,0.0,-0.0
709242626,-0.019641498,-0.26614803,0.00033491495,0.0,0.0,-0.0
709247975,-0.019687029,-0.26584658,0.000120976285,0.0,0.0,-0.0
709252762,-0.019743923,-0.2659248,3.1832114e-05,0.0,0.0,-0.0
709257992,-0.019584795,-0.26607594,0.00021875728,0.0,0.0,-0.0
709263372,-0.019640667,-0.2658925,0.0002958039,0.0,0.0,-0.0
709268208,-0.019684473,-0.26570925,0.00010157375,0.0,0.0,-0.0
709283352,-0.019739114,-0.26578522,0.00021444252,0.0,0.0,-0.0
709288380,-0.019563522,-0.26560983,7.885119e-05,0.0,0.0,-0.0
709293341,-0.019395517,-0.26579934,0.0001506624,0.0,0.0,-0.0
709299135,-0.019702889,-0.26590332,0.00022912203,0.0,0.0,-0.0
709303411,-0.01978909,-0.26565307,0.00013123587,0.0,0.0,-0.0
709308719,-0.019531453,-0.26561925,0.00011785269,0.0,0.0,-0.0
709313996,-0.019546695,-0.2658214,0.00016802142,0.0,0.0,-0.0
709318879,-0.019870624,-0.2659063,0.00018026009,0.0,0.0,-0.0
709344134,-0.019436434,-0.26550356,0.0001252192,0.0,0.0,-0.0
709349402,-0.019473486,-0.26539442,0.00021287373,0.0,0.0,-0.0
709354563,-0.019632854,-0.26563883,0.00019433872,0.0,0.0,-0.0
709359517,-0.019442258,-0.26578355,0.00017183428,0.0,0.0,-0.0
709364721,-0.019234989,-0.2654297,0.00014635197,0.0,0.0,-0.0
709369590,-0.01951584,-0.2651956,0.00018101727,0.0,0.0,-0.0
709374695,-0.019495223,-0.26550344,8.309532e-05,0.0,0.0,-0.0
709379639,-0.019079654,-0.2655113,0.00017066693,0.0,0.0,-0.0
709384629,-0.0191554,-0.26507348,0.00017650214,0.0,0.0,-0.0
709389860,-0.019505661,-0.26498887,0.00016982801,0.0,0.0,-0.0
709394841,-0.019232532,-0.2654065,0.00016607303,0.0,0.0,-0.0
709400103,-0.018916216,-0.2654901,0.00016141098,0.0,0.0,-0.0
709405120,-0.01935325,-0.26515046,0.000102523474,0.0,0.0,-0.0
709410207,-0.01952219,-0.2649723,0.00019207173,0.0,0.0,-0.0
709415445,-0.019077638,-0.2651844,0.00021946992,0.0,0.0,-0.0
709420314,-0.018960863,-0.2650708,0.00013141328,0.0,0.0,-0.0
709425469,-0.019565385,-0.26476395,0.000116152645,0.0,0.0,-0.0
709430836,-0.019490957,-0.2647959,0.0001850543,0.0,0.0,-0.0
709435702,-0.018980313,-0.26515004,0.00022730022,0.0,0.0,-0.0
709440854,-0.01906222,-0.26514286,6.0285256e-05,0.0,0.0,-0.0
709445674,-0.019542977,-0.26491386,9.0112226e-05,0.0,0.0,-0.0
709450842,-0.019373288,-0.26494408,0.00029708378,0.0,0.0,-0.0
709455688,-0.018987501,-0.26510152,0.0002560473,0.0,0.0,-0.0
709461181,-0.019293161,-0.2649135,-2.9555522e-05,0.0,0.0,-0.0
709465836,-0.01949013,-0.26467478,9.164779e-05,0.0,0.0,-0.0
709471595,-0.01919671,-0.26473176,0.0002468887,0.0,0.0,-0.0
709501657,-0.019307833,-0.26470953,-6.777264e-05,0.0,0.0,-0.0
709506588,-0.019442888,-0.26462603,0.00025062927,0.0,0.0,-0.0
709511752,-0.019497873,-0.26458982,0.00029544206,0.0,0.0,-0.0
709516764,-0.019273527,-0.26465935,0.00010454409,0.0,0.0,-0.0
709521973,-0.01929922,-0.26467952,-1.7238362e-05,0.0,0.0,-0.0
709527021,-0.019586649,-0.2645633,0.00028804792,0.0,0.0,-0.0
709532603,-0.019626722,-0.26462764,0.000228301,0.0,0.0,-0.0
709537124,-0.019266961,-0.26461124,3.4388944e-05,0.0,0.0,-0.0
709547121,-0.019618386,-0.26454058,0.00025492004,0.0,0.0,-0.0
709552363,-0.019481633,-0.2644809,0.00021310132,0.0,0.0,-0.0
709557348,-0.019059295,-0.26444426,3.357294e-05,0.0,0.0,-0.0
709562676,-0.019294895,-0.26452005,0.00015475444,0.0,0.0,-0.0
709567585,-0.019667314,-0.26458716,0.000246055,0.0,0.0,-0.0
709572694,-0.019268794,-0.26445597,0.00019715814,0.0,0.0,-0.0
709577861,-0.019049924,-0.2643382,8.241559e-05,0.0,0.0,-0.0
709582836,-0.019521112,-0.2644892,0.00019504677,0.0,0.0,-0.0
709608154,-0.019344164,-0.26439965,0.00023418565,0.0,0.0,-0.0
709613549,-0.019041855,-0.26411626,0.00018661353,0.0,0.0,-0.0
709618216,-0.019262528,-0.26423532,0.00013602454,0.0,0.0,-0.0
709623248,-0.019489944,-0.26452097,0.00015203441,0.0,0.0,-0.0
709628389,-0.019215243,-0.2643333,0.00018263147,0.0,0.0,-0.0
709633896,-0.019129047,-0.26391032,0.00016856004,0.0,0.0,-0.0
709638550,-0.019449074,-0.26396534,8.229868e-05,0.0,0.0,-0.0
709643718,-0.019332785,-0.2642113,0.00018602874,0.0,0.0,-0.0
709648756,-0.019092822,-0.2640314,0.00022618737,0.0,0.0,-0.0
709674144,-0.019398557,-0.26387632,0.00013992265,0.0,0.0,-0.0
709679315,-0.019275025,-0.26399896,0.00015211276,0.0,0.0,-0.0
709684491,-0.018904027,-0.26412773,0.00015821175,0.0,0.0,-0.0
709689516,-0.019140046,-0.26391762,0.00017491444,0.0,0.0,-0.0
709694999,-0.019428276,-0.26375648,8.567949e-05,0.0,0.0,-0.0
709699386,-0.01915933,-0.2639616,0.00022818355,0.0,0.0,-0.0
709704523,-0.018866405,-0.2641234,0.000183437,0.0,0.0,-0.0
709709550,-0.019140897,-0.26397085,8.462946e-05,0.0,0.0,-0.0
709724930,-0.018943336,-0.26400173,0.00014868092,0.0,0.0,-0.0
709730240,-0.019079514,-0.2638937,2.2320337e-05,0.0,0.0,-0.0
709735058,-0.01905222,-0.26370955,0.00016882826,0.0,0.0,-0.0
709740105,-0.018859273,-0.26382953,0.00028043863,0.0,0.0,-0.0
709745167,-0.018892948,-0.26399192,9.588282e-05,0.0,0.0,-0.0
709750207,-0.019031234,-0.2636977,1.7429922e-05,0.0,0.0,-0.0
709755820,-0.019074654,-0.26347646,0.00027098897,0.0,0.0,-0.0
709760369,-0.018989233,-0.26369524,0.00026301664,0.0,0.0,-0.0
709790714,-0.018890215,-0.26355627,0.00011879161,0.0,0.0,-0.0
709796438,-0.019167356,-0.26351658,0.00027459458,0.0,0.0,-0.0
709800921,-0.018903939,-0.2637044,0.00019525163,0.0,0.0,-0.0
709806237,-0.01861338,-0.2636012,8.6627e-05,0.0,0.0,-0.0
709811039,-0.018962877,-0.26342368,0.00012526427,0.0,0.0,-0.0
709816296,-0.019161586,-0.26348287,0.0002593548,0.0,0.0,-0.0
709821336,-0.018764636,-0.2634386,0.00010104814,0.0,0.0,-0.0
709826434,-0.018622847,-0.26335374,8.2947925e-05,0.0,0.0,-0.0
709831821,-0.019136995,-0.2634367,0.0001457851,0.0,0.0,-0.0
709836736,-0.019173201,-0.26347572,0.0003090885,0.0,0.0,-0.0
709841604,-0.018699404,-0.26347348,0.00013119653,0.0,0.0,-0.0
709846950,-0.018837973,-0.2634702,6.454755e-05,0.0,0.0,-0.0
709851834,-0.019343637,-0.26347828,9.856312e-05,0.0,0.0,-0.0
709857016,-0.019211652,-0.26327327,0.00028721968,0.0,0.0,-0.0
709862229,-0.018817665,-0.26301482,0.00012095917,0.0,0.0,-0.0
709867476,-0.018997842,-0.2630814,8.799315e-05,0.0,0.0,-0.0
709872228,-0.019355636,-0.26321748,0.00017867392,0.0,0.0,-0.0
709877214,-0.01908072,-0.26306304,0.00024655196,0.0,0.0,-0.0
709882236,-0.018821303,-0.26304558,0.00014329524,0.0,0.0,-0.0
709887418,-0.019099252,-0.2632538,4.0883053e-05,0.0,0.0,-0.0
709892406,-0.01922642,-0.26325148,0.00017913,0.0,0.0,-0.0
709898580,-0.01898013,-0.2629427,0.00026296897,0.0,0.0,-0.0
709902501,-0.018970003,-0.262856,0.00016993668,0.0,0.0,-0.0
709907768,-0.019111572,-0.26312968,3.099258e-05,0.0,0.0,-0.0
709912638,-0.019136172,-0.26310727,0.00019417437,0.0,0.0,-0.0
709917975,-0.019021278,-0.26288745,0.00023495272,0.0,0.0,-0.0
709922850,-0.019052567,-0.2629783,0.00012709928,0.0,0.0,-0.0
709928079,-0.019123824,-0.26318073,6.366778e-05,0.0,0.0,-0.0
709933504,-0.01905537,-0.2630963,0.00026627915,0.0,0.0,-0.0
709938190,-0.019071922,-0.26294354,0.00020207699,0.0,0.0,-0.0
709943048,-0.019083321,-0.2627897,5.8671118e-05,0.0,0.0,-0.0
709948152,-0.01901853,-0.26287806,5.713689e-05,0.0,0.0,-0.0
709953465,-0.019086933,-0.2628866,0.00023766403,0.0,0.0,-0.0
709958485,-0.019171475,-0.26278722,0.00016595093,0.0,0.0,-0.0
709963362,-0.019054532,-0.26276016,0.00011437275,0.0,0.0,-0.0
709968913,-0.019021446,-0.26292023,0.00017522936,0.0,0.0,-0.0
709973603,-0.01917947,-0.26308733,0.00025240873,0.0,0.0,-0.0
709978783,-0.019267473,-0.2628431,4.682011e-05,0.0,0.0,-0.0
709983721,-0.019133912,-0.2625177,8.059383e-05,0.0,0.0,-0.0
709988858,-0.019160496,-0.26269436,0.00018014904,0.0,0.0,-0.0
709994113,-0.019094402,-0.26293483,0.00020465393,0.0,0.0,-0.0
709999378,-0.01903279,-0.26260814,0.000100615376,0.0,0.0,-0.0
710003981,-0.019084288,-0.26242772,0.00017361557,0.0,0.0,-0.0
710009277,-0.019114647,-0.26289225,0.00021043792,0.0,0.0,-0.0
710014318,-0.01901643,-0.26305935,7.539955e-05,0.0,0.0,-0.0
710019438,-0.01894017,-0.26245505,8.730697e-05,0.0,0.0,-0.0
710024365,-0.018997002,-0.26232198,0.00016913732,0.0,0.0,-0.0
710029345,-0.019073337,-0.2627275,0.00024268209,0.0,0.0,-0.0
710034446,-0.018904835,-0.26260835,0.00011326868,0.0,0.0,-0.0
710039928,-0.019134888,-0.26220828,0.00014394787,0.0,0.0,-0.0
710044581,-0.019334838,-0.2624168,0.00016728739,0.0,0.0,-0.0
710049861,-0.019090831,-0.26291046,0.00018490384,0.0,0.0,-0.0
710055029,-0.018868357,-0.26269126,7.21765e-05,0.0,0.0,-0.0
710059947,-0.019218752,-0.2622641,0.00019433383,0.0,0.0,-0.0
710065194,-0.019306073,-0.26246437,0.00024167847,0.0,0.0,-0.0
710070017,-0.018879108,-0.26265746,0.00016634533,0.0,0.0,-0.0
710075219,-0.018906323,-0.26236144,3.2356187e-05,0.0,0.0,-0.0
710080216,-0.019392263,-0.2623137,0.00015667308,0.0,0.0,-0.0
710085246,-0.019314509,-0.26261553,0.00021855789,0.0,0.0,-0.0
710090402,-0.018866586,-0.26267558,0.00016131953,0.0,0.0,-0.0
710095749,-0.019026011,-0.26248422,5.6349196e-05,0.0,0.0,-0.0
710100610,-0.019352421,-0.26246285,0.0001877725,0.0,0.0,-0.0
710105481,-0.019065423,-0.26252228,0.00024315405,0.0,0.0,-0.0
710110663,-0.01874588,-0.26243132,0.00013690526,0.0,0.0,-0.0
710115568,-0.019164693,-0.26242122,3.164067e-05,0.0,0.0,-0.0
710120899,-0.019509686,-0.26244164,0.00021714302,0.0,0.0,-0.0
710125738,-0.019231116,-0.26239347,0.00029142183,0.0,0.0,-0.0
710130931,-0.018936789,-0.26243082,7.0650865e-05,0.0,0.0,-0.0
710136319,-0.019173862,-0.26262173,6.0489856e-05,0.0,0.0,-0.0
710141124,-0.019303707,-0.26243216,0.00016124271,0.0,0.0,-0.0
710146233,-0.019080006,-0.26221758,0.0002871547,0.0,0.0,-0.0
710151435,-0.018995032,-0.2624086,8.3874125e-05,0.0,0.0,-0.0
710156302,-0.019269768,-0.262487,0.000106990585,0.0,0.0,-0.0
710161530,-0.019464536,-0.2621674,0.00022717283,0.0,0.0,-0.0
710166700,-0.019143153,-0.26216656,0.00027542457,0.0,0.0,-0.0
710171604,-0.018966334,-0.2624918,3.022179e-05,0.0,0.0,-0.0
710176788,-0.01928591,-0.2624229,0.00012202131,0.0,0.0,-0.0
710181864,-0.01950517,-0.2621436,0.00025158018,0.0,0.0,-0.0
710186819,-0.019297034,-0.2621855,0.00030325667,0.0,0.0,-0.0
710191841,-0.019219471,-0.26231828,-3.583707e-05,0.0,0.0,-0.0
710197156,-0.019451108,-0.26217726,9.842594e-05,0.0,0.0,-0.0
710202039,-0.01954862,-0.2621376,0.00026944067,0.0,0.0,-0.0
710207055,-0.019268561,-0.26231265,0.00024923566,0.0,0.0,-0.0
710212286,-0.019256594,-0.26223126,1.4709045e-05,0.0,0.0,-0.0
710217183,-0.019513138,-0.26214257,0.00015926264,0.0,0.0,-0.0
710222461,-0.019538006,-0.26219884,0.0002803448,0.0,0.0,-0.0
710227426,-0.019180557,-0.2621068,0.00013047444,0.0,0.0,-0.0
710233013,-0.019204406,-0.26181072,9.731817e-06,0.0,0.0,-0.0
710237688,-0.019510126,-0.26188916,0.00019433965,0.0,0.0,-0.0
710242749,-0.019511975,-0.26206484,0.0003071942,0.0,0.0,-0.0
710247754,-0.019291505,-0.26185113,9.812463e-05,0.0,0.0,-0.0
710252901,-0.019359643,-0.2618612,6.0080944e-05,0.0,0.0,-0.0
710257984,-0.019493617,-0.262358,0.00017670036,0.0,0.0,-0.0
710263069,-0.019391721,-0.2624038,0.00024512937,0.0,0.0,-0.0
710268062,-0.019472647,-0.26180774,8.7226974e-05,0.0,0.0,-0.0
710272970,-0.019575804,-0.26173604,0.0001789922,0.0,0.0,-0.0
710278055,-0.019588498,-0.26217607,0.00017694505,0.0,0.0,-0.0
710283166,-0.019521475,-0.26201496,0.0001352269,0.0,0.0,-0.0
710288304,-0.01955051,-0.26153752,4.53522e-05,0.0,0.0,-0.0
710293381,-0.019618366,-0.26190218,0.00020840857,0.0,0.0,-0.0
710298814,-0.01954869,-0.26230568,0.00024937082,0.0,0.0,-0.0
710303580,-0.019492868,-0.2618685,0.0001396936,0.0,0.0,-0.0
710308554,-0.019624079,-0.26145142,0.00011161568,0.0,0.0,-0.0
710314038,-0.01960545,-0.26188844,0.00019030803,0.0,0.0,-0.0
710318759,-0.019440787,-0.26213136,0.00014737397,0.0,0.0,-0.0
710323864,-0.019419964,-0.26159012,6.388753e-05,0.0,0.0,-0.0
710328871,-0.019601371,-0.26144642,0.00016727892,0.0,0.0,-0.0
710334311,-0.019519152,-0.26189467,0.00025364087,0.0,0.0,-0.0
710339191,-0.01940916,-0.2618748,0.00018255215,0.0,0.0,-0.0
710344233,-0.019526154,-0.26151526,0.000118324184,0.0,0.0,-0.0
710349211,-0.019710632,-0.26157823,0.00018171448,0.0,0.0,-0.0
710354371,-0.019485785,-0.26173905,0.00018846526,0.0,0.0,-0.0
710359219,-0.01931806,-0.26162905,0.00012887974,0.0,0.0,-0.0
710364791,-0.019590415,-0.26143706,0.00011420349,0.0,0.0,-0.0
710369391,-0.019676864,-0.2615733,0.00024861825,0.0,0.0,-0.0
710374775,-0.019515932,-0.26165646,0.00014918434,0.0,0.0,-0.0
710379855,-0.019382408,-0.26164013,0.00012252113,0.0,0.0,-0.0
710384796,-0.019519478,-0.26167047,0.00011404735,0.0,0.0,-0.0
710389833,-0.01964809,-0.26147178,0.00022390598,0.0,0.0,-0.0
710394888,-0.019490607,-0.26142192,0.00016488093,0.0,0.0,-0.0
710399892,-0.01938743,-0.26165706,0.00011782367,0.0,0.0,-0.0
710405106,-0.019626215,-0.26156864,9.8056786e-05,0.0,0.0,-0.0
710410134,-0.019771641,-0.26121822,0.00025062298,0.0,0.0,-0.0
710415609,-0.019599516,-0.26137757,0.00018862402,0.0,0.0,-0.0
710420288,-0.01952505,-0.26170564,0.00010751665,0.0,0.0,-0.0
710425466,-0.01986673,-0.26143086,6.0531063e-05,0.0,0.0,-0.0
710430743,-0.020059045,-0.26109514,0.00023399945,0.0,0.0,-0.0
710435806,-0.019737674,-0.26143575,0.00019114782,0.0,0.0,-0.0
710440504,-0.019525837,-0.2616229,9.3982686e-05,0.0,0.0,-0.0
710445613,-0.01996503,-0.26122501,0.000112731956,0.0,0.0,-0.0
710450608,-0.020147188,-0.26104286,0.00025076745,0.0,0.0,-0.0
710455810,-0.019781655,-0.2614342,0.00017350192,0.0,0.0,-0.0
710460943,-0.019602783,-0.26139265,5.293301e-05,0.0,0.0,-0.0
710466493,-0.020042412,-0.26085725,0.00016136898,0.0,0.0,-0.0
710470983,-0.020037996,-0.2609303,0.00034016307,0.0,0.0,-0.0
710476116,-0.019603789,-0.26127446,0.00017669021,0.0,0.0,-0.0
710481139,-0.01976435,-0.26105157,-8.186356e-06,0.0,0.0,-0.0
710486292,-0.02023383,-0.26086614,0.00018840576,0.0,0.0,-0.0
710491303,-0.019970134,-0.2610366,0.00028732137,0.0,0.0,-0.0
710496803,-0.019627394,-0.26096186,0.0001345772,0.0,0.0,-0.0
710501606,-0.01991077,-0.26063445,8.211929e-06,0.0,0.0,-0.0
710506718,-0.020172898,-0.2607907,0.0002703068,0.0,0.0,-0.0
710521703,-0.019989545,-0.26069015,-9.845979e-06,0.0,0.0,-0.0
710526862,-0.020122625,-0.261002,0.00026865685,0.0,0.0,-0.0
710532338,-0.019970553,-0.26080605,0.00020708382,0.0,0.0,-0.0
710537292,-0.020021236,-0.26038405,8.086386e-05,0.0,0.0,-0.0
710542085,-0.02012347,-0.26065382,9.735105e-05,0.0,0.0,-0.0
710547389,-0.020099802,-0.2609494,0.0002894351,0.0,0.0,-0.0
710552243,-0.020005101,-0.26057345,0.00018003647,0.0,0.0,-0.0
710557525,-0.020020988,-0.2604382,8.000652e-05,0.0,0.0,-0.0
710577834,-0.020060087,-0.26031327,0.00012012518,0.0,0.0,-0.0
710582662,-0.02012207,-0.26077345,0.00016174577,0.0,0.0,-0.0
710587983,-0.020162862,-0.2605969,0.00022248072,0.0,0.0,-0.0
710592899,-0.02023942,-0.26025462,0.00018675908,0.0,0.0,-0.0
710598314,-0.020123761,-0.2604782,0.00014212418,0.0,0.0,-0.0
710602856,-0.020198856,-0.26070026,0.00018755985,0.0,0.0,-0.0
710608053,-0.020326685,-0.26039496,0.00018606562,0.0,0.0,-0.0
710613178,-0.020259662,-0.26018456,0.00016333847,0.0,0.0,-0.0
710618430,-0.02007075,-0.26031578,0.00012948533,0.0,0.0,-0.0
710623198,-0.02022813,-0.26035374,0.00013781658,0.0,0.0,-0.0
710628917,-0.020279566,-0.26020387,0.0001742469,0.0,0.0,-0.0
710633428,-0.020152954,-0.26016495,0.00021447663,0.0,0.0,-0.0
710638614,-0.020051692,-0.26021728,0.00013008137,0.0,0.0,-0.0
710643622,-0.020093853,-0.26022634,0.00018185785,0.0,0.0,-0.0
710648732,-0.020001149,-0.26030993,0.00016653488,0.0,0.0,-0.0
710653724,-0.019962875,-0.2600988,0.00018851571,0.0,0.0,-0.0
710658932,-0.02012501,-0.25981262,9.213133e-05,0.0,0.0,-0.0
710663850,-0.020137062,-0.25997382,0.00020393071,0.0,0.0,-0.0
710669692,-0.019849382,-0.26024678,0.00016221195,0.0,0.0,-0.0
710674027,-0.019975692,-0.2599213,0.0001530128,0.0,0.0,-0.0
710679139,-0.020208787,-0.25969598,0.00016586561,0.0,0.0,-0.0
710684137,-0.019987542,-0.26019362,0.000197982,0.0,0.0,-0.0
710689242,-0.01984721,-0.26029152,0.00017608548,0.0,0.0,-0.0
710694509,-0.020237418,-0.2596768,8.713734e-05,0.0,0.0,-0.0
710699844,-0.020256113,-0.2596531,0.00021646771,0.0,0.0,-0.0
710704422,-0.019801041,-0.26021704,0.00020534889,0.0,0.0,-0.0
710709746,-0.01983927,-0.2600199,0.00013346081,0.0,0.0,-0.0
710745114,-0.019683644,-0.26013777,0.00016973644,0.0,0.0,-0.0
710750358,-0.02014592,-0.25968155,-2.0340574e-06,0.0,0.0,-0.0
710755780,-0.020356143,-0.25964746,0.00019372153,0.0,0.0,-0.0
710760620,-0.019895053,-0.2600276,0.0003277883,0.0,0.0,-0.0
710765705,-0.019688813,-0.25999779,5.4640073e-05,0.0,0.0,-0.0
710770631,-0.020091388,-0.2597129,6.789058e-05,0.0,0.0,-0.0
710775443,-0.020214332,-0.25990218,0.00030743598,0.0,0.0,-0.0
710780681,-0.019849489,-0.2600892,0.00028311758,0.0,0.0,-0.0
710790868,-0.020174952,-0.26001412,5.5283155e-05,0.0,0.0,-0.0
710796183,-0.020154072,-0.2601424,0.00030633603,0.0,0.0,-0.0
710800970,-0.019830542,-0.2598454,0.00022554946,0.0,0.0,-0.0
710805985,-0.019903556,-0.25970793,-1.0478287e-05,0.0,0.0,-0.0
710811186,-0.020023003,-0.2600148,0.0001463431,0.0,0.0,-0.0
710816125,-0.020042455,-0.2600001,0.00030567343,0.0,0.0,-0.0
710821362,-0.01993265,-0.2596829,9.311377e-05,0.0,0.0,-0.0
710826438,-0.019946367,-0.25985703,2.9348103e-05,0.0,0.0,-0.0
710856667,-0.020289196,-0.25967124,0.00027295883,0.0,0.0,-0.0
710862504,-0.019880382,-0.25967786,0.00018246452,0.0,0.0,-0.0
710866876,-0.019731194,-0.25995567,0.00012678932,0.0,0.0,-0.0
710872684,-0.020134293,-0.2597696,0.00012458165,0.0,0.0,-0.0
710877158,-0.020243274,-0.2595056,0.00021740403,0.0,0.0,-0.0
710882314,-0.019843562,-0.25964284,0.00012943045,0.0,0.0,-0.0
710887272,-0.019900803,-0.25979674,0.000119339136,0.0,0.0,-0.0
710892512,-0.020271273,-0.25962573,0.000110940535,0.0,0.0,-0.0
710922856,-0.01998474,-0.25936496,0.00017579268,0.0,0.0,-0.001
710927776,-0.020297576,-0.25934604,0.00011579606,0.0,0.0,-0.001
710933186,-0.020141985,-0.25969562,0.00018762659,0.0,0.0,-0.001
710937883,-0.019825615,-0.25961965,0.00022033455,0.0,0.0,-0.001
710943078,-0.02015522,-0.2590992,0.00013806361,0.0,0.0,-0.001
710948135,-0.02034089,-0.259276,9.039743e-05,0.0,0.0,-0.001
710953587,-0.020011546,-0.25987342,0.00019269952,0.0,0.0,-0.001
710983701,-0.020251255,-0.25896883,-1.8620383e-05,0.0,0.0,-0.001
710988749,-0.019866541,-0.25951976,3.5319106e-05,0.0,0.0,-0.001
710994136,-0.019644774,-0.25968018,5.510774e-05,0.0,0.0,-0.001
710999420,-0.019954152,-0.25914758,6.5621614e-05,0.0,0.0,-0.001
711003962,-0.020075543,-0.25908598,0.00014376055,0.0,0.0,-0.001
711008969,-0.01975963,-0.25953472,0.00025148492,0.0,0.0,-0.001
711014382,-0.019819906,-0.2593276,0.00016677986,0.0,0.0,-0.001
711019297,-0.02014393,-0.25902805,8.497107e-05,0.0,0.0,-0.001
711024357,-0.019971393,-0.25924915,0.00019164535,0.0,0.0,-0.001
711029645,-0.019758487,-0.2594392,0.00021958348,0.0,0.0,-0.001
711044597,-0.019694561,-0.25928745,0.00026606908,0.0,0.0,-0.001
711049725,-0.019585954,-0.2592754,0.00018698385,0.0,0.0,-0.001
711054945,-0.019492477,-0.2592969,4.9091504e-05,0.0,0.0,-0.001
711059846,-0.019683259,-0.25929436,0.0001235043,0.0,0.0,-0.001
711065254,-0.019842476,-0.2590169,0.00026962132,0.0,0.0,-0.001
711069939,-0.019692933,-0.25915605,0.00031232665,0.0,0.0,-0.001
711075131,-0.019517584,-0.25942606,0.00021629187,0.0,0.0,-0.001
711080322,-0.01978093,-0.2592026,0.0001975983,0.0,0.0,-0.001
711085187,-0.019886574,-0.25897864,0.00015989447,0.0,0.0,-0.001
711090176,-0.019490682,-0.25931093,0.00017222637,0.0,0.0,-0.001
711095605,-0.019386182,-0.25937992,9.492936e-05,0.0,0.0,-0.001
711100408,-0.01992984,-0.25888836,7.493825e-05,0.0,0.0,-0.001
711105528,-0.019921532,-0.2589186,0.00019788643,0.0,0.0,-0.001
711110422,-0.01933525,-0.25936258,0.00021956468,0.0,0.0,-0.001
711115947,-0.019503275,-0.2592977,5.527257e-05,0.0,0.0,-0.001
711120623,-0.020006105,-0.25903538,8.2414364e-05,0.0,0.0,-0.001
711125852,-0.019764539,-0.25920978,0.00027497255,0.0,0.0,-0.001
711140964,-0.020124536,-0.25884447,0.000119475066,0.0,0.0,-0.001
711146205,-0.019544821,-0.25907263,0.00029745194,0.0,0.0,-0.001
711151122,-0.019330537,-0.25889984,0.00016919081,0.0,0.0,-0.001
711156526,-0.019778885,-0.25882646,4.1485655e-05,0.0,0.0,-0.001
711161620,-0.019689199,-0.25902,0.00022029932,0.0,0.0,-0.001
711166605,-0.019331127,-0.25894085,0.0002727719,0.0,0.0,-0.001
711171429,-0.019444957,-0.2586385,8.4616244e-05,0.0,0.0,-0.001
711176887,-0.019612473,-0.25887468,9.042952e-05,0.0,0.0,-0.001
711181518,-0.019453354,-0.25913757,0.00021630144,0.0,0.0,-0.001
711191725,-0.019520722,-0.25868186,0.00012681627,0.0,0.0,-0.001
711196980,-0.019471921,-0.25908104,0.00019109709,0.0,0.0,-0.001
711202525,-0.019494928,-0.2590089,0.00027764382,0.0,0.0,-0.001
711207168,-0.01960074,-0.25849295,0.0001101719,0.0,0.0,-0.001
711212102,-0.019462427,-0.25860426,1.7512186e-05,0.0,0.0,-0.001
711217418,-0.019414596,-0.25894544,0.000112412345,0.0,0.0,-0.001
711222243,-0.019584604,-0.25867948,0.00012876366,0.0,0.0,-0.001
711227557,-0.019545708,-0.2583929,5.4432112e-05,0.0,0.0,-0.001
711232917,-0.019239545,-0.25862357,6.4114897e-06,0.0,0.0,-0.001
711237691,-0.019363053,-0.25871465,0.00021895955,0.0,0.0,-0.001
711242734,-0.019562168,-0.25831896,0.00018902494,0.0,0.0,-0.001
711247722,-0.019317392,-0.25818798,0.00019454477,0.0,0.0,-0.001
711252700,-0.01921585,-0.2583958,0.00018649263,0.0,0.0,-0.001
711257786,-0.019488966,-0.25850758,0.00018606597,0.0,0.0,-0.001
711262719,-0.019419784,-0.2584518,0.00014132305,0.0,0.0,-0.001
711268569,-0.019123621,-0.2583573,0.0001722908,0.0,0.0,-0.001
711273030,-0.019358441,-0.2583952,0.00014684143,0.0,0.0,-0.001
711293525,-0.019605773,-0.25806177,0.00012872522,0.0,0.0,-0.001
711298448,-0.019388186,-0.25848636,0.00015406455,0.0,0.0,-0.001
711303712,-0.019136885,-0.2584843,0.00018995779,0.0,0.0,-0.001
711308625,-0.019568227,-0.2580329,0.00016887594,0.0,0.0,-0.001
711313578,-0.019765822,-0.25806347,0.00018075784,0.0,0.0,-0.001
711318886,-0.019198656,-0.25848228,0.00018304643,0.0,0.0,-0.001
711323830,-0.019197717,-0.25818714,0.00019099619,0.0,0.0,-0.001
711328955,-0.019717306,-0.25771672,8.386612e-05,0.0,0.0,-0.001
711364597,-0.019561747,-0.25797144,-2.8821121e-05,0.0,0.0,-0.001
711369521,-0.019588467,-0.25789762,3.5755787e-05,0.0,0.0,-0.001
711374752,-0.019179812,-0.25829414,0.00013304618,0.0,0.0,-0.001
711379771,-0.019225746,-0.2582793,3.650959e-05,0.0,0.0,-0.001
711384614,-0.019513605,-0.2580487,-8.7926455e-05,0.0,0.0,-0.001
711389779,-0.01938977,-0.25820133,0.00013265123,0.0,0.0,-0.001
711395052,-0.0191876,-0.25822982,0.0001824598,0.0,0.0,-0.001
711399965,-0.019324658,-0.25812358,5.744014e-06,0.0,0.0,-0.001
711405113,-0.019526744,-0.25807157,-3.0493593e-05,0.0,0.0,-0.001
711410091,-0.019465413,-0.25811428,0.00012540286,0.0,0.0,-0.001
711415039,-0.019340334,-0.25797385,5.545689e-05,0.0,0.0,-0.001
711420168,-0.01931735,-0.25810352,4.3211694e-05,0.0,0.0,-0.001
711425147,-0.019422099,-0.25825366,1.582075e-05,0.0,0.0,-0.001
711430901,-0.019648863,-0.25810063,0.00018951132,0.0,0.0,-0.001
711435275,-0.01951552,-0.25801796,0.00010142271,0.0,0.0,-0.001
711440831,-0.019166658,-0.25824538,7.848133e-05,0.0,0.0,-0.001
711445512,-0.01944011,-0.2580853,7.957255e-05,0.0,0.0,-0.001
711450841,-0.01978389,-0.25780085,0.00016493157,0.0,0.0,-0.001
711455946,-0.01928837,-0.25793898,0.00017223966,0.0,0.0,-0.001
711460861,-0.019069986,-0.2580615,0.00011525331,0.0,0.0,-0.001
711465964,-0.019731011,-0.25786963,0.0001000395,0.0,0.0,-0.001
711471024,-0.019806147,-0.25771177,0.00018658843,0.0,0.0,-0.001
711476165,-0.019193104,-0.25791314,0.00022233362,0.0,0.0,-0.001
711481251,-0.019257221,-0.25790966,5.6740857e-05,0.0,0.0,-0.001
711486301,-0.019815594,-0.25785154,2.1345113e-05,0.0,0.0,-0.001
711491350,-0.019467343,-0.25782403,0.00016993341,0.0,0.0,-0.001
711496812,-0.019012181,-0.25774038,0.00018589388,0.0,0.0,-0.001
711501376,-0.019494448,-0.2576468,-3.0464494e-06,0.0,0.0,-0.001
711506407,-0.019849302,-0.2577257,1.122572e-05,0.0,0.0,-0.001
711511530,-0.019336937,-0.25784573,0.00014455398,0.0,0.0,-0.001
711516539,-0.019294553,-0.25764647,0.00014181696,0.0,0.0,-0.001
711522251,-0.01974009,-0.25770283,2.595757e-05,0.0,0.0,-0.001
711526727,-0.019600522,-0.25798038,0.00014979274,0.0,0.0,-0.001
711532472,-0.019386038,-0.25776806,0.00021113898,0.0,0.0,-0.001
711536883,-0.019621415,-0.25752473,9.908042e-05,0.0,0.0,-0.001
711542210,-0.019693326,-0.25777408,0.000106468215,0.0,0.0,-0.001
711547156,-0.01947657,-0.25807476,0.00023293651,0.0,0.0,-0.001
711552342,-0.019521723,-0.25766313,0.00021473848,0.0,0.0,-0.001
711557445,-0.01982054,-0.2575294,8.98089e-05,0.0,0.0,-0.001
711562486,-0.019604914,-0.25792998,0.00014806926,0.0,0.0,-0.001
711567790,-0.019442327,-0.25799847,0.00028811378,0.0,0.0,-0.001
711572938,-0.019772507,-0.2576166,0.00021890807,0.0,0.0,-0.001
711577637,-0.019842928,-0.25764236,0.00016885037,0.0,0.0,-0.001
711582687,-0.019582883,-0.25811586,0.00021634907,0.0,0.0,-0.001
711587622,-0.01969612,-0.25809214,0.00023051727,0.0,0.0,-0.001
711592773,-0.019921772,-0.25773025,9.8774544e-05,0.0,0.0,-0.001
711598218,-0.019701624,-0.25780264,0.00014366567,0.0,0.0,-0.001
711602918,-0.01966176,-0.2580784,0.00018897181,0.0,0.0,-0.001
711608004,-0.019896084,-0.2579489,8.20392e-05,0.0,0.0,-0.001
711613130,-0.0197705,-0.25773954,5.877263e-05,0.0,0.0,-0.001
711618143,-0.019634707,-0.25787106,0.00013846293,0.0,0.0,-0.001
711623285,-0.019833645,-0.2580934,0.00012937844,0.0,0.0,-0.001
711628311,-0.019824019,-0.25803292,2.4975097e-05,0.0,0.0,-0.001
711633898,-0.019723656,-0.2578137,3.183412e-05,0.0,0.0,-0.001
711638503,-0.01994589,-0.25776535,0.00011440905,0.0,0.0,-0.001
711643607,-0.020007312,-0.25791916,0.00013493598,0.0,0.0,-0.001
711648721,-0.019718291,-0.2578968,4.3959244e-05,0.0,0.0,-0.001
711653773,-0.019907283,-0.25759494,8.144104e-05,0.0,0.0,-0.001
711658819,-0.020198852,-0.25753975,0.00012285181,0.0,0.0,-0.001
711663854,-0.019855937,-0.2578324,0.00019355962,0.0,0.0,-0.001
711669186,-0.01955123,-0.25774553,0.00015264268,0.0,0.0,-0.001
711674347,-0.019981248,-0.25730664,0.00011416002,0.0,0.0,-0.001
711679114,-0.02019595,-0.25732186,0.00012435229,0.0,0.0,-0.001
711684218,-0.019601965,-0.25763056,0.00022121552,0.0,0.0,-0.001
711689179,-0.019646678,-0.25755835,0.00018149352,0.0,0.0,-0.001
711694317,-0.020341082,-0.25732094,0.00017323764,0.0,0.0,-0.001
711699432,-0.0201423,-0.25748372,0.00024487503,0.0,0.0,-0.001
711704835,-0.019530743,-0.2577702,0.00013713194,0.0,0.0,-0.001
711709799,-0.0199305,-0.25759256,1.796407e-05,0.0,0.0,-0.001
711714644,-0.020279279,-0.25736552,1.7019573e-05,0.0,0.0,-0.001
711719666,-0.019779319,-0.25754735,0.00015612083,0.0,0.0,-0.001
711724794,-0.019528892,-0.25764006,0.000101376194,0.0,0.0,-0.001
711730134,-0.020108921,-0.25747433,-5.6817156e-05,0.0,0.0,-0.001
711735061,-0.020193039,-0.25748464,2.0840407e-05,0.0,0.0,-0.001
711739931,-0.019721609,-0.2576102,0.00021551893,0.0,0.0,-0.001
711745031,-0.019766776,-0.25762182,6.7647794e-05,0.0,0.0,-0.001
711750059,-0.020137662,-0.25756237,-3.665564e-05,0.0,0.0,-0.001
711755591,-0.020066421,-0.25750682,5.457027e-05,0.0,0.0,-0.001
711760200,-0.019917715,-0.25741616,0.0001333208,0.0,0.0,-0.001
711765793,-0.020104762,-0.25746128,-2.5530679e-05,0.0,0.0,-0.001
711770615,-0.020174615,-0.2575922,-5.963073e-05,0.0,0.0,-0.001
711775561,-0.02012661,-0.25753427,3.915208e-05,0.0,0.0,-0.001
711780572,-0.020125888,-0.2574598,8.777178e-05,0.0,0.0,-0.001
711785759,-0.020051148,-0.25756747,2.422131e-05,0.0,0.0,-0.001
711790695,-0.02007652,-0.25765154,4.137531e-05,0.0,0.0,-0.001
711796174,-0.02037767,-0.25749868,0.00014940581,0.0,0.0,-0.001
711821153,-0.020185798,-0.2572322,0.00015520999,0.0,0.0,-0.001
711826539,-0.020019347,-0.25738314,5.364164e-05,0.0,0.0,-0.001
711831445,-0.020525016,-0.25751194,7.859946e-05,0.0,0.0,-0.001
711836433,-0.020702457,-0.25748533,0.00015217779,0.0,0.0,-0.001
711841398,-0.020170812,-0.25733697,0.00015517506,0.0,0.0,-0.001
711846581,-0.020153102,-0.25738725,0.00011998069,0.0,0.0,-0.001
711851606,-0.02060587,-0.25747344,6.753113e-05,0.0,0.0,-0.001
711856806,-0.020428998,-0.25740632,0.00011818797,0.0,0.0,-0.001
711861862,-0.0200798,-0.25719577,0.0001747594,0.0,0.0,-0.001
711867153,-0.020448081,-0.25727102,0.00012061633,0.0,0.0,-0.001
711877389,-0.020212516,-0.25752288,0.00015899914,0.0,0.0,-0.001
711882391,-0.02012759,-0.25722393,0.00011941349,0.0,0.0,-0.001
711887470,-0.020425163,-0.25738534,9.2372225e-05,0.0,0.0,-0.001
711892340,-0.020205583,-0.25763333,0.00011479777,0.0,0.0,-0.001
711897928,-0.020026928,-0.25734216,0.00022058636,0.0,0.0,-0.001
711902439,-0.02035757,-0.2571218,9.722841e-05,0.0,0.0,-0.001
711907477,-0.020382209,-0.25742006,0.000101402264,0.0,0.0,-0.001
711912497,-0.019980334,-0.2576516,0.00013426896,0.0,0.0,-0.001
711917651,-0.020057958,-0.25733507,0.00016887016,0.0,0.0,-0.001
711922610,-0.020441452,-0.25718477,8.1284816e-05,0.0,0.0,-0.001
711942988,-0.020394105,-0.25708273,0.00011053865,0.0,0.0,-0.001
711948147,-0.020071978,-0.2572589,0.0001957525,0.0,0.0,-0.001
711953129,-0.0200032,-0.25743547,0.00017328259,0.0,0.0,-0.001
711958368,-0.020306101,-0.25718522,5.783691e-05,0.0,0.0,-0.001
711963309,-0.020265099,-0.25711834,0.00021843248,0.0,0.0,-0.001
711968807,-0.019902231,-0.25734803,0.00031120304,0.0,0.0,-0.001
711973465,-0.020006603,-0.25738728,0.00022116664,0.0,0.0,-0.001
711978744,-0.020234676,-0.2570357,0.00011581429,0.0,0.0,-0.001
711983695,-0.020192912,-0.25688162,0.0002938459,0.0,0.0,-0.001
711988817,-0.02004509,-0.25727352,0.0003340191,0.0,0.0,-0.001
711993639,-0.02010652,-0.25739923,0.00024278843,0.0,0.0,-0.001
711998984,-0.020190533,-0.25708315,0.0001562745,0.0,0.0,-0.001
712004078,-0.020231614,-0.25703725,0.00031650235,0.0,0.0,-0.001
712008981,-0.02011165,-0.2572965,0.0003174468,0.0,0.0,-0.001
712014024,-0.019961514,-0.2572516,0.00020150446,0.0,0.0,-0.001
712019117,-0.020130593,-0.25697136,0.00018977102,0.0,0.0,-0.001
712024213,-0.020373581,-0.25709414,0.00025799996,0.0,0.0,-0.001
712029428,-0.020123601,-0.2573053,0.00022280264,0.0,0.0,-0.001
712034627,-0.019922376,-0.257215,0.00014683185,0.0,0.0,-0.001
712039590,-0.020430397,-0.2570993,0.0001528509,0.0,0.0,-0.001
712044494,-0.020620806,-0.25713274,0.00025484496,0.0,0.0,-0.001
712049729,-0.020057019,-0.25723308,0.00016649734,0.0,0.0,-0.001
712054649,-0.019960176,-0.25712296,5.607309e-05,0.0,0.0,-0.001
712059891,-0.020598304,-0.2570265,6.591939e-05,0.0,0.0,-0.001
712065278,-0.020479577,-0.25691193,0.0002887248,0.0,0.0,-0.001
712070035,-0.019983562,-0.25684884,0.00028260966,0.0,0.0,-0.001
712075015,-0.020267343,-0.2568628,0.00015045346,0.0,0.0,-0.001
712080042,-0.020740561,-0.2570109,0.00015463216,0.0,0.0,-0.001
712084997,-0.020338276,-0.2570124,0.00025314992,0.0,0.0,-0.001
712090464,-0.019975614,-0.2570086,0.00024380055,0.0,0.0,-0.001
712115611,-0.020488953,-0.25686848,0.00010617168,0.0,0.0,-0.001
712120716,-0.020513942,-0.25682697,0.00018576888,0.0,0.0,-0.001
712125726,-0.020269603,-0.25669673,0.00025820715,0.0,0.0,-0.001
712131195,-0.020299328,-0.256781,0.00022758535,0.0,0.0,-0.001
712135847,-0.02029581,-0.25698385,3.8905087e-05,0.0,0.0,-0.001
712141187,-0.02022356,-0.2567854,0.00018080312,0.0,0.0,-0.001
712146057,-0.020306515,-0.25655586,0.00021107784,0.0,0.0,-0.001
712151290,-0.020303253,-0.25650412,9.105421e-05,0.0,0.0,-0.001
712156063,-0.020256696,-0.2565515,0.000104559156,0.0,0.0,-0.001
712161225,-0.020258453,-0.25665173,0.00023358398,0.0,0.0,-0.001
712166581,-0.020257039,-0.2566354,0.0002531676,0.0,0.0,-0.001
712171450,-0.02003299,-0.25665414,0.00016541433,0.0,0.0,-0.001
712176678,-0.02004587,-0.2567597,0.0001991381,0.0,0.0,-0.001
712181650,-0.020281224,-0.25679854,0.00026755172,0.0,0.0,-0.001
712186731,-0.020212311,-0.2565153,0.00018044247,0.0,0.0,-0.001
712191897,-0.020060338,-0.25623816,0.00012609572,0.0,0.0,-0.001
712197370,-0.020135017,-0.25654033,0.00019656924,0.0,0.0,-0.001
712212182,-0.020087238,-0.25637615,0.0002892441,0.0,0.0,-0.001
712217272,-0.0202978,-0.2569123,0.00016872851,0.0,0.0,-0.001
712222353,-0.020176848,-0.25681508,5.4474614e-05,0.0,0.0,-0.001
712227743,-0.020050516,-0.2563153,1.7680793e-05,0.0,0.0,-0.001
712232421,-0.020228766,-0.2564369,5.427462e-05,0.0,0.0,-0.001
712237737,-0.020139603,-0.25687826,0.00022933725,0.0,0.0,-0.001
712242507,-0.019869952,-0.25660735,0.00017991553,0.0,0.0,-0.001
712247492,-0.020073798,-0.25626296,0.00017587896,0.0,0.0,-0.001
712252704,-0.02026667,-0.25660664,0.00016191346,0.0,0.0,-0.001
712267927,-0.02031649,-0.25630134,0.00018642208,0.0,0.0,-0.001
712272990,-0.020350546,-0.25648755,0.00020994166,0.0,0.0,-0.001
712278025,-0.019888824,-0.25658113,0.00012493535,0.0,0.0,-0.001
712283210,-0.020028323,-0.25653005,7.178219e-05,0.0,0.0,-0.001
712288163,-0.020446224,-0.25651795,6.611609e-05,0.0,0.0,-0.001
712293342,-0.020167291,-0.25665736,0.00016406162,0.0,0.0,-0.001
712298660,-0.01976655,-0.25660178,0.0001503915,0.0,0.0,-0.001
712303476,-0.020109955,-0.25648093,6.914718e-05,0.0,0.0,-0.001
712308607,-0.020306334,-0.25633162,3.5887962e-05,0.0,0.0,-0.001
712318634,-0.019898873,-0.25644034,0.00011918812,0.0,0.0,-0.001
712323683,-0.020206777,-0.25643542,4.7394315e-05,0.0,0.0,-0.001
712328687,-0.020306163,-0.2560791,0.00010660588,0.0,0.0,-0.001
712334390,-0.0200268,-0.25616822,0.00024164554,0.0,0.0,-0.001
712338795,-0.019831201,-0.25647175,2.610701e-05,0.0,0.0,-0.001
712344033,-0.020001233,-0.2563559,-8.576494e-05,0.0,0.0,-0.001
712349173,-0.02009453,-0.2559426,-2.172902e-05,0.0,0.0,-0.001
712354419,-0.019895533,-0.25620008,0.0001352377,0.0,0.0,-0.001
712374827,-0.019994048,-0.2565387,0.00014691285,0.0,0.0,-0.001
712379551,-0.019787924,-0.25647572,3.440116e-06,0.0,0.0,-0.001
712384771,-0.020159256,-0.25613195,-2.833375e-05,0.0,0.0,-0.001
712389741,-0.02035412,-0.25620058,0.00014702964,0.0,0.0,-0.001
712395244,-0.019967392,-0.25642198,0.00012505049,0.0,0.0,-0.001
712399847,-0.01988376,-0.2563473,-1.3201807e-05,0.0,0.0,-0.001
712404848,-0.020226318,-0.2564525,-3.3567428e-06,0.0,0.0,-0.001
712409926,-0.020297017,-0.2567263,0.0001452121,0.0,0.0,-0.001
712415229,-0.019928932,-0.25658098,0.00015555054,0.0,0.0,-0.001
712420124,-0.020004757,-0.25631583,7.0817005e-05,0.0,0.0,-0.001
712425199,-0.020328796,-0.25655222,8.627878e-05,0.0,0.0,-0.001
712430208,-0.020256402,-0.25662902,0.00018999678,0.0,0.0,-0.001
712435772,-0.019852558,-0.2561744,0.000112380774,0.0,0.0,-0.001
712440512,-0.020033877,-0.25633833,0.00010193322,0.0,0.0,-0.001
712445639,-0.020382585,-0.25674346,0.00011749583,0.0,0.0,-0.001
712450563,-0.0203067,-0.25651404,0.00020659014,0.0,0.0,-0.001
712455711,-0.020111846,-0.25617656,0.00013350384,0.0,0.0,-0.001
712460761,-0.020245811,-0.25650632,7.538005e-05,0.0,0.0,-0.001
712466133,-0.02030623,-0.2566828,0.00014429018,0.0,0.0,-0.001
712480954,-0.020286636,-0.25636667,0.0001820228,0.0,0.0,-0.001
712486175,-0.020310735,-0.25642008,0.0001366763,0.0,0.0,-0.001
712491091,-0.02036019,-0.25611663,0.00017993138,0.0,0.0,-0.001
712496980,-0.020320024,-0.25623056,0.00012986244,0.0,0.0,-0.001
712501250,-0.020342367,-0.25642455,0.00012419614,0.0,0.0,-0.001
712506466,-0.020426586,-0.25622058,0.00019589908,0.0,0.0,-0.001
712511450,-0.02041137,-0.25602576,0.00024298282,0.0,0.0,-0.001
712516747,-0.020419784,-0.25602514,0.0001378238,0.0,0.0,-0.001
712532339,-0.02031375,-0.25633046,0.00018592096,0.0,0.0,-0.001
712537162,-0.02037275,-0.2560433,0.00016270795,0.0,0.0,-0.001
712541964,-0.020362958,-0.2560178,0.00018289364,0.0,0.0,-0.001
712547193,-0.020311328,-0.25628754,0.00021153758,0.0,0.0,-0.001
712552618,-0.020229032,-0.25606227,0.00012730598,0.0,0.0,-0.001
712557387,-0.02038138,-0.25562492,0.0001255813,0.0,0.0,-0.001
712562661,-0.020364745,-0.25586855,0.00015113826,0.0,0.0,-0.001
712567387,-0.020213718,-0.2562945,0.00018997789,0.0,0.0,-0.001
712572369,-0.02025627,-0.25584885,0.000108032,0.0,0.0,-0.001
712577583,-0.020431697,-0.2555147,0.00017576828,0.0,0.0,-0.001
712582556,-0.02030862,-0.25611538,0.00024016509,0.0,0.0,-0.001
712587706,-0.020049473,-0.25628427,0.0002292268,0.0,0.0,-0.001
712592664,-0.020258993,-0.25565207,0.00013986537,0.0,0.0,-0.001
712598350,-0.020526461,-0.25547552,0.0002304573,0.0,0.0,-0.001
712602876,-0.02028459,-0.25599462,0.00025537363,0.0,0.0,-0.001
712608032,-0.02012244,-0.2558922,0.0001652246,0.0,0.0,-0.001
712613244,-0.0205128,-0.25540406,7.80048e-05,0.0,0.0,-0.001
712618167,-0.020627582,-0.25557864,0.00026251894,0.0,0.0,-0.001
712623291,-0.020177038,-0.25597665,0.00029200752,0.0,0.0,-0.001
712628352,-0.020225532,-0.25564212,0.00013502604,0.0,0.0,-0.001
712633803,-0.020665359,-0.25540182,0.00012328976,0.0,0.0,-0.001
712638582,-0.020547383,-0.2556865,0.0003146277,0.0,0.0,-0.001
712643409,-0.020150471,-0.25571385,0.00030334076,0.0,0.0,-0.001
712648810,-0.02021379,-0.25558496,0.00010479003,0.0,0.0,-0.001
712653807,-0.020600291,-0.25567117,0.00012806484,0.0,0.0,-0.001
712658760,-0.020479554,-0.255805,0.00029867768,0.0,0.0,-0.001
712664102,-0.02022395,-0.25555345,0.00030026608,0.0,0.0,-0.001
712689211,-0.020293599,-0.25566974,6.925944e-05,0.0,0.0,-0.001
712694208,-0.020580107,-0.25550115,0.00018223206,0.0,0.0,-0.001
712699422,-0.020568082,-0.2551843,0.00019335921,0.0,0.0,-0.001
712704405,-0.020320382,-0.25548825,0.0001584067,0.0,0.0,-0.001
712709558,-0.020390706,-0.25567415,4.9012047e-05,0.0,0.0,-0.001
712714925,-0.02068742,-0.25514534,0.00010117026,0.0,0.0,-0.001
712719777,-0.020539077,-0.25502962,0.00025948734,0.0,0.0,-0.001
712724712,-0.020218864,-0.2553171,0.00022632121,0.0,0.0,-0.001
712744864,-0.02019594,-0.25542548,0.0001364718,0.0,0.0,-0.001
712750145,-0.020561859,-0.25518575,-3.2597086e-06,0.0,0.0,-0.001
712755393,-0.020804124,-0.25512508,0.00012821605,0.0,0.0,-0.001
712760347,-0.020470422,-0.2552827,0.0003067366,0.0,0.0,-0.001
712765564,-0.02039112,-0.2550286,0.00014517986,0.0,0.0,-0.001
712770404,-0.020733835,-0.2550631,0.000110472014,0.0,0.0,-0.001
712775458,-0.02070477,-0.2553703,0.00021056751,0.0,0.0,-0.001
712780586,-0.020517072,-0.255101,0.00020013892,0.0,0.0,-0.001
712785567,-0.020684006,-0.25482637,4.146376e-05,0.0,0.0,-0.001
712790696,-0.020830074,-0.25529647,0.0001078014,0.0,0.0,-0.001
712815936,-0.020535503,-0.25538707,7.085965e-05,0.0,0.0,-0.001
712821069,-0.020614462,-0.25481927,0.000111252346,0.0,0.0,-0.001
712826145,-0.020781472,-0.25503993,0.00010558544,0.0,0.0,-0.001
712831829,-0.020598518,-0.2555835,0.00022845656,0.0,0.0,-0.001
712836448,-0.020664088,-0.25513875,0.00012891297,0.0,0.0,-0.001
712841641,-0.020768568,-0.25467834,6.0535218e-05,0.0,0.0,-0.001
712846524,-0.020644236,-0.25508806,6.3129206e-05,0.0,0.0,-0.001
712851815,-0.020588575,-0.25531036,7.7748555e-05,0.0,0.0,-0.001
712856621,-0.020766616,-0.25486913,7.023583e-05,0.0,0.0,-0.001
712861781,-0.020877272,-0.2548132,9.281222e-05,0.0,0.0,-0.001
712866847,-0.020806888,-0.25520587,0.0001647332,0.0,0.0,-0.001
712871990,-0.020703448,-0.2551687,0.000116348754,0.0,0.0,-0.001
712877078,-0.020703357,-0.254939,7.243874e-05,0.0,0.0,-0.001
712882364,-0.020653447,-0.25493297,0.00022611034,0.0,0.0,-0.001
712887142,-0.020752408,-0.25487342,0.000320483,0.0,0.0,-0.001
712892200,-0.020748962,-0.25488195,0.00027006306,0.0,0.0,-0.001
712897576,-0.020733384,-0.2550118,0.00024868193,0.0,0.0,-0.001
712902477,-0.020920161,-0.25491852,0.00012801061,0.0,0.0,-0.001
712907353,-0.020929866,-0.25487873,0.00019404427,0.0,0.0,-0.001
712948063,-0.020816483,-0.25476363,0.00028619202,0.0,0.0,-0.001
712953183,-0.020539137,-0.25522268,0.00022766917,0.0,0.0,-0.001
712958195,-0.02098549,-0.2547998,6.745159e-05,0.0,0.0,-0.001
712963414,-0.021267526,-0.2545465,0.00023457817,0.0,0.0,-0.001
712968746,-0.020879786,-0.2549564,0.0003159328,0.0,0.0,-0.001
712973727,-0.020621903,-0.2549237,0.00021533515,0.0,0.0,-0.001
712978461,-0.02109128,-0.25451556,2.6897174e-05,0.0,0.0,-0.001
712983678,-0.021166107,-0.25466144,0.00021595895,0.0,0.0,-0.001
712988558,-0.020620305,-0.2550092,0.00030536548,0.0,0.0,-0.001
713019092,-0.021022957,-0.2546442,0.0001518744,0.0,0.0,-0.001
713024190,-0.020886468,-0.25463948,0.0003371071,0.0,0.0,-0.001
713029259,-0.020757724,-0.25433478,0.00026738786,0.0,0.0,-0.001
713034545,-0.020831695,-0.25452438,0.00017300669,0.0,0.0,-0.001
713039351,-0.020902779,-0.254883,0.00022772819,0.0,0.0,-0.001
713044639,-0.02088101,-0.25458875,0.00036606044,0.0,0.0,-0.001
713049612,-0.020718098,-0.25439712,0.00027003838,0.0,0.0,-0.001
713054766,-0.020699533,-0.25472182,0.00017288017,0.0,0.0,-0.001
713059631,-0.020891713,-0.25471827,0.00014276599,0.0,0.0,-0.001
713064747,-0.021032171,-0.2542275,0.00019204334,0.0,0.0,-0.001
713080118,-0.02106686,-0.25474775,0.0001999829,0.0,0.0,-0.001
713085147,-0.021015488,-0.25450566,0.00028993626,0.0,0.0,-0.001
713090183,-0.020649225,-0.25463226,0.00027636002,0.0,0.0,-0.001
713095615,-0.020799568,-0.25463215,0.00018978995,0.0,0.0,-0.001
713100324,-0.021162288,-0.25440896,0.00015494158,0.0,0.0,-0.001
713105488,-0.020900398,-0.25442758,0.00022828882,0.0,0.0,-0.001
713110424,-0.02072296,-0.2545196,0.00023092581,0.0,0.0,-0.001
713115568,-0.021072034,-0.25444046,0.00013729163,0.0,0.0,-0.001
713120810,-0.02121833,-0.25455487,0.00023383595,0.0,0.0,-0.001
713130809,-0.02076391,-0.2543766,0.00021309665,0.0,0.0,-0.001
713136195,-0.021125814,-0.2544022,0.00011284641,0.0,0.0,-0.001
713140773,-0.02096416,-0.25471672,0.00029515722,0.0,0.0,-0.001
713145958,-0.02080554,-0.2544912,0.00033384204,0.0,0.0,-0.001
713150982,-0.02107977,-0.2540461,0.00020842615,0.0,0.0,-0.001
713156191,-0.02109723,-0.25444722,0.00012901679,0.0,0.0,-0.001
713161154,-0.020792408,-0.25484106,0.00027979515,0.0,0.0,-0.001
713166838,-0.021017356,-0.25439793,0.00024094952,0.0,0.0,-0.001
713171259,-0.021359894,-0.25416785,0.00016556436,0.0,0.0,-0.001
713176631,-0.021097217,-0.25476083,0.00020992549,0.0,0.0,-0.001
713186811,-0.021188881,-0.25425026,7.610845e-05,0.0,0.0,-0.001
713191632,-0.021278609,-0.25431344,8.1136786e-05,0.0,0.0,-0.001
713197397,-0.021018097,-0.254938,0.00017279045,0.0,0.0,-0.001
713201804,-0.021145549,-0.25483176,0.00013645012,0.0,0.0,-0.001
713207229,-0.021354845,-0.2542935,5.762643e-05,0.0,0.0,-0.001
713212052,-0.021243148,-0.25457475,0.00010790121,0.0,0.0,-0.001
713217133,-0.021162294,-0.25492454,0.00018986016,0.0,0.0,-0.001
713222107,-0.021308962,-0.25474384,1.1538578e-05,0.0,0.0,-0.001
713227236,-0.021410432,-0.254543,9.994642e-06,0.0,0.0,-0.001
713232729,-0.021285336,-0.25473616,7.563995e-05,0.0,0.0,-0.001
713237427,-0.021301055,-0.25483027,8.260172e-05,0.0,0.0,-0.001
713242420,-0.021377206,-0.254793,7.576557e-05,0.0,0.0,-0.001
713247690,-0.021476483,-0.25482225,0.00011634307,0.0,0.0,-0.001
713252805,-0.021601574,-0.25478813,0.00015607654,0.0,0.0,-0.001
713257874,-0.02153455,-0.25477555,0.00011947392,0.0,0.0,-0.001
713262747,-0.02145842,-0.2548849,0.00012988361,0.0,0.0,-0.001
713268257,-0.021615047,-0.2547136,0.00019149572,0.0,0.0,-0.001
713272878,-0.021842396,-0.25439405,0.00020929867,0.0,0.0,-0.001
713278026,-0.021578595,-0.2546792,0.00017205167,0.0,0.0,-0.001
713283076,-0.021446083,-0.25497767,9.422827e-05,0.0,0.0,-0.001
713288388,-0.02183372,-0.25456187,0.0001273953,0.0,0.0,-0.001
713293249,-0.02199388,-0.2544955,0.00022441617,0.0,0.0,-0.001
713298695,-0.021432888,-0.25493902,0.00023421811,0.0,0.0,-0.001
713303240,-0.021551952,-0.25489545,6.425941e-05,0.0,0.0,-0.001
713308573,-0.022103976,-0.2544079,2.8650717e-05,0.0,0.0,-0.001
713313405,-0.02189243,-0.25454244,0.00017619779,0.0,0.0,-0.001
713318606,-0.021348566,-0.25485483,0.00017281754,0.0,0.0,-0.001
713323646,-0.021675557,-0.25457144,5.9144477e-05,0.0,0.0,-0.001
713329175,-0.022187732,-0.25434545,1.2696237e-05,0.0,0.0,-0.001
713334103,-0.021680767,-0.25476173,0.00014184654,0.0,0.0,-0.001
713338951,-0.021370256,-0.25487778,6.391813e-05,0.0,0.0,-0.001
713343959,-0.021869237,-0.25454333,1.19139995e-05,0.0,0.0,-0.001
713349145,-0.022036519,-0.25456914,7.050129e-05,0.0,0.0,-0.001
713354066,-0.021589162,-0.2547365,0.00024530248,0.0,0.0,-0.001
713359343,-0.021559479,-0.2545605,3.389551e-05,0.0,0.0,-0.001
713364535,-0.022013495,-0.2544212,7.724054e-05,0.0,0.0,-0.001
713369505,-0.021849858,-0.25458908,0.0002046072,0.0,0.0,-0.001
713374435,-0.021565583,-0.25442678,0.0003424586,0.0,0.0,-0.001
713379702,-0.021655146,-0.25422314,0.00013164603,0.0,0.0,-0.001
713384505,-0.021775277,-0.2544483,0.000102695616,0.0,0.0,-0.001
713389623,-0.021790043,-0.25456864,0.00022105772,0.0,0.0,-0.001
713394594,-0.021875016,-0.2542643,0.0002257811,0.0,0.0,-0.001
713399820,-0.021825114,-0.25433427,5.4801014e-05,0.0,0.0,-0.001
713404916,-0.021764567,-0.25463364,0.00017846955,0.0,0.0,-0.001
713410071,-0.0217943,-0.25445738,0.00026385847,0.0,0.0,-0.001
713415018,-0.021715917,-0.2541017,0.00024938077,0.0,0.0,-0.001
713420167,-0.021472145,-0.25448585,0.00020382905,0.0,0.0,-0.001
713425137,-0.021721508,-0.2547073,0.00022923437,0.0,0.0,-0.001
713430590,-0.02210917,-0.25440568,0.00026190944,0.0,0.0,-0.001
713435632,-0.021804867,-0.25429326,0.00025340315,0.0,0.0,-0.001
713440416,-0.02142914,-0.25460938,0.00020138136,0.0,0.0,-0.001
713445439,-0.021809112,-0.2545493,0.00014551467,0.0,0.0,-0.001
713450740,-0.02200773,-0.2543395,0.0002352313,0.0,0.0,-0.001
713455643,-0.021642197,-0.25443628,0.00023821877,0.0,0.0,-0.001
713461381,-0.021713683,-0.25454417,0.00020206264,0.0,0.0,-0.001
713465672,-0.022045268,-0.2545973,9.755831e-05,0.0,0.0,-0.001
713470712,-0.021903394,-0.25465062,0.00015026965,0.0,0.0,-0.001
713475784,-0.021436175,-0.25454363,0.00016877061,0.0,0.0,-0.001
713480913,-0.021771109,-0.2543626,0.00010610955,0.0,0.0,-0.001
713486097,-0.022064883,-0.254471,0.00014397452,0.0,0.0,-0.001
713491295,-0.02171704,-0.2545675,0.00023269923,0.0,0.0,-0.001
713496579,-0.021743432,-0.254247,0.00017510616,0.0,0.0,-0.001
713501620,-0.022025026,-0.2542398,7.603729e-05,0.0,0.0,-0.001
713506404,-0.021823784,-0.25472236,0.0001937424,0.0,0.0,-0.001
713511668,-0.021653242,-0.25467002,0.00030146338,0.0,0.0,-0.001
713587669,-0.021868074,-0.25442463,0.00014388179,0.0,0.0,-0.001
713592772,-0.022031426,-0.25427958,6.320721e-05,0.0,0.0,-0.001
713598085,-0.021999972,-0.25423804,0.00020381468,0.0,0.0,-0.001
713602897,-0.02192166,-0.25428075,0.00018852705,0.0,0.0,-0.001
713607920,-0.02175224,-0.2542408,7.90102e-05,0.0,0.0,-0.001
713613184,-0.021841738,-0.25423837,1.261282e-05,0.0,0.0,-0.001
713618327,-0.022005172,-0.2541828,0.00033878034,0.0,0.0,-0.001
713623174,-0.022012968,-0.25428894,0.0003199302,0.0,0.0,-0.001
713628168,-0.021783581,-0.25454968,0.00024916115,0.0,0.0,-0.001
713633626,-0.021901129,-0.25435597,0.000273678,0.0,0.0,-0.001
713638289,-0.022264404,-0.25403878,0.00022391547,0.0,0.0,-0.001
713643359,-0.021939723,-0.25416955,0.00020218197,0.0,0.0,-0.001
713648487,-0.021551384,-0.25436762,0.00013563783,0.0,0.0,-0.001
713653614,-0.02197319,-0.25413495,0.00012976672,0.0,0.0,-0.001
713658710,-0.02234519,-0.253961,0.00025094367,0.0,0.0,-0.001
713664350,-0.02176812,-0.25429586,0.00024995444,0.0,0.0,-0.001
713668798,-0.021619141,-0.2543352,0.00015003441,0.0,0.0,-0.001
713673938,-0.022347553,-0.25401932,0.00010119241,0.0,0.0,-0.001
713678926,-0.022330634,-0.2540681,0.00024242951,0.0,0.0,-0.001
713684107,-0.021650923,-0.25428995,0.00031181288,0.0,0.0,-0.001
713689112,-0.021947782,-0.25423092,0.00015847475,0.0,0.0,-0.001
713694549,-0.022509662,-0.25407273,0.0001303791,0.0,0.0,-0.001
713699770,-0.022010356,-0.25414562,0.00028119373,0.0,0.0,-0.001
713704400,-0.021699226,-0.25412506,0.0003058113,0.0,0.0,-0.001
713709398,-0.022204109,-0.25403205,8.403498e-05,0.0,0.0,-0.001
713714554,-0.022409596,-0.25411093,0.00015307294,0.0,0.0,-0.001
713719497,-0.021965247,-0.25416747,0.00030809687,0.0,0.0,-0.001
713724569,-0.021865845,-0.25400138,0.000118027776,0.0,0.0,-0.001
713729999,-0.022186473,-0.25403813,-6.401041e-05,0.0,0.0,-0.001
713734788,-0.022062724,-0.25426722,8.5104184e-05,0.0,0.0,-0.001
713740192,-0.021916967,-0.25410557,0.00017950051,0.0,0.0,-0.001
713745007,-0.022001617,-0.25389418,4.517512e-05,0.0,0.0,-0.001
713750104,-0.022009049,-0.25412035,-7.349733e-05,0.0,0.0,-0.001
713755450,-0.021883145,-0.25414813,4.8509275e-05,0.0,0.0,-0.001
713760149,-0.02207514,-0.25383615,5.7308967e-05,0.0,0.0,-0.001
713805778,-0.021838507,-0.25377026,0.00013450283,0.0,0.0,-0.001
713810795,-0.02200575,-0.25392652,0.0001588735,0.0,0.0,-0.001
713816055,-0.022135194,-0.25385776,0.00012968187,0.0,0.0,-0.001
713821006,-0.021766856,-0.253676,0.00020861138,0.0,0.0,-0.001
713826319,-0.021791294,-0.2537542,0.00019021258,0.0,0.0,-0.001
